Property URL,MLS ID,Number of days on Zillow,Property price (USD),Zestimate (USD),Rent zestimate (USD per month),Tax assessed value (USD),Sold date (MM/DD/YYYY),Living area,Living area unit,Price per living area unit (USD),Lot/land area,Lot/land area unit,Price per lot/land area unit (USD),Bedrooms,Bathrooms,Broker name,Broker agent,Is owner occupied,Property owned by Zillow,Property unit number,Street address,City,Zip,State,Country,Latitude,Longitude,Listing Type
https://www.zillow.com/homedetails/3275-Niagara-Sq-Pittsburgh-PA-15213/11413303_zpid/,,,130000,119100.0,1200,59600.0,10/12/2023,460.0,sqft,282.61,565.0,sqft,230.09,1.0,1.0,,,No,No,,3275 Niagara Sq,Pittsburgh,15213,PA,USA,40.43461,-79.95979,apartments
https://www.zillow.com/homedetails/206-Parks-Rd-Mc-Donald-PA-15057/2089606534_zpid/,,,340000,,1114,,09/13/2023,,,,6290.06,sqft,54.05,12.0,6.0,,Barbara Baker,No,No,,206 Parks Rd,Mc Donald,15057,PA,USA,40.338158,-80.17364,apartments
https://www.zillow.com/homedetails/221-Meredith-St-Pittsburgh-PA-15210/11556978_zpid/,,,88000,117800.0,1200,67100.0,08/11/2023,,,,6181.16,sqft,14.24,4.0,2.0,,Maryjay Rush,No,No,,221 Meredith St,Pittsburgh,15210,PA,USA,40.39799,-79.98461,apartments
https://www.zillow.com/homedetails/320-Zara-St-Pittsburgh-PA-15210/11316994_zpid/,,,90000,,1900,65500.0,08/04/2023,2479.0,sqft,36.3,3750.0,sqft,24.0,3.0,2.0,,,No,No,,320 Zara St,Pittsburgh,15210,PA,USA,40.415546,-79.99404,apartments
https://www.zillow.com/homedetails/151-Fort-Pitt-Blvd-APT-604-Pittsburgh-PA-15222/87986241_zpid/,,,460000,459500.0,2471,313600.0,07/31/2023,1275.0,sqft,360.78,,,,2.0,2.0,,David Onufer,No,No,Apt 604,151 Fort Pitt Blvd APT 604,Pittsburgh,15222,PA,USA,40.43869,-80.00467,apartments
https://www.zillow.com/homedetails/1116-Berkshire-Ave-Pittsburgh-PA-15226/11653614_zpid/,,,165000,,850,113300.0,07/27/2023,1974.0,sqft,83.59,,,,1.0,1.0,,,No,No,,1116 Berkshire Ave,Pittsburgh,15226,PA,USA,40.389565,-80.01622,apartments
https://www.zillow.com/homedetails/311-Walpole-Dr-Pittsburgh-PA-15235/11451079_zpid/,,,130000,160000.0,1154,87400.0,07/25/2023,1050.0,sqft,123.81,7062.0,sqft,18.41,2.0,1.0,,,No,No,,311 Walpole Dr,Pittsburgh,15235,PA,USA,40.46534,-79.84631,apartments
https://www.zillow.com/homedetails/910-West-St-Homestead-PA-15120/11292399_zpid/,,,126500,126100.0,1165,24600.0,07/24/2023,1744.0,sqft,72.53,1742.0,sqft,72.62,2.0,1.0,,,No,No,,910 West St,Homestead,15120,PA,USA,40.404945,-79.911095,apartments
https://www.zillow.com/homedetails/411-Biddle-Ave-Pittsburgh-PA-15221/11342270_zpid/,,,190000,195400.0,1569,92700.0,07/14/2023,1100.0,sqft,172.73,3388.0,sqft,56.08,2.0,1.5,,,No,No,,411 Biddle Ave,Pittsburgh,15221,PA,USA,40.438274,-79.891685,apartments
https://www.zillow.com/homedetails/112-Washington-Pl-Pittsburgh-PA-15219/11420532_zpid/,,,110000,152600.0,1849,68200.0,03/04/2021,1000.0,sqft,110.0,10585.0,sqft,10.39,2.0,2.0,,,No,No,,112 Washington Pl,Pittsburgh,15219,PA,USA,40.439552,-79.99235,apartments
https://www.zillow.com/homedetails/1025-Towervue-Dr-Pittsburgh-PA-15227/11551967_zpid/,,,156843,,1634,99900.0,07/12/2023,1188.0,sqft,132.02,8250.0,sqft,19.01,3.0,2.0,,,No,No,,1025 Towervue Dr,Pittsburgh,15227,PA,USA,40.397285,-79.96386,apartments
https://www.zillow.com/homedetails/420-N-Chestnut-St-APT-708-Pittsburgh-PA-15202/11325008_zpid/,,,70000,70200.0,959,57500.0,07/11/2023,760.0,sqft,92.11,187.31,sqft,373.72,1.0,1.0,,Melissa Faulkner,No,No,Apt 708,420 N Chestnut St APT 708,Pittsburgh,15202,PA,USA,40.50042,-80.06513,apartments
https://www.zillow.com/homedetails/4129-Murray-Ave-Pittsburgh-PA-15217/11636432_zpid/,,,342500,365100.0,1367,166500.0,07/03/2023,2944.0,sqft,116.34,4800.0,sqft,71.35,2.0,1.0,,,No,No,,4129 Murray Ave,Pittsburgh,15217,PA,USA,40.424,-79.92806,apartments
https://www.zillow.com/homedetails/8342-Ohio-River-Blvd-Pittsburgh-PA-15202/11404793_zpid/,,,50000,,1134,100900.0,06/29/2023,1600.0,sqft,31.25,5691.0,sqft,8.79,2.0,1.0,,,No,No,,8342 Ohio River Blvd,Pittsburgh,15202,PA,USA,40.51242,-80.104195,apartments
https://www.zillow.com/homedetails/3381-Parkview-Ave-Pittsburgh-PA-15213/11413708_zpid/,,,208000,222000.0,2028,62700.0,06/28/2023,1500.0,sqft,138.67,1980.0,sqft,105.05,3.0,1.0,,,No,No,,3381 Parkview Ave,Pittsburgh,15213,PA,USA,40.43393,-79.95254,apartments
https://www.zillow.com/homedetails/2034-Swallow-Hill-Rd-APT-428-Pittsburgh-PA-15220/11577376_zpid/,,,104000,104400.0,1173,69500.0,06/26/2023,816.0,sqft,127.45,,sqft,,2.0,1.0,,Vivian Ulrich,No,No,Apt 428,2034 Swallow Hill Rd APT 428,Pittsburgh,15220,PA,USA,40.39917,-80.07738,apartments
https://www.zillow.com/homedetails/148-Robinson-St-Pittsburgh-PA-15213/11412370_zpid/,,,340000,332400.0,1295,56200.0,06/16/2023,2700.0,sqft,125.93,2500.34,sqft,135.98,4.0,2.0,,Brian Larson,No,No,,148 Robinson St,Pittsburgh,15213,PA,USA,40.439278,-79.96522,apartments
https://www.zillow.com/homedetails/628-Middle-Ave-Wilmerding-PA-15148/11536487_zpid/,,,80000,,942,21200.0,06/16/2023,1240.0,sqft,64.52,2102.0,sqft,38.06,2.0,1.0,,,No,No,,628 Middle Ave,Wilmerding,15148,PA,USA,40.397427,-79.81089,apartments
https://www.zillow.com/homedetails/3809-Beechwood-Blvd-Pittsburgh-PA-15217/11635754_zpid/,,,675000,513300.0,3027,130600.0,06/05/2023,1702.0,sqft,396.59,5598.0,sqft,120.58,2.0,1.0,,,No,No,,3809 Beechwood Blvd,Pittsburgh,15217,PA,USA,40.428047,-79.93041,apartments
https://www.zillow.com/homedetails/1813-Mount-Joseph-St-Pittsburgh-PA-15210/11557172_zpid/,,,222500,215800.0,1185,66700.0,05/31/2023,1100.0,sqft,202.27,5520.0,sqft,40.31,1.0,1.0,,,No,No,,1813 Mount Joseph St,Pittsburgh,15210,PA,USA,40.39637,-79.99004,apartments
https://www.zillow.com/homedetails/5507-Bartlett-St-Pittsburgh-PA-15217/11631744_zpid/,,,367000,374100.0,2400,193600.0,05/17/2023,2061.0,sqft,178.07,2375.0,sqft,154.53,5.0,2.0,,,No,No,,5507 Bartlett St,Pittsburgh,15217,PA,USA,40.435658,-79.93028,apartments
https://www.zillow.com/homedetails/215-25th-St-8-Pittsburgh-PA-15222/164605657_zpid/,,,2400000,2429100.0,14665,1405800.0,05/17/2023,5425.0,sqft,442.4,,,,4.0,3.5,,,No,No,# 8,215 25th St #8,Pittsburgh,15222,PA,USA,40.454617,-79.97986,apartments
https://www.zillow.com/homedetails/1624-Forest-Green-Dr-Coraopolis-PA-15108/11552186_zpid/,,,119000,120900.0,1500,60300.0,05/04/2023,1124.0,sqft,105.87,15972.0,acres,7.45,2.0,1.5,,,No,No,,1624 Forest Green Dr,Coraopolis,15108,PA,USA,40.507694,-80.21531,apartments
https://www.zillow.com/homedetails/1724-Chislett-St-Pittsburgh-PA-15206/11278374_zpid/,,,240000,311200.0,925,110100.0,05/03/2023,2525.0,sqft,95.05,3000.0,sqft,80.0,1.0,1.0,,,No,No,,1724 Chislett St,Pittsburgh,15206,PA,USA,40.484707,-79.92631,apartments
https://www.zillow.com/homedetails/1235-8th-Ave-Natrona-Heights-PA-15065/11301730_zpid/,,,74000,,1366,103700.0,05/02/2023,3196.0,sqft,23.15,6000.0,sqft,12.33,3.0,2.0,,,No,No,,1235 8th Ave,Natrona Heights,15065,PA,USA,40.61079,-79.73387,apartments
https://www.zillow.com/homedetails/130-S-22nd-St-Pittsburgh-PA-15203/119345510_zpid/,,,159000,,1200,16000.0,04/27/2023,,,,724.0,sqft,219.61,1.0,1.0,,,No,No,,130 S 22nd St,Pittsburgh,15203,PA,USA,40.426765,-79.97494,apartments
https://www.zillow.com/homedetails/140-North-Ave-APT-68-Pittsburgh-PA-15202/11405260_zpid/,,,42000,99500.0,1014,49500.0,04/20/2023,752.0,sqft,55.85,752.0,sqft,55.85,1.0,1.0,,,No,No,Apt 68,140 North Ave APT 68,Pittsburgh,15202,PA,USA,40.510937,-80.09666,apartments
https://www.zillow.com/homedetails/7301-McClure-Ave-Pittsburgh-PA-15218/11345113_zpid/,,,183000,267400.0,963,105200.0,04/17/2023,3034.0,sqft,60.32,6645.0,sqft,27.54,1.0,1.0,,,No,No,,7301 McClure Ave,Pittsburgh,15218,PA,USA,40.42235,-79.893005,apartments
https://www.zillow.com/homedetails/665-Robinwood-Dr-APT-B-Pittsburgh-PA-15216/59836102_zpid/,,,92000,149700.0,1325,75000.0,04/17/2023,744.0,sqft,123.66,959.0,acres,95.93,2.0,1.0,,,No,No,Apt B,665 Robinwood Dr APT B,Pittsburgh,15216,PA,USA,40.392693,-80.05613,apartments
https://www.zillow.com/homedetails/601-Blackburn-Rd-Sewickley-PA-15143/11519169_zpid/,,,550000,,966,200000.0,04/13/2023,750.0,sqft,733.33,4434.0,sqft,124.04,2.0,1.0,,,No,No,,601 Blackburn Rd,Sewickley,15143,PA,USA,40.542458,-80.18075,apartments
https://www.zillow.com/homedetails/4706-Coleridge-St-Pittsburgh-PA-15201/11615210_zpid/,,,220350,309700.0,1599,122800.0,04/13/2023,1056.0,sqft,208.66,5006.0,sqft,44.02,2.0,1.0,,,No,No,,4706 Coleridge St,Pittsburgh,15201,PA,USA,40.473736,-79.952095,apartments
https://www.zillow.com/homedetails/2003-Thornberry-Dr-Pittsburgh-PA-15237/11409501_zpid/,,,144000,147700.0,1414,83100.0,04/10/2023,810.0,sqft,177.78,,,,2.0,1.0,,Kevin Trumble,No,No,,2003 Thornberry Dr,Pittsburgh,15237,PA,USA,40.51628,-79.99244,apartments
https://www.zillow.com/homedetails/913-6th-Ave-Coraopolis-PA-15108/11478629_zpid/,,,39000,,935,41600.0,04/06/2023,486.0,sqft,80.25,1727.0,sqft,22.58,2.0,1.0,,,No,No,,913 6th Ave,Coraopolis,15108,PA,USA,40.517365,-80.16667,apartments
https://www.zillow.com/homedetails/7703-Westmoreland-Ave-Pittsburgh-PA-15218/11345381_zpid/,,,370000,384100.0,1069,87900.0,04/03/2023,3648.0,sqft,101.43,4004.0,sqft,92.41,2.0,1.0,,,No,No,,7703 Westmoreland Ave,Pittsburgh,15218,PA,USA,40.422916,-79.88383,apartments
https://www.zillow.com/homedetails/2160-Greentree-Rd-APT-201W-Pittsburgh-PA-15220/164542588_zpid/,,,119900,123000.0,990,62200.0,03/29/2023,681.0,sqft,176.06,,,,1.0,1.0,,Angie Flowers,No,No,Apt 201W,2160 Greentree Rd APT 201W,Pittsburgh,15220,PA,USA,40.39228,-80.072914,apartments
https://www.zillow.com/homedetails/408-Monongahela-Ave-Glassport-PA-15045/11504591_zpid/,,,50000,,895,36200.0,03/22/2023,1536.0,sqft,32.55,2750.0,sqft,18.18,2.0,1.0,,,No,No,,408 Monongahela Ave,Glassport,15045,PA,USA,40.328766,-79.89223,apartments
https://www.zillow.com/homedetails/2801-Neeld-Ave-Pittsburgh-PA-15216/11565106_zpid/,,,95000,,998,64300.0,03/14/2023,1000.0,sqft,95.0,,,,1.0,1.0,,,No,No,,2801 Neeld Ave,Pittsburgh,15216,PA,USA,40.402462,-80.031204,apartments
https://www.zillow.com/homedetails/4807-Yew-St-Pittsburgh-PA-15224/87991113_zpid/,,,1100000,,1400,272600.0,03/13/2023,,,,3600.0,sqft,305.56,,,,,No,No,,4807 Yew St,Pittsburgh,15224,PA,USA,40.458336,-79.947655,apartments
https://www.zillow.com/homedetails/136-4th-St-Aspinwall-PA-15225/11367342_zpid/,,,165000,177300.0,834,131100.0,03/09/2023,500.0,sqft,330.0,2870.0,sqft,57.49,1.0,1.0,,,No,No,,136 4th St,Aspinwall,15225,PA,USA,40.509827,-80.12764,apartments
https://www.zillow.com/homedetails/41-Boggs-Ave-Pittsburgh-PA-15211/119345732_zpid/,,,235000,,998,62300.0,03/08/2023,800.0,sqft,293.75,3920.0,sqft,59.95,1.0,1.0,,,No,No,,41 Boggs Ave,Pittsburgh,15211,PA,USA,40.42619,-80.007065,apartments
https://www.zillow.com/homedetails/707-The-Gardens-Dr-Pittsburgh-PA-15238/164626142_zpid/,,,915000,949500.0,5754,620200.0,02/28/2023,4900.0,sqft,186.73,,,,4.0,3.5,,,No,No,,707 The Gardens Dr,Pittsburgh,15238,PA,USA,40.52659,-79.92114,apartments
https://www.zillow.com/homedetails/603-Calais-Dr-APT-2104-Pittsburgh-PA-15237/11589353_zpid/,,,124000,128900.0,974,63500.0,02/23/2023,772.0,sqft,160.62,2104.0,acres,58.94,1.0,1.0,,,No,No,Apt 2104,603 Calais Dr APT 2104,Pittsburgh,15237,PA,USA,40.567482,-80.053246,apartments
https://www.zillow.com/homedetails/1214-Rebecca-St-Braddock-PA-15104/11422387_zpid/,,,38900,40300.0,1055,18800.0,02/22/2023,1052.0,sqft,36.98,3301.85,sqft,11.78,2.0,1.0,,Edward Werner,No,No,,1214 Rebecca St,Braddock,15104,PA,USA,40.399532,-79.8588,apartments
https://www.zillow.com/homedetails/603-Calais-Dr-APT-2108-Pittsburgh-PA-15237/11589357_zpid/,,,124000,126300.0,974,63500.0,02/17/2023,772.0,sqft,160.62,18.88,acres,6567.11,1.0,1.0,,,No,No,Apt 2108,603 Calais Dr APT 2108,Pittsburgh,15237,PA,USA,40.567482,-80.053246,apartments
https://www.zillow.com/homedetails/151-Fort-Pitt-Blvd-APT-1604-Pittsburgh-PA-15222/119346557_zpid/,,,575000,565800.0,3407,519100.0,02/15/2023,1304.0,sqft,440.95,1304.0,sqft,440.95,2.0,2.0,,,No,No,Apt 1604,151 Fort Pitt Blvd APT 1604,Pittsburgh,15222,PA,USA,40.438683,-80.00467,apartments
https://www.zillow.com/homedetails/470-Ella-St-Wilkinsburg-PA-15221/11380931_zpid/,,,32500,33900.0,1157,31200.0,02/10/2023,1020.0,sqft,31.86,3484.8,sqft,9.33,2.0,1.0,,Dustin Nulf,No,No,,470 Ella St,Wilkinsburg,15221,PA,USA,40.436672,-79.87849,apartments
https://www.zillow.com/homedetails/520-Washington-Rd-Pittsburgh-PA-15228/87991909_zpid/,,,260000,180800.0,1275,65200.0,02/08/2023,,,,6100.0,sqft,42.62,2.0,1.5,,,No,No,,520 Washington Rd,Pittsburgh,15228,PA,USA,40.38361,-80.044075,apartments
https://www.zillow.com/homedetails/703-College-Park-Dr-Coraopolis-PA-15108/2107942973_zpid/,,,72000,,956,,02/08/2023,600.0,sqft,120.0,,,,1.0,1.0,,,No,No,,703 College Park Dr,Coraopolis,15108,PA,USA,,,apartments
https://www.zillow.com/homedetails/849-Jackman-Ave-Pittsburgh-PA-15202/11323109_zpid/,,,100000,,1097,57800.0,02/06/2023,1094.0,sqft,91.41,2816.0,sqft,35.51,2.0,1.0,,,No,No,,849 Jackman Ave,Pittsburgh,15202,PA,USA,40.49737,-80.0662,apartments
https://www.zillow.com/homedetails/2110-West-St-Homestead-PA-15120/11294137_zpid/,,,140000,124100.0,1050,51600.0,02/03/2023,,,,3301.85,sqft,42.4,3.0,2.0,,Kenneth Weir,No,No,,2110 West St,Homestead,15120,PA,USA,40.397514,-79.90324,apartments
https://www.zillow.com/homedetails/231-Coxcomb-Hill-Rd-APT-4-New-Kensington-PA-15068/11596158_zpid/,,,60000,124600.0,1146,35900.0,02/02/2023,945.0,sqft,63.49,0.6,acres,100639.2,2.0,1.0,,,No,No,Apt 4,231 Coxcomb Hill Rd APT 4,New Kensington,15068,PA,USA,40.529797,-79.77739,apartments
https://www.zillow.com/homedetails/304-Mayfield-Ave-Pittsburgh-PA-15214/11609950_zpid/,,,106000,135500.0,1495,46000.0,01/27/2023,990.0,sqft,107.07,2500.0,sqft,42.4,2.0,1.5,,,No,No,,304 Mayfield Ave,Pittsburgh,15214,PA,USA,40.473576,-80.0138,apartments
https://www.zillow.com/homedetails/5-Bayard-Rd-Pittsburgh-PA-15213/2079638006_zpid/,,,187000,,2199,,01/23/2023,1270.0,sqft,147.24,,,,2.0,2.0,,,No,No,,5 Bayard Rd,Pittsburgh,15213,PA,USA,40.452713,-79.94253,apartments
https://www.zillow.com/homedetails/194-N-Balph-Ave-FLOOR-2-Pittsburgh-PA-15202/2067615349_zpid/,,,315000,,2100,,01/20/2023,1700.0,sqft,185.29,,,,4.0,2.0,,,No,No,Floor 2,194 N Balph Ave FLOOR 2,Pittsburgh,15202,PA,USA,40.500572,-80.05165,apartments
https://www.zillow.com/homedetails/146-Lee-St-Carnegie-PA-15106/11254418_zpid/,,,190000,275500.0,1489,135600.0,01/12/2023,2578.0,sqft,73.7,0.5,acres,380000.0,3.0,1.0,,,No,No,,146 Lee St,Carnegie,15106,PA,USA,40.400524,-80.08371,apartments
https://www.zillow.com/homedetails/6228-Freeport-Rd-Freeport-PA-16229/11386917_zpid/,,,126500,186800.0,899,82000.0,01/09/2023,865.0,sqft,146.24,0.58,acres,216669.55,2.0,1.0,,,No,No,,6228 Freeport Rd,Freeport,16229,PA,USA,40.66759,-79.70165,apartments
https://www.zillow.com/homedetails/800-College-Park-Dr-APT-1-Coraopolis-PA-15108/11584075_zpid/,,,82000,86200.0,999,40000.0,01/03/2023,594.0,sqft,138.05,11.61,acres,7059.84,1.0,1.0,,,No,No,Apt 1,800 College Park Dr APT 1,Coraopolis,15108,PA,USA,40.519886,-80.22088,apartments
https://www.zillow.com/homedetails/1244-Hillsdale-Ave-Pittsburgh-PA-15216/11655323_zpid/,,,250000,292000.0,1257,133700.0,01/03/2023,2020.0,sqft,123.76,3600.0,sqft,69.44,2.0,1.0,,,No,No,,1244 Hillsdale Ave,Pittsburgh,15216,PA,USA,40.39204,-80.03525,apartments
https://www.zillow.com/homedetails/129-Baywood-Ave-Pittsburgh-PA-15228/11311314_zpid/,,,80000,84100.0,1207,40000.0,12/30/2022,900.0,sqft,88.89,486.0,sqft,164.61,1.0,1.0,,,No,No,,129 Baywood Ave,Pittsburgh,15228,PA,USA,40.380424,-80.04713,apartments
https://www.zillow.com/homedetails/325-S-Highland-Ave-Pittsburgh-PA-15206/11624943_zpid/,,,355000,223900.0,1134,1000.0,12/30/2022,640.0,sqft,554.69,146.0,sqft,2431.51,1.0,1.0,,,No,No,,325 S Highland Ave,Pittsburgh,15206,PA,USA,40.456604,-79.92491,apartments
https://www.zillow.com/homedetails/6425-Forbes-Ave-Pittsburgh-PA-15217/11631252_zpid/,,,298000,439800.0,2199,244300.0,12/22/2022,1000.0,sqft,298.0,3632.0,sqft,82.05,3.0,2.0,,,No,No,,6425 Forbes Ave,Pittsburgh,15217,PA,USA,40.43822,-79.916756,apartments
https://www.zillow.com/homedetails/1205-Kenzie-Dr-Pittsburgh-PA-15205/11400690_zpid/,,,150000,190600.0,1494,94800.0,12/19/2022,1026.0,sqft,146.2,1026.0,sqft,146.2,2.0,2.0,,,No,No,,1205 Kenzie Dr,Pittsburgh,15205,PA,USA,40.441654,-80.13902,apartments
https://www.zillow.com/homedetails/1449-Electric-Ave-East-Pittsburgh-PA-15112/11457762_zpid/,,,32000,131200.0,2060,31100.0,12/15/2022,1827.0,sqft,17.52,2500.0,sqft,12.8,4.0,3.0,,,No,No,,1449 Electric Ave,East Pittsburgh,15112,PA,USA,40.40547,-79.83897,apartments
https://www.zillow.com/homedetails/848-Thorn-St-Sewickley-PA-15143/2079207080_zpid/,,,140750,,1400,,12/14/2022,,,,,,,2.0,1.0,,,No,No,,848 Thorn St,Sewickley,15143,PA,USA,40.534286,-80.178345,apartments
https://www.zillow.com/homedetails/604-Calais-Dr-APT-1109-Pittsburgh-PA-15237/11589323_zpid/,,,119900,122100.0,974,63300.0,12/12/2022,765.0,sqft,156.73,1109.0,acres,108.12,1.0,1.0,,,No,No,Apt 1109,604 Calais Dr APT 1109,Pittsburgh,15237,PA,USA,40.56788,-80.055046,apartments
https://www.zillow.com/homedetails/601-Gross-St-Pittsburgh-PA-15224/87993522_zpid/,,,235000,,1262,80300.0,12/09/2022,800.0,sqft,293.75,1108.0,sqft,212.09,1.0,1.0,,,No,No,,601 Gross St,Pittsburgh,15224,PA,USA,40.458,-79.945984,apartments
https://www.zillow.com/homedetails/241-243-Castle-Shannon-Blvd-Pittsburgh-PA-15228/11312263_zpid/,,,165000,,1275,158800.0,12/06/2022,1100.0,sqft,150.0,5750.0,sqft,28.7,2.0,1.0,,,No,No,,241-243 Castle Shannon Blvd,Pittsburgh,15228,PA,USA,40.376858,-80.0383,apartments
https://www.zillow.com/homedetails/721-Wisteria-Ave-F6-Pittsburgh-PA-15228/59836614_zpid/,,,170000,151800.0,1238,69400.0,12/05/2022,1092.0,sqft,155.68,901.0,sqft,188.68,2.0,1.0,,,No,No,# F6,721 Wisteria Ave #F6,Pittsburgh,15228,PA,USA,40.37896,-80.0434,apartments
https://www.zillow.com/homedetails/446-Hoodridge-Dr-Pittsburgh-PA-15234/2060803653_zpid/,,,106900,,895,,11/30/2022,700.0,sqft,152.71,,,,1.0,1.0,,,No,No,,446 Hoodridge Dr,Pittsburgh,15234,PA,USA,40.366863,-80.033775,apartments
https://www.zillow.com/homedetails/193-Saint-Joseph-St-Pittsburgh-PA-15210/11435995_zpid/,,,75000,78900.0,825,47700.0,11/28/2022,1680.0,sqft,44.64,2687.0,sqft,27.91,,1.0,,,No,No,,193 Saint Joseph St,Pittsburgh,15210,PA,USA,40.41321,-79.983,apartments
https://www.zillow.com/homedetails/144-N-Dithridge-St-Pittsburgh-PA-15213/2073539031_zpid/,,,170000,,1581,,11/15/2022,1050.0,sqft,161.9,,,,2.0,1.0,,,No,No,,144 N Dithridge St,Pittsburgh,15213,PA,USA,40.448307,-79.95119,apartments
https://www.zillow.com/homedetails/842-Thorn-St-Sewickley-PA-15143/2119684882_zpid/,,,130000,,1218,,11/10/2022,847.0,sqft,153.48,,,,2.0,1.0,,,No,No,,842 Thorn St,Sewickley,15143,PA,USA,40.534264,-80.178635,apartments
https://www.zillow.com/homedetails/5708-Walnut-St-Pittsburgh-PA-15232/11628680_zpid/,,,315000,320800.0,1594,219000.0,11/07/2022,985.0,sqft,319.8,1811.0,sqft,173.94,2.0,1.0,,,No,No,,5708 Walnut St,Pittsburgh,15232,PA,USA,40.45198,-79.93008,apartments
https://www.zillow.com/homedetails/1400-Smokey-Wood-Dr-Pittsburgh-PA-15218/11382375_zpid/,,,100000,89000.0,1282,54800.0,10/27/2022,1175.0,sqft,85.11,1.2,acres,83333.33,2.0,2.0,,,No,No,,1400 Smokey Wood Dr,Pittsburgh,15218,PA,USA,40.42462,-79.87635,apartments
https://www.zillow.com/homedetails/305-8th-St-Pittsburgh-PA-15215/11333581_zpid/,,,200000,192900.0,898,28100.0,10/20/2022,1088.0,sqft,183.82,2600.0,sqft,76.92,1.0,1.0,,,No,No,,305 8th St,Pittsburgh,15215,PA,USA,40.49624,-79.93486,apartments
https://www.zillow.com/homedetails/1010-Margarite-Dr-APT-A-Pittsburgh-PA-15216/59835723_zpid/,,,165000,174200.0,1496,79200.0,10/18/2022,996.0,sqft,165.66,13.8,acres,11958.27,2.0,1.0,,,No,No,Apt A,1010 Margarite Dr APT A,Pittsburgh,15216,PA,USA,40.394238,-80.05594,apartments
https://www.zillow.com/homedetails/420-N-Chestnut-St-Pittsburgh-PA-15202/164572812_zpid/,,,80000,101100.0,1106,5500.0,10/14/2022,950.0,sqft,84.21,,,,2.0,1.0,,,No,No,,420 N Chestnut St,Pittsburgh,15202,PA,USA,40.50042,-80.06513,apartments
https://www.zillow.com/homedetails/918-920-Pentland-Dr-Pittsburgh-PA-15235/11452498_zpid/,,,120000,,1033,59000.0,10/12/2022,,,,,,,2.0,1.0,,,No,No,,918-920 Pentland Dr,Pittsburgh,15235,PA,USA,40.454,-79.83838,apartments
https://www.zillow.com/homedetails/2434-Smallman-St-Pittsburgh-PA-15222/118957935_zpid/,,,375000,684800.0,4007,,10/11/2022,990.0,sqft,378.79,9522.0,sqft,39.38,1.0,1.0,,,No,No,,2434 Smallman St,Pittsburgh,15222,PA,USA,40.45427,-79.98053,apartments
https://www.zillow.com/homedetails/1800-Westmont-Ave-Pittsburgh-PA-15210/11556783_zpid/,,,95000,123700.0,1150,47400.0,10/07/2022,1660.0,sqft,57.23,1848.0,sqft,51.41,2.0,1.0,,,No,No,,1800 Westmont Ave,Pittsburgh,15210,PA,USA,40.39688,-79.98933,apartments
https://www.zillow.com/homedetails/722-Wisteria-Ave-APT-F5-Pittsburgh-PA-15228/11311828_zpid/,,,141500,149700.0,950,69400.0,09/29/2022,901.0,sqft,157.05,901.0,sqft,157.05,1.0,1.0,,,No,No,Apt F5,722 Wisteria Ave APT F5,Pittsburgh,15228,PA,USA,40.378803,-80.043846,apartments
https://www.zillow.com/homedetails/66-Pius-St-APT-L102-Pittsburgh-PA-15203/11291820_zpid/,,,275000,290900.0,1034,91600.0,09/28/2022,772.0,sqft,356.22,489.0,sqft,562.37,1.0,1.0,,,No,No,Apt L102,66 Pius St APT L102,Pittsburgh,15203,PA,USA,40.42422,-79.98235,apartments
https://www.zillow.com/homedetails/246-W-6th-Ave-Tarentum-PA-15084/11280101_zpid/,,,9000,,749,14300.0,09/22/2022,600.0,sqft,15.0,2627.0,sqft,3.43,,1.0,,,No,No,,246 W 6th Ave,Tarentum,15084,PA,USA,40.598934,-79.7618,apartments
https://www.zillow.com/homedetails/428-Vale-Dr-Pittsburgh-PA-15239/2065478956_zpid/,,,325000,,799,,09/20/2022,,,,,,,1.0,1.0,,,No,No,,428 Vale Dr,Pittsburgh,15239,PA,USA,40.476112,-79.77425,apartments
https://www.zillow.com/homedetails/7117-Sanlin-Dr-Coraopolis-PA-15108/11552594_zpid/,,,88000,113400.0,1094,54600.0,09/16/2022,1053.0,sqft,83.57,432.0,sqft,203.7,2.0,1.0,,Joanne Randolph,No,No,,7117 Sanlin Dr,Coraopolis,15108,PA,USA,40.51081,-80.20864,apartments
https://www.zillow.com/homedetails/20-N-Bryant-Ave-Pittsburgh-PA-15202/11327120_zpid/,,,265000,306300.0,888,117400.0,09/13/2022,700.0,sqft,378.57,10784.0,sqft,24.57,1.0,1.0,,,No,No,,20 N Bryant Ave,Pittsburgh,15202,PA,USA,40.49319,-80.049065,apartments
https://www.zillow.com/homedetails/361-W-7th-Ave-Tarentum-PA-15084/11259877_zpid/,,,90000,69900.0,900,28700.0,09/09/2022,2112.0,sqft,42.61,3841.0,sqft,23.43,2.0,1.0,,,No,No,,361 W 7th Ave,Tarentum,15084,PA,USA,40.59806,-79.76429,apartments
https://www.zillow.com/homedetails/320-Fort-Duquesne-Blvd-APT-25A-Pittsburgh-PA-15222/11363194_zpid/,,,190000,200600.0,1264,134000.0,09/09/2022,1032.0,sqft,184.11,1032.0,sqft,184.11,1.0,1.0,,,No,No,Apt 25A,320 Fort Duquesne Blvd APT 25A,Pittsburgh,15222,PA,USA,40.442528,-80.00726,apartments
https://www.zillow.com/homedetails/825-Morewood-Ave-UNIT-A-Pittsburgh-PA-15213/11529135_zpid/,,,317620,313600.0,2999,199300.0,09/08/2022,1804.0,sqft,176.06,2.35,acres,135341.22,3.0,3.5,,,No,No,Unit A,825 Morewood Ave UNIT A,Pittsburgh,15213,PA,USA,40.44775,-79.94194,apartments
https://www.zillow.com/homedetails/2813-Brownsville-Rd-Pittsburgh-PA-15227/87995485_zpid/,,,113000,,765,132700.0,09/06/2022,,,,2013.0,sqft,56.14,,,,,No,No,,2813 Brownsville Rd,Pittsburgh,15227,PA,USA,40.38326,-79.976776,apartments
https://www.zillow.com/homedetails/2545-Penn-Ave-Pittsburgh-PA-15222/72261117_zpid/,,,434900,666900.0,4006,,09/02/2022,1501.0,sqft,289.74,915.0,sqft,475.3,2.0,2.5,,,No,No,,2545 Penn Ave,Pittsburgh,15222,PA,USA,40.45481,-79.979034,apartments
https://www.zillow.com/homedetails/3240-Parkview-Ave-Pittsburgh-PA-15213/11420230_zpid/,,,230000,261100.0,2100,95900.0,09/01/2022,1300.0,sqft,176.92,2520.0,sqft,91.27,3.0,1.0,,,No,No,,3240 Parkview Ave,Pittsburgh,15213,PA,USA,40.43057,-79.95278,apartments
https://www.zillow.com/homedetails/27302-Evergreen-Run-Imperial-PA-15126/59850131_zpid/,,,77000,88400.0,999,43300.0,09/01/2022,804.0,sqft,95.77,9.75,acres,7897.44,1.0,1.0,,,No,No,,27302 Evergreen Run,Imperial,15126,PA,USA,40.441376,-80.22404,apartments
https://www.zillow.com/homedetails/3401-Butler-St-Pittsburgh-PA-15201/2090490546_zpid/,,,810000,,1749,,08/31/2022,,,,,,,1.0,1.0,,,No,No,,3401 Butler St,Pittsburgh,15201,PA,USA,40.462852,-79.967445,apartments
https://www.zillow.com/homedetails/12-5th-St-Sharpsburg-PA-15215/11333649_zpid/,,,31000,,895,31100.0,08/26/2022,1296.0,sqft,23.92,1640.0,sqft,18.9,1.0,1.0,,,No,No,,12 5th St,Sharpsburg,15215,PA,USA,40.49378,-79.93591,apartments
https://www.zillow.com/homedetails/1001-Grandview-Ave-APT-708-Bridgeville-PA-15017/11434446_zpid/,,,75000,79000.0,950,51700.0,08/24/2022,855.0,sqft,87.72,1.05,acres,71428.57,1.0,1.0,,,No,No,Apt 708,1001 Grandview Ave APT 708,Bridgeville,15017,PA,USA,40.35342,-80.10545,apartments
https://www.zillow.com/homedetails/2921-Shady-Ave-Pittsburgh-PA-15217/11636557_zpid/,,,230000,,1564,207300.0,08/24/2022,1200.0,sqft,191.67,5104.0,sqft,45.06,2.0,1.0,,,No,No,,2921 Shady Ave,Pittsburgh,15217,PA,USA,40.42565,-79.92342,apartments
https://www.zillow.com/homedetails/327-Grandview-Ave-Pittsburgh-PA-15211/2073409677_zpid/,,,150000,,1025,,08/24/2022,,,,,,,1.0,1.0,,,No,No,,327 Grandview Ave,Pittsburgh,15211,PA,USA,40.433605,-80.01087,apartments
https://www.zillow.com/homedetails/332-College-Park-Dr-Coraopolis-PA-15108/11584123_zpid/,,,120500,127000.0,1481,54300.0,08/18/2022,1056.0,sqft,114.11,11.61,acres,10374.52,2.0,1.5,,,No,No,,332 College Park Dr,Coraopolis,15108,PA,USA,40.519676,-80.22134,apartments
https://www.zillow.com/homedetails/5927-Howe-St-APT-B2-Pittsburgh-PA-15232/164698797_zpid/,,,185000,197800.0,1302,60500.0,08/18/2022,850.0,sqft,217.65,,,,1.0,1.0,,,No,No,Apt B2,5927 Howe St APT B2,Pittsburgh,15232,PA,USA,40.453197,-79.9255,apartments
https://www.zillow.com/homedetails/2419-Smallman-St-Pittsburgh-PA-15222/246259151_zpid/,,,1075000,611500.0,3753,1052100.0,08/15/2022,1445.0,sqft,743.94,0.4,acres,2703481.32,2.0,2.0,,,No,No,,2419 Smallman St,Pittsburgh,15222,PA,USA,40.45475,-79.98115,apartments
https://www.zillow.com/homedetails/1100-Chatham-Park-Dr-APT-A-Pittsburgh-PA-15216/11658269_zpid/,,,142500,159400.0,1235,79800.0,08/10/2022,996.0,sqft,143.07,996.0,sqft,143.07,2.0,1.0,,,No,No,Apt A,1100 Chatham Park Dr APT A,Pittsburgh,15216,PA,USA,40.39424,-80.05852,apartments
https://www.zillow.com/homedetails/29-Kosciusko-Way-Pittsburgh-PA-15203/11307511_zpid/,,,100000,,1200,139500.0,08/09/2022,1983.0,sqft,50.43,1200.0,sqft,83.33,2.0,1.0,,,No,No,,29 Kosciusko Way,Pittsburgh,15203,PA,USA,40.42326,-79.97067,apartments
https://www.zillow.com/homedetails/2900-Webster-Ave-Pittsburgh-PA-15219/11260430_zpid/,,,299000,358700.0,1330,102400.0,08/08/2022,4672.0,sqft,64.0,5862.0,sqft,51.01,2.0,1.0,,,No,No,,2900 Webster Ave,Pittsburgh,15219,PA,USA,40.4517,-79.967,apartments
https://www.zillow.com/homedetails/224-Stamm-Ave-Pittsburgh-PA-15210/11317175_zpid/,,,57500,111900.0,1300,46000.0,08/03/2022,,,,5248.98,sqft,10.95,,,,Anthony Sciulli,No,No,,224 Stamm Ave,Pittsburgh,15210,PA,USA,40.414997,-79.98612,apartments
https://www.zillow.com/homedetails/4839-Butler-St-Pittsburgh-PA-15201/11612778_zpid/,,,590000,,1364,415200.0,07/15/2022,1200.0,sqft,491.67,3132.0,sqft,188.38,2.0,1.0,,,No,No,,4839 Butler St,Pittsburgh,15201,PA,USA,40.477085,-79.95727,apartments
https://www.zillow.com/homedetails/5000-5th-Ave-Pittsburgh-PA-15232/2118062711_zpid/,,,850000,,2199,,07/15/2022,1125.0,sqft,755.56,,,,2.0,2.0,,,No,No,,5000 5th Ave,Pittsburgh,15232,PA,USA,40.44722,-79.94207,apartments
https://www.zillow.com/homedetails/232-Berringer-Pl-Pittsburgh-PA-15202/11368376_zpid/,,,227950,,1485,129400.0,07/13/2022,1410.0,sqft,161.67,4000.0,sqft,56.99,3.0,1.0,,,No,No,,232 Berringer Pl,Pittsburgh,15202,PA,USA,40.50435,-80.07573,apartments
https://www.zillow.com/homedetails/1110-Chatham-Park-Dr-APT-B-Pittsburgh-PA-15216/59835910_zpid/,,,136100,142800.0,1235,79000.0,07/08/2022,996.0,sqft,136.65,996.0,sqft,136.65,2.0,1.0,,,No,No,Apt B,1110 Chatham Park Dr APT B,Pittsburgh,15216,PA,USA,40.39417,-80.05868,apartments
https://www.zillow.com/homedetails/1811-Oak-Avenue-Ext-Turtle-Creek-PA-15145/11535853_zpid/,,,105000,140100.0,1200,60300.0,07/01/2022,1000.0,sqft,105.0,9216.0,sqft,11.39,2.0,1.5,,,No,No,,1811 Oak Avenue Ext,Turtle Creek,15145,PA,USA,40.40952,-79.813095,apartments
https://www.zillow.com/homedetails/551-Sloop-Rd-Pittsburgh-PA-15237/2080095450_zpid/,,,118500,,1348,,07/01/2022,756.0,sqft,156.75,,,,1.0,1.0,,,No,No,,551 Sloop Rd,Pittsburgh,15237,PA,USA,40.565796,-80.05357,apartments
https://www.zillow.com/homedetails/352-Garnet-Way-Pittsburgh-PA-15224/11402424_zpid/,,,120000,126000.0,1098,69800.0,06/30/2022,301.0,sqft,398.67,2121.37,sqft,56.57,1.0,1.0,,Barbara Averell,No,No,,352 Garnet Way,Pittsburgh,15224,PA,USA,40.46044,-79.95037,apartments
https://www.zillow.com/homedetails/941-Penn-Ave-Pittsburgh-PA-15222/92381139_zpid/,,,375000,413000.0,2297,,06/30/2022,2045.0,sqft,183.37,4853.0,sqft,77.27,2.0,2.0,,,No,No,,941 Penn Ave,Pittsburgh,15222,PA,USA,40.44448,-79.99674,apartments
https://www.zillow.com/homedetails/1007-Delafield-Rd-Pittsburgh-PA-15215/11336117_zpid/,,,515000,625300.0,3273,453900.0,06/24/2022,3144.0,sqft,163.8,1.84,acres,280195.87,5.0,3.0,,Linda Lee Foltz,No,No,,1007 Delafield Rd,Pittsburgh,15215,PA,USA,40.497787,-79.89051,apartments
https://www.zillow.com/homedetails/605-Shady-Ave-Pittsburgh-PA-15206/11625652_zpid/,,,477000,283900.0,2019,124800.0,06/15/2022,1200.0,sqft,397.5,1172.0,sqft,407.0,2.0,2.0,,,No,No,,605 Shady Ave,Pittsburgh,15206,PA,USA,40.4536,-79.92078,apartments
https://www.zillow.com/homedetails/750-Hidden-Ridge-Ct-APT-302-South-Park-PA-15129/64863962_zpid/,,,114010,184400.0,1421,120000.0,06/07/2022,1260.0,sqft,90.48,1260.0,sqft,90.48,2.0,2.0,,,No,No,Apt 302,750 Hidden Ridge Ct APT 302,South Park,15129,PA,USA,40.29107,-79.990456,apartments
https://www.zillow.com/homedetails/60-N-Harrison-Ave-Pittsburgh-PA-15202/11326163_zpid/,,,260000,,874,188600.0,05/25/2022,620.0,sqft,419.35,7200.0,sqft,36.11,1.0,1.0,,,No,No,,60 N Harrison Ave,Pittsburgh,15202,PA,USA,40.495174,-80.050606,apartments
https://www.zillow.com/homedetails/5703-Cox-Ave-Pittsburgh-PA-15207/11353084_zpid/,,,90000,,995,93300.0,05/24/2022,1583.0,sqft,56.85,3600.0,sqft,25.0,2.0,1.0,,,No,No,,5703 Cox Ave,Pittsburgh,15207,PA,USA,40.36703,-79.91714,apartments
https://www.zillow.com/homedetails/1537-Brighton-Pl-Pittsburgh-PA-15212/11375844_zpid/,,,270000,262700.0,1214,26000.0,05/24/2022,,,,1846.94,sqft,146.19,6.0,2.0,,Hannah Sosinski,No,No,,1537 Brighton Pl,Pittsburgh,15212,PA,USA,40.45764,-80.017365,apartments
https://www.zillow.com/homedetails/2467-Brook-Ledge-Rd-APT-13B-Bridgeville-PA-15017/59856834_zpid/,,,77500,81200.0,1098,48600.0,05/23/2022,920.0,sqft,84.24,,,,1.0,1.0,,Leann Monz,No,No,Apt 13B,2467 Brook Ledge Rd APT 13B,Bridgeville,15017,PA,USA,40.327927,-80.12129,apartments
https://www.zillow.com/homedetails/221-223-Bell-Ave-Carnegie-PA-15106/11256482_zpid/,,,260000,267800.0,1250,91900.0,05/20/2022,1400.0,sqft,185.71,8439.0,sqft,30.81,2.0,1.0,,,No,No,,221-223 Bell Ave,Carnegie,15106,PA,USA,40.41485,-80.084694,apartments
https://www.zillow.com/homedetails/5-Edith-Pl-Pittsburgh-PA-15213/11419977_zpid/,,,125000,,1381,53700.0,05/20/2022,1102.0,sqft,113.43,945.0,sqft,132.28,2.0,1.0,,,No,No,,5 Edith Pl,Pittsburgh,15213,PA,USA,40.432972,-79.95448,apartments
https://www.zillow.com/homedetails/5418-Black-St-Pittsburgh-PA-15206/11622218_zpid/,,,52029,,1084,42300.0,05/20/2022,900.0,sqft,57.81,25.0,acres,2081.16,1.0,1.0,,,No,No,,5418 Black St,Pittsburgh,15206,PA,USA,40.470127,-79.932076,apartments
https://www.zillow.com/homedetails/2034-Swallow-Hill-Rd-APT-106-Pittsburgh-PA-15220/164471924_zpid/,,,120000,125800.0,1879,105300.0,05/20/2022,1386.0,sqft,86.58,,,,3.0,2.5,,,No,No,Apt 106,2034 Swallow Hill Rd APT 106,Pittsburgh,15220,PA,USA,40.39917,-80.07738,apartments
https://www.zillow.com/homedetails/5206-Butler-St-UNIT-2-Pittsburgh-PA-15201/2080528607_zpid/,,,895000,,1827,,05/20/2022,,,,,,,2.0,2.0,,,No,No,Unit 2,5206 Butler St UNIT 2,Pittsburgh,15201,PA,USA,40.48054,-79.954094,apartments
https://www.zillow.com/homedetails/348-Oakland-Ave-Pittsburgh-PA-15213/11412593_zpid/,,,350000,,1027,97100.0,05/19/2022,2068.0,sqft,169.25,2277.0,sqft,153.71,1.0,1.0,,,No,No,,348 Oakland Ave,Pittsburgh,15213,PA,USA,40.43909,-79.954025,apartments
https://www.zillow.com/homedetails/642-Means-Ave-Pittsburgh-PA-15202/11369340_zpid/,,,250000,265800.0,1599,112100.0,05/18/2022,940.0,sqft,265.96,5388.0,sqft,46.4,3.0,1.5,,,No,No,,642 Means Ave,Pittsburgh,15202,PA,USA,40.502335,-80.05859,apartments
https://www.zillow.com/homedetails/75-Sumner-Ave-Pittsburgh-PA-15202/11327069_zpid/,,,192500,250700.0,850,56900.0,05/16/2022,1104.0,sqft,174.37,5181.0,sqft,37.15,,1.0,,,No,No,,75 Sumner Ave,Pittsburgh,15202,PA,USA,40.49231,-80.0473,apartments
https://www.zillow.com/homedetails/1030-Eve-Dr-APT-B-Pittsburgh-PA-15216/2075336777_zpid/,,,143100,,1322,,05/11/2022,,,,,,,2.0,2.0,,,No,No,Apt B,1030 Eve Dr APT B,Pittsburgh,15216,PA,USA,40.39391,-80.056435,apartments
https://www.zillow.com/homedetails/1600-Jefferson-Ridge-Dr-Clairton-PA-15025/11250836_zpid/,,,125000,130900.0,999,44700.0,05/06/2022,967.0,sqft,129.27,0.68,acres,183667.27,2.0,1.0,,Chad Schmitt,No,No,,1600 Jefferson Ridge Dr,Clairton,15025,PA,USA,40.28537,-79.960464,apartments
https://www.zillow.com/homedetails/7-Renwick-St-Pittsburgh-PA-15210/11475126_zpid/,,,107000,,1222,16200.0,04/22/2022,1724.0,sqft,62.06,2500.0,sqft,42.8,2.0,1.0,,,No,No,,7 Renwick St,Pittsburgh,15210,PA,USA,40.42407,-79.98988,apartments
https://www.zillow.com/homedetails/217-McMasters-Dr-Monroeville-PA-15146/11627328_zpid/,,,110000,184100.0,1392,95000.0,04/15/2022,1259.0,sqft,87.37,7947.0,sqft,13.84,2.0,2.0,,,No,No,,217 McMasters Dr,Monroeville,15146,PA,USA,40.44228,-79.764336,apartments
https://www.zillow.com/homedetails/504-N-Neville-St-Pittsburgh-PA-15213/2064429840_zpid/,,,325000,,2066,,04/15/2022,2089.0,sqft,155.58,,,,2.0,2.0,,,No,No,,504 N Neville St,Pittsburgh,15213,PA,USA,40.45017,-79.948845,apartments
https://www.zillow.com/homedetails/320-Fort-Duquesne-Blvd-7-Pittsburgh-PA-15222/11363160_zpid/,,,210000,220400.0,1784,154600.0,04/12/2022,1100.0,sqft,190.91,1140.0,sqft,184.21,1.0,2.0,,,No,No,# 7,320 Fort Duquesne Blvd #7,Pittsburgh,15222,PA,USA,40.442528,-80.00726,apartments
https://www.zillow.com/homedetails/4506-Bowes-Ave-West-Mifflin-PA-15122/11386653_zpid/,,,52500,,1028,55900.0,04/12/2022,1450.0,sqft,36.21,,,,2.0,1.0,,,No,No,,4506 Bowes Ave,West Mifflin,15122,PA,USA,40.385513,-79.88147,apartments
https://www.zillow.com/homedetails/511-Chestnut-St-Carnegie-PA-15106/11581750_zpid/,,,165000,176200.0,1394,64100.0,04/12/2022,1120.0,sqft,147.32,2560.0,sqft,64.45,3.0,1.0,,,No,No,,511 Chestnut St,Carnegie,15106,PA,USA,40.409306,-80.08095,apartments
https://www.zillow.com/homedetails/1661-Belasco-Ave-Pittsburgh-PA-15216/11445783_zpid/,,,79950,,900,65000.0,04/11/2022,1540.0,sqft,51.92,5227.0,sqft,15.3,1.0,1.0,,,No,No,,1661 Belasco Ave,Pittsburgh,15216,PA,USA,40.40872,-80.027084,apartments
https://www.zillow.com/homedetails/5570-Centre-Ave-Pittsburgh-PA-15232/81843339_zpid/,,,460000,468200.0,2500,,04/08/2022,1280.0,sqft,359.38,,,,2.0,2.0,,,No,No,,5570 Centre Ave,Pittsburgh,15232,PA,USA,40.45606,-79.93429,apartments
https://www.zillow.com/homedetails/595-E-End-Ave-Pittsburgh-PA-15221/11342089_zpid/,,,205000,,1039,135000.0,04/07/2022,,,,2687.65,sqft,76.27,2.0,2.0,,Maureen States,No,No,,595 E End Ave,Pittsburgh,15221,PA,USA,40.439865,-79.89628,apartments
https://www.zillow.com/homedetails/4985-Lakewood-Rd-Gibsonia-PA-15044/11276082_zpid/,,,207500,207900.0,1975,99100.0,04/05/2022,1102.0,sqft,188.29,8775.0,sqft,23.65,3.0,2.0,,,No,No,,4985 Lakewood Rd,Gibsonia,15044,PA,USA,40.604816,-79.96473,apartments
https://www.zillow.com/homedetails/54-Southern-Ave-Pittsburgh-PA-15211/104363113_zpid/,,,419000,435500.0,2099,167600.0,04/05/2022,1920.0,sqft,218.23,0.31,acres,1347780.24,3.0,2.0,,,No,No,,54 Southern Ave,Pittsburgh,15211,PA,USA,40.428368,-80.00882,apartments
https://www.zillow.com/homedetails/101-W-10th-Ave-Tarentum-PA-15084/11279746_zpid/,,,41000,,1164,25000.0,03/28/2022,1100.0,sqft,37.27,3449.0,sqft,11.89,2.0,1.5,,,No,No,,101 W 10th Ave,Tarentum,15084,PA,USA,40.602776,-79.76144,apartments
https://www.zillow.com/homedetails/1462-Dormont-Ave-Pittsburgh-PA-15216/11655155_zpid/,,,40000,289400.0,1300,40000.0,03/28/2022,4000.0,sqft,10.0,6000.0,sqft,6.67,2.0,1.0,,,No,No,,1462 Dormont Ave,Pittsburgh,15216,PA,USA,40.393208,-80.03965,apartments
https://www.zillow.com/homedetails/336-E-12th-Ave-Homestead-PA-15120/11292499_zpid/,,,190000,,1099,94700.0,03/24/2022,2180.0,sqft,87.16,3300.0,sqft,57.58,2.0,1.0,,,No,No,,336 E 12th Ave,Homestead,15120,PA,USA,40.405525,-79.90551,apartments
https://www.zillow.com/homedetails/900-College-Park-Dr-APT-6-Coraopolis-PA-15108/11584193_zpid/,,,75000,85600.0,999,45000.0,03/18/2022,741.0,sqft,101.21,11.61,acres,6457.17,2.0,1.0,,,No,No,Apt 6,900 College Park Dr APT 6,Coraopolis,15108,PA,USA,40.520477,-80.220474,apartments
https://www.zillow.com/homedetails/515-Gross-St-Pittsburgh-PA-15224/11524809_zpid/,,,270000,,1798,138500.0,03/11/2022,1350.0,sqft,200.0,2640.0,sqft,102.27,2.0,2.0,,,No,No,,515 Gross St,Pittsburgh,15224,PA,USA,40.45886,-79.94515,apartments
https://www.zillow.com/homedetails/1021-Woodbine-St-Pittsburgh-PA-15201/11615471_zpid/,,,200000,,1249,74400.0,03/09/2022,900.0,sqft,222.22,5500.0,sqft,36.36,2.0,1.0,,,No,No,,1021 Woodbine St,Pittsburgh,15201,PA,USA,40.47797,-79.941444,apartments
https://www.zillow.com/homedetails/114-Ivy-St-Pittsburgh-PA-15218/11344218_zpid/,,,100000,,1191,94800.0,03/07/2022,1200.0,sqft,83.33,2500.0,sqft,40.0,2.0,1.0,,,No,No,,114 Ivy St,Pittsburgh,15218,PA,USA,40.43066,-79.88534,apartments
https://www.zillow.com/homedetails/347-Trinity-Way-Wexford-PA-15090/242630739_zpid/,,,387924,415300.0,2294,277400.0,03/07/2022,1565.0,sqft,247.87,2754.0,sqft,140.86,3.0,2.5,,,No,No,,347 Trinity Way,Wexford,15090,PA,USA,40.65065,-80.05316,apartments
https://www.zillow.com/homedetails/1427-Mervin-Ave-Pittsburgh-PA-15216/11655599_zpid/,,,223000,276500.0,1310,126200.0,03/04/2022,1000.0,sqft,223.0,4343.0,sqft,51.35,2.0,1.0,,,No,No,,1427 Mervin Ave,Pittsburgh,15216,PA,USA,40.39031,-80.04273,apartments
https://www.zillow.com/homedetails/343-Huntington-Ave-Pittsburgh-PA-15202/11404797_zpid/,,,185000,253600.0,1435,121400.0,02/23/2022,1500.0,sqft,123.33,7537.0,sqft,24.55,3.0,1.0,,,No,No,,343 Huntington Ave,Pittsburgh,15202,PA,USA,40.51247,-80.104355,apartments
https://www.zillow.com/homedetails/222-Forest-Green-Dr-Coraopolis-PA-15108/11552215_zpid/,,,89900,122300.0,1495,59100.0,02/11/2022,,,,,,,2.0,2.0,,Joe Tarquinio,No,No,,222 Forest Green Dr,Coraopolis,15108,PA,USA,40.509518,-80.2141,apartments
https://www.zillow.com/homedetails/5439-Potter-St-Pittsburgh-PA-15232/11525494_zpid/,,,270000,495000.0,2974,288600.0,02/10/2022,1300.0,sqft,207.69,5162.0,sqft,52.31,3.0,1.0,,,No,No,,5439 Potter St,Pittsburgh,15232,PA,USA,40.454712,-79.93617,apartments
https://www.zillow.com/homedetails/710-Copeland-St-Pittsburgh-PA-15232/2098231281_zpid/,,,175000,,1200,,01/28/2022,825.0,sqft,212.12,,,,1.0,1.0,,,No,No,,710 Copeland St,Pittsburgh,15232,PA,USA,40.451557,-79.93537,apartments
https://www.zillow.com/homedetails/1663-Suburban-Ave-Pittsburgh-PA-15216/11445573_zpid/,,,305000,254600.0,935,71900.0,01/25/2022,2448.0,sqft,124.59,0.49,acres,616997.17,1.0,1.0,,,No,No,,1663 Suburban Ave,Pittsburgh,15216,PA,USA,40.409412,-80.01948,apartments
https://www.zillow.com/homedetails/83-Highland-Ave-Mc-Kees-Rocks-PA-15136/11599440_zpid/,,,38000,88800.0,1425,34000.0,01/24/2022,1200.0,sqft,31.67,2250.0,sqft,16.89,2.0,2.0,,,No,No,,83 Highland Ave,Mc Kees Rocks,15136,PA,USA,40.47275,-80.068405,apartments
https://www.zillow.com/homedetails/1224-McNeilly-Ave-APT-1-Pittsburgh-PA-15216/2097423215_zpid/,,,300000,,1150,,01/12/2022,,,,,,,2.0,1.0,,,No,No,Apt 1,1224 McNeilly Ave APT 1,Pittsburgh,15216,PA,USA,40.393127,-80.029465,apartments
https://www.zillow.com/homedetails/125-Dilworth-St-Pittsburgh-PA-15211/11516492_zpid/,,,197000,242100.0,1300,79200.0,01/11/2022,1920.0,sqft,102.6,2880.0,sqft,68.4,2.0,1.0,,,No,No,,125 Dilworth St,Pittsburgh,15211,PA,USA,40.425297,-80.01245,apartments
https://www.zillow.com/homedetails/5735-5737-Phillips-Ave-Pittsburgh-PA-15217/11634984_zpid/,,,775000,851300.0,5156,296700.0,01/10/2022,1300.0,sqft,596.15,5425.0,sqft,142.86,3.0,1.0,,,No,No,,5735-5737 Phillips Ave,Pittsburgh,15217,PA,USA,40.43248,-79.92373,apartments
https://www.zillow.com/homedetails/134-N-Fremont-Ave-APT-2-Pittsburgh-PA-15202/2099075288_zpid/,,,360000,,796,,01/10/2022,650.0,sqft,553.85,,,,1.0,1.0,,,No,No,Apt 2,134 N Fremont Ave APT 2,Pittsburgh,15202,PA,USA,40.497826,-80.05032,apartments
https://www.zillow.com/homedetails/5405-Coral-St-Pittsburgh-PA-15206/11521087_zpid/,,,500000,509300.0,3022,82000.0,01/07/2022,1100.0,sqft,454.55,2442.0,sqft,204.75,2.0,1.0,,,No,No,,5405 Coral St,Pittsburgh,15206,PA,USA,40.463387,-79.93689,apartments
https://www.zillow.com/homedetails/288-45th-St-Pittsburgh-PA-15201/11513108_zpid/,,,361325,420500.0,1984,119000.0,01/06/2022,1742.0,sqft,207.42,2376.0,sqft,152.07,3.0,1.0,,,No,No,,288 45th St,Pittsburgh,15201,PA,USA,40.47033,-79.95716,apartments
https://www.zillow.com/homedetails/5731-Phillips-Ave-Pittsburgh-PA-15217/2080866516_zpid/,,,775000,,1333,,12/31/2021,,,,,,,,,,,No,No,,5731 Phillips Ave,Pittsburgh,15217,PA,USA,40.432392,-79.923874,apartments
https://www.zillow.com/homedetails/1242-Resaca-Pl-Pittsburgh-PA-15212/11388668_zpid/,,,300000,369600.0,874,182800.0,12/30/2021,1000.0,sqft,300.0,1416.0,sqft,211.86,1.0,1.0,,,No,No,,1242 Resaca Pl,Pittsburgh,15212,PA,USA,40.456314,-80.011986,apartments
https://www.zillow.com/homedetails/6302-Soltis-Dr-Clairton-PA-15025/11634354_zpid/,,,23750,,1114,14600.0,12/29/2021,1026.0,sqft,23.15,2314.0,sqft,10.26,3.0,1.0,,,No,No,,6302 Soltis Dr,Clairton,15025,PA,USA,40.289265,-79.89791,apartments
https://www.zillow.com/homedetails/27-S-Balph-Ave-Pittsburgh-PA-15202/11326057_zpid/,,,180000,,1099,136200.0,12/23/2021,1270.0,sqft,141.73,5000.0,sqft,36.0,2.0,1.0,,,No,No,,27 S Balph Ave,Pittsburgh,15202,PA,USA,40.49484,-80.05609,apartments
https://www.zillow.com/homedetails/4473-4th-St-Bethel-Park-PA-15102/11430942_zpid/,,,55000,,1285,71400.0,12/23/2021,1050.0,sqft,52.38,7428.0,sqft,7.4,2.0,1.0,,,No,No,,4473 4th St,Bethel Park,15102,PA,USA,40.350758,-80.027374,apartments
https://www.zillow.com/homedetails/6113-Saint-Marie-St-Pittsburgh-PA-15206/11623038_zpid/,,,300000,398800.0,1614,72900.0,12/21/2021,2750.0,sqft,109.09,3130.0,sqft,95.85,3.0,1.0,,,No,No,,6113 Saint Marie St,Pittsburgh,15206,PA,USA,40.468388,-79.91841,apartments
https://www.zillow.com/homedetails/2457-Brook-Ledge-Rd-APT-13A-Bridgeville-PA-15017/59856723_zpid/,,,65000,119500.0,1200,45000.0,12/20/2021,920.0,sqft,70.65,920.0,sqft,70.65,2.0,1.0,,,No,No,Apt 13A,2457 Brook Ledge Rd APT 13A,Bridgeville,15017,PA,USA,40.326393,-80.12046,apartments
https://www.zillow.com/homedetails/333-S-Highland-Ave-APT-103-Pittsburgh-PA-15206/11624957_zpid/,,,275000,316000.0,2022,162300.0,12/14/2021,1214.0,sqft,226.52,1092.0,sqft,251.83,2.0,2.0,,,No,No,Apt 103,333 S Highland Ave APT 103,Pittsburgh,15206,PA,USA,40.45622,-79.92502,apartments
https://www.zillow.com/homedetails/5709-Elmer-St-Pittsburgh-PA-15232/2084917150_zpid/,,,215000,,1239,,12/14/2021,810.0,sqft,265.43,,,,1.0,1.0,,,No,No,,5709 Elmer St,Pittsburgh,15232,PA,USA,,,apartments
https://www.zillow.com/homedetails/412-Mill-St-Coraopolis-PA-15108/87993750_zpid/,,,275000,,2858,138400.0,12/13/2021,3000.0,sqft,91.67,,,,,2.5,,,No,No,,412 Mill St,Coraopolis,15108,PA,USA,40.518093,-80.164246,apartments
https://www.zillow.com/homedetails/412-Forest-Green-Dr-Coraopolis-PA-15108/11552237_zpid/,,,38000,75700.0,1051,40200.0,12/10/2021,800.0,sqft,47.5,623.0,sqft,61.0,1.0,1.0,,,No,No,,412 Forest Green Dr,Coraopolis,15108,PA,USA,40.50932,-80.2145,apartments
https://www.zillow.com/homedetails/150-Waverly-Ave-Pittsburgh-PA-15229/2077165366_zpid/,,,149000,,1573,,12/10/2021,968.0,sqft,153.93,,,,2.0,2.0,,,No,No,,150 Waverly Ave,Pittsburgh,15229,PA,USA,40.517612,-80.03487,apartments
https://www.zillow.com/homedetails/1213-Kenneth-Rear-New-Kensington-PA-15068/10648405_zpid/,,,72500,129700.0,1025,16700.0,11/30/2021,660.0,sqft,109.85,4800.0,sqft,15.1,2.0,1.0,,,No,No,,1213 Kenneth Rear,New Kensington,15068,PA,USA,40.528202,-79.756584,apartments
https://www.zillow.com/homedetails/840-Thorn-St-Sewickley-PA-15143/11480831_zpid/,,,139000,124300.0,997,56500.0,11/30/2021,837.0,sqft,166.07,4.22,acres,32922.84,1.0,1.0,,,No,No,,840 Thorn St,Sewickley,15143,PA,USA,40.53427,-80.17824,apartments
https://www.zillow.com/homedetails/1931-Crafton-Blvd-Pittsburgh-PA-15205/2076556680_zpid/,,,349900,,1381,,11/23/2021,,,,,,,3.0,1.0,,,No,No,,1931 Crafton Blvd,Pittsburgh,15205,PA,USA,40.431377,-80.06939,apartments
https://www.zillow.com/homedetails/1620-Painters-Run-Rd-Pittsburgh-PA-15243/2096616762_zpid/,,,140000,,1394,,11/22/2021,,,,,,,2.0,1.0,,,No,No,,1620 Painters Run Rd,Pittsburgh,15243,PA,USA,40.36116,-80.07078,apartments
https://www.zillow.com/homedetails/250-Lincoln-Ave-Bellevue-PA-15202/11326447_zpid/,,,156210,,863,127000.0,11/19/2021,550.0,sqft,284.02,4167.0,sqft,37.49,1.0,1.0,,,No,No,,250 Lincoln Ave,Bellevue,15202,PA,USA,40.49295,-80.04978,apartments
https://www.zillow.com/homedetails/3609-Beechwood-Blvd-Pittsburgh-PA-15217/11636460_zpid/,,,295000,341600.0,1350,117600.0,11/19/2021,900.0,sqft,327.78,3125.0,sqft,94.4,2.0,1.0,,,No,No,,3609 Beechwood Blvd,Pittsburgh,15217,PA,USA,40.425568,-79.92711,apartments
https://www.zillow.com/homedetails/1120-Chatham-Park-Dr-APT-A-Pittsburgh-PA-15216/59835899_zpid/,,,134900,155200.0,1500,79900.0,11/19/2021,996.0,sqft,135.44,493.0,acres,273.63,2.0,1.5,,,No,No,Apt A,1120 Chatham Park Dr APT A,Pittsburgh,15216,PA,USA,40.39395,-80.05914,apartments
https://www.zillow.com/homedetails/900-College-Park-Dr-Coraopolis-PA-15108/2080080189_zpid/,,,90000,,1014,,11/17/2021,,,,,,,,,,,No,No,,900 College Park Dr,Coraopolis,15108,PA,USA,40.520557,-80.22043,apartments
https://www.zillow.com/homedetails/700-Lincoln-Ave-Pittsburgh-PA-15202/87989638_zpid/,,,330000,,1099,151600.0,11/16/2021,1600.0,sqft,206.25,5980.0,sqft,55.18,2.0,1.0,,,No,No,,700 Lincoln Ave,Pittsburgh,15202,PA,USA,40.498505,-80.06091,apartments
https://www.zillow.com/homedetails/1131-McClure-St-Homestead-PA-15120/11292574_zpid/,,,140000,,981,35000.0,11/15/2021,2654.0,sqft,52.75,2970.0,sqft,47.14,2.0,1.0,,,No,No,,1131 McClure St,Homestead,15120,PA,USA,40.40553,-79.90429,apartments
https://www.zillow.com/homedetails/5122-2nd-Ave-Pittsburgh-PA-15207/11550812_zpid/,,,205000,,1014,43600.0,11/15/2021,2824.0,sqft,72.59,4250.0,sqft,48.24,2.0,1.0,,,No,No,,5122 2nd Ave,Pittsburgh,15207,PA,USA,40.40625,-79.94346,apartments
https://www.zillow.com/homedetails/3519-Penn-Ave-Pittsburgh-PA-15201/2083872655_zpid/,,,540000,,1500,,11/11/2021,,,,,,,,,,,No,No,,3519 Penn Ave,Pittsburgh,15201,PA,USA,40.46435,-79.96429,apartments
https://www.zillow.com/homedetails/5704-Callowhill-St-Pittsburgh-PA-15206/11619910_zpid/,,,747500,806700.0,4879,243000.0,11/10/2021,1000.0,sqft,747.5,5172.0,sqft,144.53,1.0,1.0,,,No,No,,5704 Callowhill St,Pittsburgh,15206,PA,USA,40.47761,-79.9206,apartments
https://www.zillow.com/homedetails/340-Service-Way-Pittsburgh-PA-15201/242630684_zpid/,,,192291,,1359,30000.0,11/10/2021,400.0,sqft,480.73,971.0,sqft,198.03,1.0,1.0,,,No,No,,340 Service Way,Pittsburgh,15201,PA,USA,40.46956,-79.956604,apartments
https://www.zillow.com/homedetails/5744-Kentucky-Ave-APT-1-Pittsburgh-PA-15232/11628769_zpid/,,,195000,,3096,212000.0,10/29/2021,2000.0,sqft,97.5,1924.0,sqft,101.35,3.0,3.5,,,No,No,Apt 1,5744 Kentucky Ave APT 1,Pittsburgh,15232,PA,USA,40.450928,-79.9284,apartments
https://www.zillow.com/homedetails/200-Shadyhill-Rd-Pittsburgh-PA-15205/87993635_zpid/,,,380000,,950,173200.0,10/29/2021,875.0,sqft,434.29,7090.0,sqft,53.6,1.0,1.0,,,No,No,,200 Shadyhill Rd,Pittsburgh,15205,PA,USA,40.434685,-80.048874,apartments
https://www.zillow.com/homedetails/129-E-22nd-Ave-Homestead-PA-15120/11294125_zpid/,,,53000,71100.0,995,14800.0,10/28/2021,864.0,sqft,61.34,2469.0,sqft,21.47,2.0,1.0,,,No,No,,129 E 22nd Ave,Homestead,15120,PA,USA,40.3983,-79.90138,apartments
https://www.zillow.com/homedetails/610-Berkshire-Ave-Pittsburgh-PA-15226/11566796_zpid/,,,175000,236100.0,1200,103200.0,10/26/2021,1300.0,sqft,134.62,4800.0,sqft,36.46,2.0,1.0,,,No,No,,610 Berkshire Ave,Pittsburgh,15226,PA,USA,40.39442,-80.02305,apartments
https://www.zillow.com/homedetails/103-Onyx-Ave-Pittsburgh-PA-15210/11437151_zpid/,,,145000,129800.0,995,56300.0,10/15/2021,,,,3300.0,sqft,43.94,5.0,3.0,,Scott Harding,No,No,,103 Onyx Ave,Pittsburgh,15210,PA,USA,40.40835,-79.99018,apartments
https://www.zillow.com/homedetails/5728-Elwood-St-Pittsburgh-PA-15232/2120759606_zpid/,,,195000,,1294,,10/15/2021,800.0,sqft,243.75,,,,1.0,1.0,,,No,No,,5728 Elwood St,Pittsburgh,15232,PA,USA,40.452946,-79.93005,apartments
https://www.zillow.com/homedetails/115-Center-Ave-Aspinwall-PA-15215/2130647451_zpid/,,,482500,,1350,,10/14/2021,2400.0,sqft,201.04,,,,2.0,1.0,,,No,No,,115 Center Ave,Aspinwall,15215,PA,USA,40.491444,-79.905014,apartments
https://www.zillow.com/homedetails/3411-Ward-St-Pittsburgh-PA-15213/11413511_zpid/,,,425000,,995,85400.0,10/08/2021,400.0,sqft,1062.5,2680.0,sqft,158.58,1.0,1.0,,,No,No,,3411 Ward St,Pittsburgh,15213,PA,USA,40.435112,-79.95479,apartments
https://www.zillow.com/homedetails/6020-Butler-St-Pittsburgh-PA-15201/2090162476_zpid/,,,300000,,1899,,10/08/2021,4800.0,sqft,62.5,,,,,2.0,,,No,No,,6020 Butler St,Pittsburgh,15201,PA,USA,40.486336,-79.94248,apartments
https://www.zillow.com/homedetails/29-Coulter-St-Pittsburgh-PA-15205/11585086_zpid/,,,150000,378300.0,1287,202000.0,10/07/2021,4760.0,sqft,31.51,8200.0,sqft,18.29,2.0,1.0,,,No,No,,29 Coulter St,Pittsburgh,15205,PA,USA,40.434937,-80.06916,apartments
https://www.zillow.com/homedetails/151-Fort-Pitt-Blvd-APT-1202-Pittsburgh-PA-15222/87989491_zpid/,,,560000,571300.0,3424,387200.0,10/06/2021,1450.0,sqft,386.21,1488.0,sqft,376.34,2.0,2.0,,,No,No,Apt 1202,151 Fort Pitt Blvd APT 1202,Pittsburgh,15222,PA,USA,40.438683,-80.00467,apartments
https://www.zillow.com/homedetails/6901-Grand-Ave-Pittsburgh-PA-15225/2077433462_zpid/,,,205000,,811,,09/22/2021,624.0,sqft,328.53,,,,2.0,1.0,,,No,No,,6901 Grand Ave,Pittsburgh,15225,PA,USA,40.51464,-80.141136,apartments
https://www.zillow.com/homedetails/609-Calais-Dr-APT-3105-Pittsburgh-PA-15237/11589374_zpid/,,,115000,122100.0,974,63700.0,09/21/2021,765.0,sqft,150.33,18.88,acres,6090.46,1.0,1.0,,,No,No,Apt 3105,609 Calais Dr APT 3105,Pittsburgh,15237,PA,USA,40.567795,-80.053925,apartments
https://www.zillow.com/homedetails/187-Morrison-Dr-APT-14-Pittsburgh-PA-15216/2069215598_zpid/,,,82500,,1220,,09/13/2021,975.0,sqft,84.62,,,,1.0,1.0,,,No,No,Apt 14,187 Morrison Dr APT 14,Pittsburgh,15216,PA,USA,40.39441,-80.04732,apartments
https://www.zillow.com/homedetails/342-Butler-St-Pittsburgh-PA-15223/2101070264_zpid/,,,155000,,1099,,09/10/2021,1000.0,sqft,155.0,,,,2.0,1.0,,,No,No,,342 Butler St,Pittsburgh,15223,PA,USA,40.49609,-79.94421,apartments
https://www.zillow.com/homedetails/947-Country-Club-Dr-Pittsburgh-PA-15228/11357665_zpid/,,,220000,272500.0,1694,143900.0,09/01/2021,1188.0,sqft,185.19,7540.0,sqft,29.18,3.0,2.0,,,No,No,,947 Country Club Dr,Pittsburgh,15228,PA,USA,40.374626,-80.02408,apartments
https://www.zillow.com/homedetails/436-S-Aiken-Ave-FLOOR-2-Pittsburgh-PA-15232/2079694013_zpid/,,,555000,,1285,,07/28/2021,1200.0,sqft,462.5,,,,2.0,1.0,,,No,No,Floor 2,436 S Aiken Ave FLOOR 2,Pittsburgh,15232,PA,USA,40.458523,-79.938515,apartments
https://www.zillow.com/homedetails/120-S-15th-St-Pittsburgh-PA-15203/87992325_zpid/,,,320000,317300.0,1900,,07/27/2021,1800.0,sqft,177.78,0.34,acres,941456.17,2.0,2.0,,,No,No,,120 S 15th St,Pittsburgh,15203,PA,USA,40.42725,-79.98392,apartments
https://www.zillow.com/homedetails/1630-Waterfront-Pl-Pittsburgh-PA-15222/2069977176_zpid/,,,795800,,2858,,07/23/2021,1960.0,sqft,406.02,,,,3.0,4.0,,,No,No,,1630 Waterfront Pl,Pittsburgh,15222,PA,USA,40.450413,-79.98841,apartments
https://www.zillow.com/homedetails/5523-Ellsworth-Ave-APT-6A-Pittsburgh-PA-15232/11525414_zpid/,,,198000,196200.0,2230,112000.0,07/14/2021,,,,,,,2.0,2.0,,Donna Howland Klein,No,No,Apt 6A,5523 Ellsworth Ave APT 6A,Pittsburgh,15232,PA,USA,40.45377,-79.935005,apartments
https://www.zillow.com/homedetails/1050-Eve-Dr-APT-G-Pittsburgh-PA-15216/2088575910_zpid/,,,129000,,1857,,07/12/2021,1276.0,sqft,101.1,,,,3.0,2.0,,,No,No,Apt G,1050 Eve Dr APT G,Pittsburgh,15216,PA,USA,40.39366,-80.05732,apartments
https://www.zillow.com/homedetails/600-Lockhart-St-APT-3-Pittsburgh-PA-15212/2071648757_zpid/,,,129000,,1312,,06/15/2021,612.0,sqft,210.78,,,,1.0,1.0,,,No,No,Apt 3,600 Lockhart St APT 3,Pittsburgh,15212,PA,USA,40.45274,-79.99885,apartments
https://www.zillow.com/homedetails/911-Forest-Green-Dr-Coraopolis-PA-15108/11552305_zpid/,,,92000,126400.0,1495,59500.0,05/25/2021,1124.0,sqft,81.85,,,,2.0,2.0,,Cindy Rebeck,No,No,,911 Forest Green Dr,Coraopolis,15108,PA,USA,40.50875,-80.21704,apartments
https://www.zillow.com/homedetails/2455-Brookledge-Rd-APT-B22-Bridgeville-PA-15017/2070533800_zpid/,,,79000,,1094,,05/25/2021,,,,,,,2.0,1.0,,,No,No,Apt B22,2455 Brookledge Rd APT B22,Bridgeville,15017,PA,USA,40.326138,-80.120384,apartments
https://www.zillow.com/homedetails/1100-College-Park-Dr-APT-10-Coraopolis-PA-15108/11584214_zpid/,,,91000,115300.0,999,46300.0,05/10/2021,898.0,sqft,101.34,741.0,sqft,122.81,2.0,1.0,,,No,No,Apt 10,1100 College Park Dr APT 10,Coraopolis,15108,PA,USA,40.52,-80.220024,apartments
https://www.zillow.com/homedetails/45-Ruth-St-2-Pittsburgh-PA-15211/2101063951_zpid/,,,169000,,1210,,04/27/2021,,,,,,,2.0,1.0,,,No,No,# 2,45 Ruth St #2,Pittsburgh,15211,PA,USA,40.425327,-80.004845,apartments
https://www.zillow.com/homedetails/45-Ruth-St-1-Pittsburgh-PA-15211/2104762804_zpid/,,,169000,,1175,,04/27/2021,1000.0,sqft,169.0,,,,2.0,1.0,,,No,No,# 1,45 Ruth St #1,Pittsburgh,15211,PA,USA,40.425327,-80.004845,apartments
https://www.zillow.com/homedetails/1305-Lettie-Hill-St-Pittsburgh-PA-15216/11335965_zpid/,,,15000,,1125,50000.0,04/06/2021,2093.0,sqft,7.17,3720.0,sqft,4.03,2.0,1.0,,,No,No,,1305 Lettie Hill St,Pittsburgh,15216,PA,USA,40.414066,-80.016365,apartments
https://www.zillow.com/homedetails/613-W-Main-St-Carnegie-PA-15106/11254037_zpid/,,,116000,,1440,54700.0,04/02/2021,1400.0,sqft,82.86,5064.0,sqft,22.91,3.0,1.0,,,No,No,,613 W Main St,Carnegie,15106,PA,USA,40.401867,-80.094536,apartments
https://www.zillow.com/homedetails/723-8th-St-Oakmont-PA-15139/11447257_zpid/,,,178000,,1298,149300.0,04/02/2021,1816.0,sqft,98.02,8663.0,sqft,20.55,2.0,1.0,,,No,No,,723 8th St,Oakmont,15139,PA,USA,40.521626,-79.83511,apartments
https://www.zillow.com/homedetails/106-Biddle-Ave-Pittsburgh-PA-15221/11342698_zpid/,,,470250,562800.0,3433,218000.0,04/01/2021,1300.0,sqft,361.73,3000.0,sqft,156.75,2.0,1.0,,,No,No,,106 Biddle Ave,Pittsburgh,15221,PA,USA,40.43701,-79.89492,apartments
https://www.zillow.com/homedetails/5491-Penn-Ave-Pittsburgh-PA-15206/104361571_zpid/,,,239900,,1116,49700.0,03/31/2021,850.0,sqft,282.24,0.68,acres,353890.89,1.0,1.0,,,No,No,,5491 Penn Ave,Pittsburgh,15206,PA,USA,40.464466,-79.93248,apartments
https://www.zillow.com/homedetails/5237-5th-Ave-APT-B2-Pittsburgh-PA-15232/11529300_zpid/,,,179900,204600.0,1266,89700.0,03/24/2021,774.0,sqft,232.43,771.0,sqft,233.33,1.0,1.0,,,No,No,Apt B2,5237 5th Ave APT B2,Pittsburgh,15232,PA,USA,40.44818,-79.93569,apartments
https://www.zillow.com/homedetails/5110-Butler-St-Pittsburgh-PA-15201/2076557031_zpid/,,,300000,,1700,,03/24/2021,,,,,,,3.0,1.0,,,No,No,,5110 Butler St,Pittsburgh,15201,PA,USA,40.478596,-79.9552,apartments
https://www.zillow.com/homedetails/5710-Weldin-St-Pittsburgh-PA-15206/11623284_zpid/,,,105000,125600.0,1434,35000.0,03/12/2021,1036.0,sqft,101.35,784.08,sqft,133.91,2.0,1.0,,Mary Hester,No,No,,5710 Weldin St,Pittsburgh,15206,PA,USA,40.465305,-79.92677,apartments
https://www.zillow.com/homedetails/6327-Morrowfield-Ave-Pittsburgh-PA-15217/11635909_zpid/,,,430000,478300.0,2936,245700.0,03/12/2021,2772.0,sqft,155.12,5850.0,sqft,73.5,2.0,1.0,,,No,No,,6327 Morrowfield Ave,Pittsburgh,15217,PA,USA,40.427624,-79.92157,apartments
https://www.zillow.com/homedetails/432-Perry-Hwy-Pittsburgh-PA-15229/119344314_zpid/,,,199000,,2025,119200.0,03/12/2021,,,,4334.0,sqft,45.92,1.0,3.0,,,No,No,,432 Perry Hwy,Pittsburgh,15229,PA,USA,40.519142,-80.03185,apartments
https://www.zillow.com/homedetails/1462-Spreading-Oak-Dr-B-Pittsburgh-PA-15220/2077828033_zpid/,,,130000,,1860,,03/05/2021,1452.0,sqft,89.53,,,,3.0,2.5,,,No,No,# B,1462 Spreading Oak Dr #B,Pittsburgh,15220,PA,USA,40.40544,-80.065025,apartments
https://www.zillow.com/homedetails/1203-Arch-St-Pittsburgh-PA-15212/121888324_zpid/,,,531250,,1719,406400.0,03/05/2021,1200.0,sqft,442.71,4000.0,sqft,132.81,3.0,2.0,,,No,No,,1203 Arch St,Pittsburgh,15212,PA,USA,40.455776,-80.00915,apartments
https://www.zillow.com/homedetails/209-Park-Ave-211-Bellevue-PA-15202/11368586_zpid/,,,317500,,850,147500.0,03/02/2021,4420.0,sqft,71.83,6340.0,sqft,50.08,1.0,1.0,,,No,No,# 211,209 Park Ave #211,Bellevue,15202,PA,USA,40.50358,-80.077805,apartments
https://www.zillow.com/homedetails/357-359-Washington-Ave-Oakmont-PA-15139/11447554_zpid/,,,288800,,1350,135400.0,03/02/2021,2160.0,sqft,133.7,4580.0,sqft,63.06,2.0,1.0,,,No,No,,357-359 Washington Ave,Oakmont,15139,PA,USA,40.516388,-79.84215,apartments
https://www.zillow.com/homedetails/17-Walnut-St-Crafton-PA-15205/11476463_zpid/,,,78000,162600.0,892,101300.0,02/26/2021,900.0,sqft,86.67,5998.0,sqft,13.0,1.0,1.0,,,No,No,,17 Walnut St,Crafton,15205,PA,USA,40.433613,-80.062744,apartments
https://www.zillow.com/homedetails/3043-Mahican-Cir-Mars-PA-16046/337927227_zpid/,,,366865,455300.0,2749,235700.0,02/24/2021,2200.0,sqft,166.76,1759.0,sqft,208.56,3.0,3.5,,,No,No,,3043 Mahican Cir,Mars,16046,PA,USA,40.670742,-80.09163,apartments
https://www.zillow.com/homedetails/3052-Sanlin-Dr-3052-Coraopolis-PA-15108/2073610711_zpid/,,,75750,,1260,,02/22/2021,1050.0,sqft,72.14,,,,2.0,1.0,,,No,No,# 3052,3052 Sanlin Dr #3052,Coraopolis,15108,PA,USA,40.509216,-80.20931,apartments
https://www.zillow.com/homedetails/5809-Rippey-St-A-Pittsburgh-PA-15206/121887427_zpid/,,,255000,320700.0,1927,155600.0,02/17/2021,1872.0,sqft,136.22,5809.0,acres,43.9,2.0,2.0,,,No,No,# A,5809 Rippey St #A,Pittsburgh,15206,PA,USA,40.46565,-79.925316,apartments
https://www.zillow.com/homedetails/2250-Mary-St-APT-212-Pittsburgh-PA-15203/59835167_zpid/,,,235000,308900.0,1800,177900.0,02/09/2021,1600.0,sqft,146.88,1254.0,sqft,187.4,1.0,2.0,,,No,No,Apt 212,2250 Mary St APT 212,Pittsburgh,15203,PA,USA,40.42548,-79.974464,apartments
https://www.zillow.com/homedetails/305-Olivia-St-Mc-Kees-Rocks-PA-15136/2095123896_zpid/,,,275000,,806,,02/02/2021,,,,,,,2.0,1.0,,,No,No,,305 Olivia St,Mc Kees Rocks,15136,PA,USA,40.474377,-80.05693,apartments
https://www.zillow.com/homedetails/907-Woodward-Ave-Mc-Kees-Rocks-PA-15136/11599152_zpid/,,,90000,112000.0,840,40200.0,01/27/2021,1382.0,sqft,65.12,2400.0,sqft,37.5,1.0,1.0,,,No,No,,907 Woodward Ave,Mc Kees Rocks,15136,PA,USA,40.47409,-80.076385,apartments
https://www.zillow.com/homedetails/706-Ohio-River-Blvd-Sewickley-PA-15143/11480768_zpid/,,,119700,216200.0,1748,123000.0,01/21/2021,1231.0,sqft,97.24,,,,2.0,1.5,,,No,No,,706 Ohio River Blvd,Sewickley,15143,PA,USA,40.53461,-80.18092,apartments
https://www.zillow.com/homedetails/1203-Kenzie-Dr-Pittsburgh-PA-15205/11400688_zpid/,,,155000,201300.0,1874,92700.0,01/20/2021,1500.0,sqft,103.33,3.37,acres,45994.13,3.0,2.0,,,No,No,,1203 Kenzie Dr,Pittsburgh,15205,PA,USA,40.441772,-80.13891,apartments
https://www.zillow.com/homedetails/102-Beltzhoover-Ave-Pittsburgh-PA-15210/11314737_zpid/,,,61000,,1200,34700.0,01/19/2021,1100.0,sqft,55.45,3750.0,sqft,16.27,2.0,1.0,,,No,No,,102 Beltzhoover Ave,Pittsburgh,15210,PA,USA,40.422096,-79.99779,apartments
https://www.zillow.com/homedetails/453-3rd-St-Pitcairn-PA-15140/11602163_zpid/,,,90000,166900.0,1200,109100.0,01/19/2021,4404.0,sqft,20.44,3000.0,sqft,30.0,9.0,1.0,,,No,No,,453 3rd St,Pitcairn,15140,PA,USA,40.40285,-79.77918,apartments
https://www.zillow.com/homedetails/265-Freeport-Rd-Blawnox-PA-15238/306751517_zpid/,,,2400000,,868,1404400.0,01/19/2021,700.0,sqft,3428.57,0.99,acres,2420000.0,1.0,1.0,,,No,No,,265 Freeport Rd,Blawnox,15238,PA,USA,40.493275,-79.86307,apartments
https://www.zillow.com/homedetails/960-Chatham-Park-Dr-APT-A-Pittsburgh-PA-15216/59835889_zpid/,,,128000,160900.0,1496,79600.0,01/14/2021,996.0,sqft,128.51,13.8,acres,9276.72,2.0,1.0,,,No,No,Apt A,960 Chatham Park Dr APT A,Pittsburgh,15216,PA,USA,40.39479,-80.057556,apartments
https://www.zillow.com/homedetails/3305-Dawson-St-Pittsburgh-PA-15213/164340844_zpid/,,,494000,577700.0,3430,175700.0,01/13/2021,1000.0,sqft,494.0,4992.0,sqft,98.96,2.0,1.0,,,No,No,,3305 Dawson St,Pittsburgh,15213,PA,USA,40.433064,-79.95374,apartments
https://www.zillow.com/homedetails/4919-Penn-Ave-Pittsburgh-PA-15224/2101350590_zpid/,,,483000,,2197,,01/13/2021,2100.0,sqft,230.0,2178.0,sqft,221.76,3.0,2.0,,,No,No,,4919 Penn Ave,Pittsburgh,15224,PA,USA,40.46542,-79.94444,apartments
https://www.zillow.com/homedetails/3949-Murray-Ave-Pittsburgh-PA-15217/11635820_zpid/,,,260000,378600.0,1500,125000.0,01/12/2021,1000.0,sqft,260.0,2860.0,sqft,90.91,2.0,1.0,,,No,No,,3949 Murray Ave,Pittsburgh,15217,PA,USA,40.426304,-79.92728,apartments
https://www.zillow.com/homedetails/430-Brownsville-Rd-Pittsburgh-PA-15210/119346808_zpid/,,,130000,,866,46900.0,01/11/2021,3280.0,sqft,39.63,2526.0,sqft,51.46,1.0,1.0,,,No,No,,430 Brownsville Rd,Pittsburgh,15210,PA,USA,40.4127,-79.98954,apartments
https://www.zillow.com/homedetails/125-Rock-Run-Rd-Elizabeth-PA-15037/119346901_zpid/,,,100000,,758,150000.0,01/11/2021,1200.0,sqft,83.33,0.34,acres,297094.53,,0.5,,,No,No,,125 Rock Run Rd,Elizabeth,15037,PA,USA,40.27597,-79.836105,apartments
https://www.zillow.com/homedetails/313-7th-Ave-Carnegie-PA-15106/11255586_zpid/,,,174000,227600.0,1405,95000.0,01/07/2021,1980.0,sqft,87.88,4715.0,sqft,36.9,3.0,1.0,,,No,No,,313 7th Ave,Carnegie,15106,PA,USA,40.40743,-80.0932,apartments
https://www.zillow.com/homedetails/233-Edmond-St-Pittsburgh-PA-15224/11520647_zpid/,,,105620,192800.0,1074,60000.0,01/06/2021,2214.0,sqft,47.71,2008.0,sqft,52.6,1.0,1.0,,,No,No,,233 Edmond St,Pittsburgh,15224,PA,USA,40.46421,-79.947464,apartments
https://www.zillow.com/homedetails/233-N-Aiken-Ave-Pittsburgh-PA-15206/11520511_zpid/,,,227000,275600.0,1800,170400.0,01/05/2021,1300.0,sqft,174.62,2134.0,sqft,106.37,2.0,2.0,,,No,No,,233 N Aiken Ave,Pittsburgh,15206,PA,USA,40.466667,-79.93551,apartments
https://www.zillow.com/homedetails/1328-1330-Pocono-St-Pittsburgh-PA-15218/11290459_zpid/,,,530990,,1011,280700.0,01/04/2021,5712.0,sqft,92.96,0.6,acres,886204.0,1.0,1.0,,,No,No,,1328-1330 Pocono St,Pittsburgh,15218,PA,USA,40.418697,-79.90132,apartments
https://www.zillow.com/homedetails/1808-Brownsville-Rd-Pittsburgh-PA-15210/2078045802_zpid/,,,50000,,1299,,12/30/2020,1100.0,sqft,45.45,,,,3.0,1.0,,,No,No,,1808 Brownsville Rd,Pittsburgh,15210,PA,USA,40.396935,-79.988075,apartments
https://www.zillow.com/homedetails/5523-Ellsworth-Ave-APT-6C-Shadyside-PA-15232/2133122251_zpid/,,,195000,,2420,,12/29/2020,950.0,sqft,205.26,,,,2.0,2.0,,,No,No,Apt 6C,5523 Ellsworth Ave APT 6C,Shadyside,15232,PA,USA,40.45377,-79.935005,apartments
https://www.zillow.com/homedetails/1924-Sidney-St-Pittsburgh-PA-15203/11290827_zpid/,,,136735,229300.0,1250,133900.0,12/28/2020,1000.0,sqft,136.74,1200.0,sqft,113.95,2.0,1.0,,,No,No,,1924 Sidney St,Pittsburgh,15203,PA,USA,40.429356,-79.978004,apartments
https://www.zillow.com/homedetails/4200-Geneva-St-Pittsburgh-PA-15201/11513953_zpid/,,,295000,327700.0,1599,125000.0,12/28/2020,1134.0,sqft,260.14,1050.0,sqft,280.95,3.0,1.0,,Christina Talotta,No,No,,4200 Geneva St,Pittsburgh,15201,PA,USA,40.467003,-79.95571,apartments
https://www.zillow.com/homedetails/3714-Penn-Ave-Pittsburgh-PA-15201/11514748_zpid/,,,141702,286500.0,1051,124300.0,12/28/2020,1000.0,sqft,141.7,2600.0,sqft,54.5,1.0,1.0,,,No,No,,3714 Penn Ave,Pittsburgh,15201,PA,USA,40.46426,-79.96181,apartments
https://www.zillow.com/homedetails/800-College-Park-Dr-APT-9-Coraopolis-PA-15108/11584083_zpid/,,,44000,79800.0,1020,42000.0,12/28/2020,594.0,sqft,74.07,594.0,sqft,74.07,1.0,1.0,,,No,No,Apt 9,800 College Park Dr APT 9,Coraopolis,15108,PA,USA,40.519886,-80.22088,apartments
https://www.zillow.com/homedetails/5809-Holden-St-Pittsburgh-PA-15232/164512730_zpid/,,,252000,282100.0,1385,150000.0,12/28/2020,1000.0,sqft,252.0,,,,1.0,1.0,,,No,No,,5809 Holden St,Pittsburgh,15232,PA,USA,40.454956,-79.92975,apartments
https://www.zillow.com/homedetails/927-Pittsburgh-St-Springdale-PA-15144/11595774_zpid/,,,60000,76000.0,791,80400.0,12/22/2020,2497.0,sqft,24.03,6175.0,sqft,9.72,1.0,1.0,,,No,No,,927 Pittsburgh St,Springdale,15144,PA,USA,40.541843,-79.77691,apartments
https://www.zillow.com/homedetails/5700-E-Liberty-Blvd-Pittsburgh-PA-15206/11623309_zpid/,,,462500,,1798,55000.0,12/17/2020,1224.0,sqft,377.86,2054.0,sqft,225.17,3.0,1.5,,,No,No,,5700 E Liberty Blvd,Pittsburgh,15206,PA,USA,40.466797,-79.9262,apartments
https://www.zillow.com/homedetails/431-E-10th-Ave-Homestead-PA-15120/119345688_zpid/,,,15000,,1684,92400.0,12/17/2020,1500.0,sqft,10.0,5501.0,sqft,2.73,3.0,2.0,,,No,No,,431 E 10th Ave,Homestead,15120,PA,USA,40.407536,-79.90437,apartments
https://www.zillow.com/homedetails/7726-Brashear-St-Pittsburgh-PA-15221/11341501_zpid/,,,57570,,950,101000.0,12/09/2020,3094.0,sqft,18.61,3711.0,sqft,15.51,,,,,No,No,,7726 Brashear St,Pittsburgh,15221,PA,USA,40.44436,-79.89357,apartments
https://www.zillow.com/homedetails/3049-Sanlin-Dr-Coraopolis-PA-15108/11552531_zpid/,,,75000,90000.0,1020,35400.0,12/08/2020,778.0,sqft,96.4,778.0,sqft,96.4,1.0,1.0,,,No,No,,3049 Sanlin Dr,Coraopolis,15108,PA,USA,40.50915,-80.20927,apartments
https://www.zillow.com/homedetails/2600-Spring-Garden-Ave-2602-Pittsburgh-PA-15212/11610570_zpid/,,,100000,,874,97200.0,12/08/2020,4026.0,sqft,24.84,4000.0,sqft,25.0,1.0,1.0,,,No,No,# 2602,2600 Spring Garden Ave #2602,Pittsburgh,15212,PA,USA,40.473976,-79.9886,apartments
https://www.zillow.com/homedetails/123-Shingiss-St-Mc-Kees-Rocks-PA-15136/11602890_zpid/,,,125000,151100.0,999,72500.0,12/03/2020,1050.0,sqft,119.05,2850.0,sqft,43.86,2.0,1.0,,,No,No,,123 Shingiss St,Mc Kees Rocks,15136,PA,USA,40.473106,-80.053795,apartments
https://www.zillow.com/homedetails/4069-Sanlin-Dr-Coraopolis-PA-15108/11552551_zpid/,,,58000,101400.0,1128,54700.0,12/01/2020,1053.0,sqft,55.08,,,,2.0,1.0,,,No,No,,4069 Sanlin Dr,Coraopolis,15108,PA,USA,40.509655,-80.20965,apartments
https://www.zillow.com/homedetails/915-Brookline-Blvd-APT-3-Pittsburgh-PA-15226/2080951223_zpid/,,,260000,,749,,11/27/2020,,,,,,,,1.0,,,No,No,Apt 3,915 Brookline Blvd APT 3,Pittsburgh,15226,PA,USA,40.39295,-80.01838,apartments
https://www.zillow.com/homedetails/1216-Louise-St-Homestead-PA-15120/11292738_zpid/,,,82000,,950,71800.0,11/20/2020,2940.0,sqft,27.89,2638.0,sqft,31.08,1.0,1.0,,,No,No,,1216 Louise St,Homestead,15120,PA,USA,40.40508,-79.902695,apartments
https://www.zillow.com/homedetails/184-34th-St-Pittsburgh-PA-15201/11512581_zpid/,,,127500,,1614,142900.0,11/20/2020,1247.0,sqft,102.25,572.0,sqft,222.9,2.0,1.5,,,No,No,,184 34th St,Pittsburgh,15201,PA,USA,40.462833,-79.96744,apartments
https://www.zillow.com/homedetails/804-8th-St-Mc-Kees-Rocks-PA-15136/11599021_zpid/,,,51870,,1235,45500.0,11/20/2020,1000.0,sqft,51.87,5200.0,sqft,9.98,3.0,1.0,,,No,No,,804 8th St,Mc Kees Rocks,15136,PA,USA,40.474575,-80.07487,apartments
https://www.zillow.com/homedetails/5708-Walnut-St-APT-L2-Pittsburgh-PA-15232/11628678_zpid/,,,169000,223600.0,1594,130000.0,11/18/2020,985.0,sqft,171.57,869.0,sqft,194.48,2.0,1.0,,,No,No,Apt L2,5708 Walnut St APT L2,Pittsburgh,15232,PA,USA,40.45198,-79.93008,apartments
https://www.zillow.com/homedetails/858-Elm-Way-Coraopolis-PA-15108/11478571_zpid/,,,10000,,1097,49800.0,11/17/2020,1000.0,sqft,10.0,3318.0,sqft,3.01,2.0,1.0,,,No,No,,858 Elm Way,Coraopolis,15108,PA,USA,40.517117,-80.16818,apartments
https://www.zillow.com/homedetails/290-Lemoyne-Ave-Pittsburgh-PA-15228/11312335_zpid/,,,630000,759600.0,4641,302700.0,11/13/2020,,,,,,,2.0,1.0,,,No,No,,290 Lemoyne Ave,Pittsburgh,15228,PA,USA,40.37526,-80.03931,apartments
https://www.zillow.com/homedetails/129-Baywood-Ave-APT-1B2-Pittsburgh-PA-15228/11311300_zpid/,,,143000,170700.0,1189,41600.0,11/10/2020,864.0,sqft,165.51,846.0,sqft,169.03,2.0,1.0,,,No,No,Apt 1B2,129 Baywood Ave APT 1B2,Pittsburgh,15228,PA,USA,40.380424,-80.04713,apartments
https://www.zillow.com/homedetails/704-706-Doolittle-St-Carnegie-PA-15106/11582838_zpid/,,,129000,184400.0,1462,117800.0,11/10/2020,1300.0,sqft,99.23,4399.0,sqft,29.32,3.0,1.0,,,No,No,,704-706 Doolittle St,Carnegie,15106,PA,USA,40.413956,-80.07577,apartments
https://www.zillow.com/homedetails/129-Baywood-Ave-APT-1D3-Pittsburgh-PA-15228/11311305_zpid/,,,57000,113800.0,1009,42000.0,11/09/2020,684.0,sqft,83.33,684.0,sqft,83.33,1.0,1.0,,,No,No,Apt 1D3,129 Baywood Ave APT 1D3,Pittsburgh,15228,PA,USA,40.380424,-80.04713,apartments
https://www.zillow.com/homedetails/538-542-Penn-St-Verona-PA-15147/11448774_zpid/,,,200000,347000.0,1599,258000.0,11/05/2020,1650.0,sqft,121.21,7919.0,sqft,25.26,2.0,2.0,,,No,No,,538-542 Penn St,Verona,15147,PA,USA,40.50327,-79.84628,apartments
https://www.zillow.com/homedetails/554-560-Bigelow-St-Pittsburgh-PA-15207/11545161_zpid/,,,575000,,1969,503100.0,11/05/2020,2072.0,sqft,277.51,5709.0,sqft,100.72,4.0,2.0,,,No,No,,554-560 Bigelow St,Pittsburgh,15207,PA,USA,40.418835,-79.93771,apartments
https://www.zillow.com/homedetails/810-Wood-St-East-Pittsburgh-PA-15112/2076153179_zpid/,,,200000,,999,,11/04/2020,1200.0,sqft,166.67,,,,1.0,1.0,,,No,No,,810 Wood St,East Pittsburgh,15112,PA,USA,,,apartments
https://www.zillow.com/homedetails/4909-Library-Rd-Bethel-Park-PA-15102/2076156791_zpid/,,,502500,,991,,10/30/2020,,,,,,,2.0,1.0,,,No,No,,4909 Library Rd,Bethel Park,15102,PA,USA,40.34521,-80.02695,apartments
https://www.zillow.com/homedetails/4061-Meadowbrook-Blvd-Pittsburgh-PA-15227/11391454_zpid/,,,145000,195000.0,1213,127100.0,10/26/2020,1144.0,sqft,126.75,5699.0,sqft,25.44,2.0,1.0,,,No,No,,4061 Meadowbrook Blvd,Pittsburgh,15227,PA,USA,40.364994,-79.98012,apartments
https://www.zillow.com/homedetails/4067-Sanlin-Dr-Coraopolis-PA-15108/11552549_zpid/,,,216000,103400.0,1020,63000.0,10/26/2020,778.0,sqft,277.63,778.0,sqft,277.63,1.0,1.0,,,No,No,,4067 Sanlin Dr,Coraopolis,15108,PA,USA,40.509605,-80.20956,apartments
https://www.zillow.com/homedetails/343-S-Bouquet-St-Pittsburgh-PA-15213/11412706_zpid/,,,552000,614800.0,3704,483000.0,10/23/2020,,,,3589.34,sqft,153.79,6.0,2.0,,Austin Rusert,No,No,,343 S Bouquet St,Pittsburgh,15213,PA,USA,40.440235,-79.952805,apartments
https://www.zillow.com/homedetails/3204-Middletown-Rd-Pittsburgh-PA-15204/11587706_zpid/,,,145000,192800.0,1550,107500.0,10/23/2020,2984.0,sqft,48.59,4120.0,sqft,35.19,2.0,1.5,,,No,No,,3204 Middletown Rd,Pittsburgh,15204,PA,USA,40.451042,-80.066864,apartments
https://www.zillow.com/homedetails/505-Hunters-Path-Rd-APT-13-Bridgeville-PA-15017/59856326_zpid/,,,58500,100200.0,1235,41900.0,10/23/2020,1000.0,sqft,58.5,920.0,sqft,63.59,2.0,1.0,,,No,No,Apt 13,505 Hunters Path Rd APT 13,Bridgeville,15017,PA,USA,40.326496,-80.12914,apartments
https://www.zillow.com/homedetails/4677-Bayard-St-Pittsburgh-PA-15213/2079247335_zpid/,,,323500,,1858,,10/23/2020,1390.0,sqft,232.73,,,,2.0,2.0,,,No,No,,4677 Bayard St,Pittsburgh,15213,PA,USA,40.450542,-79.94932,apartments
https://www.zillow.com/homedetails/6332-Forward-Ave-Pittsburgh-PA-15217/11635531_zpid/,,,315000,,1079,135000.0,10/20/2020,2296.0,sqft,137.2,4500.0,sqft,70.0,1.0,1.0,,,No,No,,6332 Forward Ave,Pittsburgh,15217,PA,USA,40.428623,-79.92022,apartments
https://www.zillow.com/homedetails/5815-Ellsworth-Ave-Pittsburgh-PA-15232/2080600028_zpid/,,,314000,,2513,,10/19/2020,1000.0,sqft,314.0,2178.0,sqft,144.17,2.0,2.0,,,No,No,,5815 Ellsworth Ave,Pittsburgh,15232,PA,USA,40.4566,-79.930565,apartments
