Property URL,MLS ID,Number of days on Zillow,Property price (USD),Zestimate (USD),Rent zestimate (USD per month),Tax assessed value (USD),Sold date (MM/DD/YYYY),Living area,Living area unit,Price per living area unit (USD),Lot/land area,Lot/land area unit,Price per lot/land area unit (USD),Bedrooms,Bathrooms,Broker name,Broker agent,Is owner occupied,Property owned by Zillow,Property unit number,Street address,City,Zip,State,Country,Latitude,Longitude
"https://www.zillow.com/homedetails/803-Newton-Sq-Coraopolis-PA-15108/11554991_zpid/","","","201500","201600","1474","96700","10/16/2023","1104","sqft","182.52","","","","2","2","","Albert Martelli","No","No","","803 Newton Sq","Coraopolis","15108","PA","USA","40.541317","-80.20503"
"https://www.zillow.com/homedetails/303-Newton-Sq-Coraopolis-PA-15108/11555035_zpid/","","","190000","187700","1610","106200","10/13/2023","1320","sqft","143.94","740.52","sqft","256.58","2","2","","Mary Kay Abdulovic","No","No","","303 Newton Sq","Coraopolis","15108","PA","USA","40.541252","-80.20646"
"https://www.zillow.com/homedetails/6371-Springhouse-Pl-Bridgeville-PA-15017/59857792_zpid/","","","172000","176300","1494","97000","10/13/2023","1020","sqft","168.63","1611.72","sqft","106.72","2","2","","Holly Donahue","No","No","","6371 Springhouse Pl","Bridgeville","15017","PA","USA","40.325676","-80.13404"
"https://www.zillow.com/homedetails/140-Lebeouf-Dr-New-Kensington-PA-15068/11596200_zpid/","","","172000","172000","1300","78000","10/10/2023","992","sqft","173.39","2025.54","sqft","84.92","2","2","","Michael Ricciuti","No","No","","140 Lebeouf Dr","New Kensington","15068","PA","USA","40.529385","-79.77597"
"https://www.zillow.com/homedetails/333-Shady-Ridge-Dr-Monroeville-PA-15146/11536106_zpid/","","","185000","185000","1581","109600","10/09/2023","1408","sqft","131.39","6786.65","sqft","27.26","3","3","","Victoria Scalise","No","No","","333 Shady Ridge Dr","Monroeville","15146","PA","USA","40.408497","-79.80668"
"https://www.zillow.com/homedetails/221-Heather-Dr-Monroeville-PA-15146/11600703_zpid/","","","178000","178000","1927","131200","09/21/2023","1560","sqft","114.1","1568.16","sqft","113.51","2","3","","Gerald Irwin","No","No","","221 Heather Dr","Monroeville","15146","PA","USA","40.441444","-79.77761"
"https://www.zillow.com/homedetails/38A-Bethany-Dr-Pittsburgh-PA-15215/164595612_zpid/","","","176517","176500","1650","118800","09/19/2023","","","","3162.46","sqft","55.82","2","2","","Brandi Harris","No","No","","38A Bethany Dr","Pittsburgh","15215","PA","USA","40.506004","-79.94067"
"https://www.zillow.com/homedetails/327-Lawn-St-Pittsburgh-PA-15213/11413144_zpid/","","","190000","190000","1955","52400","09/15/2023","","","","1698.84","sqft","111.84","4","2","","Lei Li","No","No","","327 Lawn St","Pittsburgh","15213","PA","USA","40.434402","-79.96284"
"https://www.zillow.com/homedetails/25-New-London-Ln-Oakmont-PA-15139/11489443_zpid/","","","195000","195000","1581","117000","09/12/2023","1288","sqft","151.4","3223.44","sqft","60.49","3","2","","Stephen Solomon","No","No","","25 New London Ln","Oakmont","15139","PA","USA","40.515835","-79.82807"
"https://www.zillow.com/homedetails/2001-Clearfork-Rd-Bridgeville-PA-15017/59856570_zpid/","","","180000","180000","1597","97600","09/12/2023","1240","sqft","145.16","2103.95","sqft","85.55","3","2","","John Fincham","No","No","","2001 Clearfork Rd","Bridgeville","15017","PA","USA","40.32704","-80.12402"
"https://www.zillow.com/homedetails/228-Schenley-Manor-Dr-Pittsburgh-PA-15201/11615973_zpid/","","","183000","183000","1546","66200","09/08/2023","","","","","","","3","1","","Ronald May","No","No","","228 Schenley Manor Dr","Pittsburgh","15201","PA","USA","40.474483","-79.93683"
"https://www.zillow.com/homedetails/506-Hemlock-Ct-Coraopolis-PA-15108/59845980_zpid/","","","215000","","1393","93900","09/06/2023","1240","sqft","173.39","2047.32","sqft","105.02","3","2","","Adam Heald","No","No","","506 Hemlock Ct","Coraopolis","15108","PA","USA","40.45717","-80.20917"
"https://www.zillow.com/homedetails/2843-Dolores-Dr-South-Park-PA-15129/11253206_zpid/","","","175000","175000","1433","109500","09/01/2023","1076","sqft","162.64","5292.54","sqft","33.07","2","2","","Cindy Schmidt","No","No","","2843 Dolores Dr","South Park","15129","PA","USA","40.284477","-80.019554"
"https://www.zillow.com/homedetails/510-Countryside-Dr-Mc-Kees-Rocks-PA-15136/11365144_zpid/","","","200000","200000","1500","101000","08/31/2023","1260","sqft","158.73","1049.8","sqft","190.51","3","2","","Ashley Blair-Lightholder","No","No","","510 Countryside Dr","Mc Kees Rocks","15136","PA","USA","40.457638","-80.13044"
"https://www.zillow.com/homedetails/159-Spruce-Ct-Pittsburgh-PA-15229/11369687_zpid/","","","215000","215000","1500","111700","08/29/2023","1100","sqft","195.45","1759.82","sqft","122.17","2","2","","Elizabeth Kofmehl","No","No","","159 Spruce Ct","Pittsburgh","15229","PA","USA","40.5109","-80.04423"
"https://www.zillow.com/homedetails/709-Countryside-Dr-Mc-Kees-Rocks-PA-15136/11365168_zpid/","","","175000","175000","1500","96500","08/25/2023","1200","sqft","145.83","1023.66","sqft","170.96","3","2","","Long Pham","No","No","","709 Countryside Dr","Mc Kees Rocks","15136","PA","USA","40.457554","-80.13139"
"https://www.zillow.com/homedetails/412-Timber-Trl-Imperial-PA-15126/59850661_zpid/","","","182500","182600","1450","115000","08/21/2023","","","","10349.86","sqft","17.63","2","2","","Joey Booker","No","No","","412 Timber Trl","Imperial","15126","PA","USA","40.44643","-80.22422"
"https://www.zillow.com/homedetails/218-Walnut-St-Blawnox-PA-15238/11414822_zpid/","","","201500","201500","1500","128100","08/18/2023","1160","sqft","173.71","1306.8","sqft","154.19","2","2","","Emily Fraser","No","No","","218 Walnut St","Blawnox","15238","PA","USA","40.49321","-79.86468"
"https://www.zillow.com/homedetails/225-Timber-Trl-Imperial-PA-15126/59850390_zpid/","","","185000","184900","1450","116000","08/18/2023","","","","1263.24","sqft","146.45","2","2","","Amy Smith","No","No","","225 Timber Trl","Imperial","15126","PA","USA","40.447247","-80.224846"
"https://www.zillow.com/homedetails/6362-Springhouse-Pl-Bridgeville-PA-15017/59857593_zpid/","","","168000","168000","1494","92400","08/17/2023","1014","sqft","165.68","1176.12","sqft","142.84","2","2","","Holly Donahue","No","No","","6362 Springhouse Pl","Bridgeville","15017","PA","USA","40.326057","-80.13382"
"https://www.zillow.com/homedetails/345-46th-St-Pittsburgh-PA-15201/11513092_zpid/","","","182500","182500","1800","57200","08/14/2023","912","sqft","200.11","923.47","sqft","197.62","2","1","","Denise Serbin","No","No","","345 46th St","Pittsburgh","15201","PA","USA","40.470554","-79.95532"
"https://www.zillow.com/homedetails/601-Bayberry-Ln-Imperial-PA-15126/59850270_zpid/","","","173000","173100","1474","97600","08/14/2023","930","sqft","186.02","1420.06","sqft","121.83","2","2","","Brett Bernola","No","No","","601 Bayberry Ln","Imperial","15126","PA","USA","40.44248","-80.22202"
"https://www.zillow.com/homedetails/1443-Hidden-Timber-Dr-Pittsburgh-PA-15220/11366484_zpid/","","","190000","189600","1450","94700","08/11/2023","","","","2613.6","sqft","72.7","2","2","","Jeremy Pronto","No","No","","1443 Hidden Timber Dr","Pittsburgh","15220","PA","USA","40.445805","-80.048836"
"https://www.zillow.com/homedetails/275-Shady-Ridge-Dr-Monroeville-PA-15146/11536089_zpid/","","","170000","170200","1795","101500","08/10/2023","1344","sqft","126.49","1829.52","sqft","92.92","3","3","","Gina Giacchino","No","No","","275 Shady Ridge Dr","Monroeville","15146","PA","USA","40.40777","-79.80592"
"https://www.zillow.com/homedetails/1916-Kirkby-Dr-South-Park-PA-15129/11637605_zpid/","","","175000","175000","1639","91200","08/10/2023","1178","sqft","148.56","2631.02","sqft","66.51","3","2","","Sarah Lauter","No","No","","1916 Kirkby Dr","South Park","15129","PA","USA","40.28788","-79.98295"
"https://www.zillow.com/homedetails/2828-Sarah-St-Pittsburgh-PA-15203/11420362_zpid/","","","209000","208900","1280","121000","08/08/2023","1400","sqft","149.29","1027","sqft","203.51","2","1","","","No","No","","2828 Sarah St","Pittsburgh","15203","PA","USA","40.424915","-79.9658"
"https://www.zillow.com/homedetails/6806-Perrysville-Ave-Pittsburgh-PA-15202/11367807_zpid/","","","190000","189700","1226","114600","08/02/2023","1100","sqft","172.73","3301.85","sqft","57.54","3","2","","Jeremy Thieroff","No","No","","6806 Perrysville Ave","Pittsburgh","15202","PA","USA","40.509415","-80.07935"
"https://www.zillow.com/homedetails/141-Community-Ct-Pittsburgh-PA-15205/11318935_zpid/","","","175000","175000","1495","92400","07/31/2023","1120","sqft","156.25","","","","2","2","","Robin Ross","No","No","","141 Community Ct","Pittsburgh","15205","PA","USA","40.42788","-80.10077"
"https://www.zillow.com/homedetails/602-Carla-Dr-Pittsburgh-PA-15238/11414590_zpid/","","","210000","210000","1800","110900","07/31/2023","","","","","","","2","3","","Sandy Woncheck","No","No","","602 Carla Dr","Pittsburgh","15238","PA","USA","40.494385","-79.86495"
"https://www.zillow.com/homedetails/114-Westbrooke-Ln-Coraopolis-PA-15108/59846491_zpid/","","","205000","205000","1485","142200","07/31/2023","1138","sqft","180.14","1685.77","sqft","121.61","2","2","","Bianca Goodwin","No","No","","114 Westbrooke Ln","Coraopolis","15108","PA","USA","40.455475","-80.20914"
"https://www.zillow.com/homedetails/108-Old-Village-Ln-Bethel-Park-PA-15102/11607859_zpid/","","","199000","198800","1429","104800","07/28/2023","1056","sqft","188.45","1332","sqft","149.4","2","2","","Christina Longenecker","No","No","","108 Old Village Ln","Bethel Park","15102","PA","USA","40.30355","-80.04094"
"https://www.zillow.com/homedetails/108-Jamestown-Ct-Pittsburgh-PA-15216/59836118_zpid/","","","180000","179900","1488","102500","07/28/2023","996","sqft","180.72","992","sqft","181.45","2","2","","","No","No","","108 Jamestown Ct","Pittsburgh","15216","PA","USA","40.392937","-80.05698"
"https://www.zillow.com/homedetails/212-Carpenter-Ln-Pittsburgh-PA-15212/11269821_zpid/","","","214900","214600","1764","113500","07/26/2023","1524","sqft","141.01","2705.08","sqft","79.44","2","2","","Darryl Audia","No","No","","212 Carpenter Ln","Pittsburgh","15212","PA","USA","40.487534","-80.02782"
"https://www.zillow.com/homedetails/133-Rampart-Blvd-New-Kensington-PA-15068/11596243_zpid/","","","169000","168800","1550","82700","07/25/2023","1311","sqft","128.91","2352.24","sqft","71.85","3","3","","Robert Strohm","No","No","","133 Rampart Blvd","New Kensington","15068","PA","USA","40.52829","-79.77492"
"https://www.zillow.com/homedetails/1410-Hidden-Timber-Dr-Pittsburgh-PA-15220/11366470_zpid/","","","165000","165300","1450","90000","07/21/2023","","","","3920.4","sqft","42.09","2","2","","Jeremy Pronto","No","No","","1410 Hidden Timber Dr","Pittsburgh","15220","PA","USA","40.44566","-80.04788"
"https://www.zillow.com/homedetails/633-Newton-Sq-Coraopolis-PA-15108/11555013_zpid/","","","205000","204800","1999","121200","07/21/2023","1360","sqft","150.74","622.91","sqft","329.1","3","3","","Laura Konecsni","No","No","","633 Newton Sq","Coraopolis","15108","PA","USA","40.542427","-80.20661"
"https://www.zillow.com/homedetails/3854-Beechwood-Blvd-Pittsburgh-PA-15217/11635227_zpid/","","","192500","192900","1870","92500","07/19/2023","","","","3397.68","sqft","56.66","3","2","","Ariel Harat","No","No","","3854 Beechwood Blvd","Pittsburgh","15217","PA","USA","40.4286","-79.93194"
"https://www.zillow.com/homedetails/1301-Timber-Trl-Imperial-PA-15126/59851015_zpid/","","","211000","211500","1500","105400","07/18/2023","","","","4356","sqft","48.44","2","2","","Sandra Toulouse","No","No","","1301 Timber Trl","Imperial","15126","PA","USA","40.44588","-80.22424"
"https://www.zillow.com/homedetails/217-Commons-Dr-Oakmont-PA-15139/11489231_zpid/","","","207000","208500","1326","93600","07/14/2023","1146","sqft","180.63","1655.28","sqft","125.05","2","2","","Lori Hummel","No","No","","217 Commons Dr","Oakmont","15139","PA","USA","40.517033","-79.824814"
"https://www.zillow.com/homedetails/631-Newton-Sq-Coraopolis-PA-15108/11555012_zpid/","","","212000","212500","2082","107300","07/14/2023","","","","531.43","sqft","398.92","3","2","","Mark Handlovitch","No","No","","631 Newton Sq","Coraopolis","15108","PA","USA","40.542423","-80.20667"
"https://www.zillow.com/homedetails/308-Redrome-Cir-W-Bridgeville-PA-15017/59857155_zpid/","","","200000","200500","1494","89100","07/14/2023","","","","1010.59","sqft","197.9","2","2","","Ryan Scialabba","No","No","","308 Redrome Cir W","Bridgeville","15017","PA","USA","40.34091","-80.123856"
"https://www.zillow.com/homedetails/1062-Ryeland-Ct-Bridgeville-PA-15017/59856287_zpid/","","","200000","200400","1800","117600","07/13/2023","1365","sqft","146.52","0.35","acres","579710.14","3","3","","Cheryl Kibe","No","No","","1062 Ryeland Ct","Bridgeville","15017","PA","USA","40.329506","-80.13255"
"https://www.zillow.com/homedetails/2629-Hawthorne-Dr-Oakdale-PA-15071/59851040_zpid/","","","191000","191400","1500","126800","07/12/2023","","","","1539","sqft","124.11","2","2","","Sheryl Florio","No","No","","2629 Hawthorne Dr","Oakdale","15071","PA","USA","40.444153","-80.21116"
"https://www.zillow.com/homedetails/211-Cranbrooke-Dr-Coraopolis-PA-15108/59846087_zpid/","","","195597","196000","1432","85200","07/11/2023","915","sqft","213.77","1184.83","sqft","165.08","2","2","","Alexandra Dugan","No","No","","211 Cranbrooke Dr","Coraopolis","15108","PA","USA","40.45583","-80.20871"
"https://www.zillow.com/homedetails/108-Rossmor-Ct-Pittsburgh-PA-15229/11406874_zpid/","","","209000","209600","1550","106800","07/10/2023","992","sqft","210.69","3441.24","sqft","60.73","2","2","","Brian Czapor","No","No","","108 Rossmor Ct","Pittsburgh","15229","PA","USA","40.510937","-80.040146"
"https://www.zillow.com/homedetails/521-Southcrest-Dr-Pittsburgh-PA-15226/11440206_zpid/","","","200000","200500","1466","104700","07/05/2023","1272","sqft","157.23","4774.18","sqft","41.89","2","2","","Dana Monaco","No","No","","521 Southcrest Dr","Pittsburgh","15226","PA","USA","40.40756","-80.01491"
"https://www.zillow.com/homedetails/1438-Hidden-Timber-Dr-Pittsburgh-PA-15220/11366477_zpid/","","","170000","170600","1462","77000","06/26/2023","1216","sqft","139.8","2308.68","sqft","73.64","2","2","","Magen Bedillion","No","No","","1438 Hidden Timber Dr","Pittsburgh","15220","PA","USA","40.446022","-80.04842"
"https://www.zillow.com/homedetails/36-New-London-Ln-Oakmont-PA-15139/11489367_zpid/","","","180000","180600","1396","100300","06/26/2023","1288","sqft","139.75","1851.3","sqft","97.23","3","2","","Linda Dibucci","No","No","","36 New London Ln","Oakmont","15139","PA","USA","40.515244","-79.827675"
"https://www.zillow.com/homedetails/928-Pittsburgh-St-North-Versailles-PA-15137/11538387_zpid/","","","163000","163700","1200","73600","06/21/2023","1214","sqft","134.27","2147.51","sqft","75.9","3","2","","Rose Stauffer","No","No","","928 Pittsburgh St","North Versailles","15137","PA","USA","40.378685","-79.80135"
"https://www.zillow.com/homedetails/320-New-World-Dr-Clairton-PA-15025/11250953_zpid/","","","179000","179800","1292","82000","06/20/2023","1035","sqft","172.95","4099","sqft","43.67","2","2","","Sandra Rodeheaver","No","No","","320 New World Dr","Clairton","15025","PA","USA","40.285393","-79.95764"
"https://www.zillow.com/homedetails/630-Deer-Watch-Rd-Bridgeville-PA-15017/59856279_zpid/","","","211000","212000","1535","100800","06/20/2023","1318","sqft","160.09","1668.35","sqft","126.47","3","2","","Matthew Gillespie","No","No","","630 Deer Watch Rd","Bridgeville","15017","PA","USA","40.328175","-80.13148"
"https://www.zillow.com/homedetails/50-Bracken-Pl-Pittsburgh-PA-15239/116178427_zpid/","","","200000","200900","2225","147100","06/19/2023","1730","sqft","115.61","1512","sqft","132.28","3","2.5","","","No","No","","50 Bracken Pl","Pittsburgh","15239","PA","USA","40.454453","-79.71788"
"https://www.zillow.com/homedetails/204-Wedgewood-Dr-Pittsburgh-PA-15227/11390745_zpid/","","","170000","170900","1578","71200","06/16/2023","","","","2029.9","sqft","83.75","3","2","","Kelly Robinson","No","No","","204 Wedgewood Dr","Pittsburgh","15227","PA","USA","40.36437","-79.96168"
"https://www.zillow.com/homedetails/503-Shady-Ridge-Dr-Monroeville-PA-15146/11535986_zpid/","","","185000","186000","1952","115100","06/16/2023","1416","sqft","130.65","4508.46","sqft","41.03","3","3","","","No","No","","503 Shady Ridge Dr","Monroeville","15146","PA","USA","40.410152","-79.804955"
"https://www.zillow.com/homedetails/3154-Camberly-Dr-Gibsonia-PA-15044/11299190_zpid/","","","185000","186000","1450","101700","06/15/2023","","","","3702.6","sqft","49.96","2","2","","Erin Berg","No","No","","3154 Camberly Dr","Gibsonia","15044","PA","USA","40.61237","-79.93313"
"https://www.zillow.com/homedetails/137-Lebeouf-Dr-New-Kensington-PA-15068/11596205_zpid/","","","165000","155500","1550","90700","06/15/2023","","","","4159.98","sqft","39.66","3","2","","Matthew McKenna","No","No","","137 Lebeouf Dr","New Kensington","15068","PA","USA","40.529427","-79.77662"
"https://www.zillow.com/homedetails/222-Scenic-Hill-Dr-Carnegie-PA-15106/62982691_zpid/","","","209000","210100","1985","125100","06/15/2023","1416","sqft","147.6","3093","sqft","67.57","3","3","","","No","No","","222 Scenic Hill Dr","Carnegie","15106","PA","USA","40.409187","-80.09506"
"https://www.zillow.com/homedetails/326-Enright-Ct-Pittsburgh-PA-15206/11624361_zpid/","","","170000","170900","1694","76700","06/14/2023","1400","sqft","121.43","18","acres","9444.44","3","1","","","No","No","","326 Enright Ct","Pittsburgh","15206","PA","USA","40.46081","-79.91786"
"https://www.zillow.com/homedetails/611-Arkwood-Dr-Bethel-Park-PA-15102/11581210_zpid/","","","179000","180200","1223","94400","06/06/2023","960","sqft","186.46","422.53","sqft","423.64","2","1","","Morgan Bardzil","No","No","","611 Arkwood Dr","Bethel Park","15102","PA","USA","40.30882","-80.06749"
"https://www.zillow.com/homedetails/111-Ligonier-Ln-New-Kensington-PA-15068/11596315_zpid/","","","162000","163200","1378","82800","06/05/2023","992","sqft","163.31","5375.3","sqft","30.14","2","2","","Jay Mosby","No","No","","111 Ligonier Ln","New Kensington","15068","PA","USA","40.527683","-79.77771"
"https://www.zillow.com/homedetails/2765-Bingham-Dr-Pittsburgh-PA-15241/11582654_zpid/","","","215000","216700","1450","115000","06/01/2023","","","","1564","sqft","137.47","2","2","","Brian Schmidt","No","No","","2765 Bingham Dr","Pittsburgh","15241","PA","USA","40.31175","-80.1072"
"https://www.zillow.com/homedetails/802-Timberglen-Dr-Imperial-PA-15126/59850500_zpid/","","","213000","215100","1564","110800","05/25/2023","1226","sqft","173.74","1846.94","sqft","115.33","3","2","","Betty Patterson","No","No","","802 Timberglen Dr","Imperial","15126","PA","USA","40.44244","-80.21723"
"https://www.zillow.com/homedetails/1202-Timber-Trl-Imperial-PA-15126/59851110_zpid/","","","215000","217200","1848","115900","05/23/2023","1464","sqft","146.86","1707.55","sqft","125.91","2","3","","Linda Diffendal","No","No","","1202 Timber Trl","Imperial","15126","PA","USA","40.44603","-80.2247"
"https://www.zillow.com/homedetails/141-Rossmor-Ct-Pittsburgh-PA-15229/11369733_zpid/","","","195000","197300","1500","100600","05/19/2023","1037","sqft","188.04","2613.6","sqft","74.61","2","2","","Richard Charles","No","No","","141 Rossmor Ct","Pittsburgh","15229","PA","USA","40.511","-80.03885"
"https://www.zillow.com/homedetails/142-Rossmor-Ct-Pittsburgh-PA-15229/11369758_zpid/","","","207100","209900","1513","102800","05/12/2023","1037","sqft","199.71","2048","sqft","101.12","2","2","","Sharon Briggs","No","No","","142 Rossmor Ct","Pittsburgh","15229","PA","USA","40.51032","-80.039276"
"https://www.zillow.com/homedetails/6317-Springhouse-Pl-Bridgeville-PA-15017/59857683_zpid/","","","169000","171600","1494","95900","05/05/2023","1014","sqft","166.67","1306.8","sqft","129.32","2","2","","Jeanne McDade","No","No","","6317 Springhouse Pl","Bridgeville","15017","PA","USA","40.325584","-80.13344"
"https://www.zillow.com/homedetails/5226-Lantern-Hill-Dr-Pittsburgh-PA-15236/11357460_zpid/","","","208000","211400","1394","102300","05/02/2023","1116","sqft","186.38","1568.16","sqft","132.64","2","2","","Nick Lloyd","No","No","","5226 Lantern Hill Dr","Pittsburgh","15236","PA","USA","40.36551","-79.999794"
"https://www.zillow.com/homedetails/6309-Springhouse-Pl-Bridgeville-PA-15017/11657715_zpid/","","","165000","167900","1494","97100","04/28/2023","","","","1672.7","sqft","98.64","2","2","","Joe Corsale","No","No","","6309 Springhouse Pl","Bridgeville","15017","PA","USA","40.32541","-80.133415"
"https://www.zillow.com/homedetails/1434-Hidden-Timber-Dr-Pittsburgh-PA-15220/11366476_zpid/","","","175000","178300","1395","75000","04/25/2023","1216","sqft","143.91","1742.4","sqft","100.44","2","2","","Jeremy Pronto","No","No","","1434 Hidden Timber Dr","Pittsburgh","15220","PA","USA","40.445965","-80.04835"
"https://www.zillow.com/homedetails/1516-Spruce-St-Cheswick-PA-15024/11564494_zpid/","","","173000","176800","1300","89900","04/21/2023","1265","sqft","136.76","3310.56","sqft","52.26","2","2","","Barbara Bolls","No","No","","1516 Spruce St","Cheswick","15024","PA","USA","40.54237","-79.798164"
"https://www.zillow.com/homedetails/6-New-London-Ln-Oakmont-PA-15139/11489276_zpid/","","","192000","195800","1409","93900","04/19/2023","1288","sqft","149.07","1950","sqft","98.46","2","1.5","","","No","No","","6 New London Ln","Oakmont","15139","PA","USA","40.51633","-79.82722"
"https://www.zillow.com/homedetails/902-Timberglen-Dr-Imperial-PA-15126/59850769_zpid/","","","170000","174000","1550","112000","04/17/2023","1326","sqft","128.21","1790","sqft","94.97","2","1.5","","","No","No","","902 Timberglen Dr","Imperial","15126","PA","USA","40.44226","-80.217766"
"https://www.zillow.com/homedetails/2547-Hunting-Ridge-Trl-Bridgeville-PA-15017/59856589_zpid/","","","190501","194400","1599","102600","04/17/2023","1311","sqft","145.31","1450.55","sqft","131.33","3","2","","Barbara Baker","No","No","","2547 Hunting Ridge Trl","Bridgeville","15017","PA","USA","40.325066","-80.12312"
"https://www.zillow.com/homedetails/215-Schenley-Manor-Dr-Pittsburgh-PA-15201/11615953_zpid/","","","193000","197100","1685","78300","04/14/2023","1196","sqft","161.37","3219.08","sqft","59.95","3","1","","Mary Hester","No","No","","215 Schenley Manor Dr","Pittsburgh","15201","PA","USA","40.475018","-79.936775"
"https://www.zillow.com/homedetails/134-Rossmor-Ct-Pittsburgh-PA-15229/11369763_zpid/","","","201000","206000","1550","110600","04/10/2023","","","","4791.6","sqft","41.95","2","2","","Jeremy Pronto","No","No","","134 Rossmor Ct","Pittsburgh","15229","PA","USA","40.51052","-80.03927"
"https://www.zillow.com/homedetails/952-Twin-Leaf-Ct-Bethel-Park-PA-15102/11608955_zpid/","","","195000","200100","1747","120100","04/06/2023","1272","sqft","153.3","1341.65","sqft","145.34","2","3","","Jodi Lesniakowski","No","No","","952 Twin Leaf Ct","Bethel Park","15102","PA","USA","40.298065","-80.05348"
"https://www.zillow.com/homedetails/107-Springwater-Ct-Coraopolis-PA-15108/11256556_zpid/","","","166500","170900","1966","132200","04/05/2023","1508","sqft","110.41","5.4","acres","30816.3","3","4","","","No","No","","107 Springwater Ct","Coraopolis","15108","PA","USA","40.532608","-80.26673"
"https://www.zillow.com/homedetails/422-Maxwell-St-Pittsburgh-PA-15205/11584534_zpid/","","","162100","220400","1614","92600","04/05/2023","","","","3271.36","sqft","49.55","3","2","","Maureen States","No","No","","422 Maxwell St","Pittsburgh","15205","PA","USA","40.44115","-80.07769"
"https://www.zillow.com/homedetails/412-Lockhart-St-Pittsburgh-PA-15212/11640313_zpid/","","","175000","179200","1788","128900","04/05/2023","1340","sqft","130.6","1203","sqft","145.47","2","1.5","","","No","No","","412 Lockhart St","Pittsburgh","15212","PA","USA","40.45243","-80.000824"
"https://www.zillow.com/homedetails/44-Shadow-Dr-Pittsburgh-PA-15227/11355056_zpid/","","","170000","174200","1366","94300","04/03/2023","","","","1250.17","sqft","135.98","2","2","","Georgie Smigel","No","No","","44 Shadow Dr","Pittsburgh","15227","PA","USA","40.372147","-79.99358"
"https://www.zillow.com/homedetails/161-Old-Village-Ln-Bethel-Park-PA-15102/11607621_zpid/","","","192000","196800","1379","116800","04/03/2023","1148","sqft","167.25","1785.96","sqft","107.51","3","2","","Michael Lingg","No","No","","161 Old Village Ln","Bethel Park","15102","PA","USA","40.30481","-80.043"
"https://www.zillow.com/homedetails/187-Mountain-Dr-Carnegie-PA-15106/72260939_zpid/","","","206926","247300","1994","131800","04/03/2023","1440","sqft","143.7","3666","sqft","56.44","3","2.5","","","No","No","","187 Mountain Dr","Carnegie","15106","PA","USA","40.412365","-80.09839"
"https://www.zillow.com/homedetails/5034-Lea-Dr-Cheswick-PA-15024/87995411_zpid/","","","205000","210600","2100","144200","04/03/2023","1416","sqft","144.77","4301","sqft","47.66","3","3","","","No","No","","5034 Lea Dr","Cheswick","15024","PA","USA","40.587536","-79.82314"
"https://www.zillow.com/homedetails/49-Bracken-Pl-Pittsburgh-PA-15239/116178941_zpid/","","","200000","205500","2225","161200","04/03/2023","1750","sqft","114.29","1400","sqft","142.86","3","2.5","","","No","No","","49 Bracken Pl","Pittsburgh","15239","PA","USA","40.45449","-79.71781"
"https://www.zillow.com/homedetails/5132-Daube-Dr-Pittsburgh-PA-15236/11393906_zpid/","","","210000","215400","1800","118900","03/31/2023","1312","sqft","160.06","2178","sqft","96.42","2","3","","Gina Fonzi","No","No","","5132 Daube Dr","Pittsburgh","15236","PA","USA","40.35948","-80.00616"
"https://www.zillow.com/homedetails/324-Woodbridge-Dr-Pittsburgh-PA-15237/11409676_zpid/","","","192000","197100","1962","115400","03/29/2023","1407","sqft","136.46","","","","3","2","","Michelle Bushee","No","No","","324 Woodbridge Dr","Pittsburgh","15237","PA","USA","40.51556","-79.98962"
"https://www.zillow.com/homedetails/5167-Carnegie-St-Pittsburgh-PA-15201/11612194_zpid/","","","187000","192000","1914","45000","03/29/2023","1400","sqft","133.57","1760","sqft","106.25","3","2","","","No","No","","5167 Carnegie St","Pittsburgh","15201","PA","USA","40.47975","-79.954"
"https://www.zillow.com/homedetails/509-Newport-Dr-Pittsburgh-PA-15235/11493398_zpid/","","","205000","210500","2540","126800","03/28/2023","2050","sqft","100","","","","2","3","","Daniel Ridley","No","No","","509 Newport Dr","Pittsburgh","15235","PA","USA","40.45653","-79.82856"
"https://www.zillow.com/homedetails/105-Crosswinds-Ln-Murrysville-PA-15668/10684420_zpid/","","","207000","210400","1599","26570","03/24/2023","","","","","","","2","3","","Bonnie Heinecke","No","No","","105 Crosswinds Ln","Murrysville","15668","PA","USA","40.43261","-79.704315"
"https://www.zillow.com/homedetails/105-Duquesne-Blvd-New-Kensington-PA-15068/11596263_zpid/","","","162000","166500","1790","85100","03/24/2023","1249","sqft","129.7","1528.96","sqft","105.95","3","3","","Barbara Bolls","No","No","","105 Duquesne Blvd","New Kensington","15068","PA","USA","40.52781","-79.77585"
"https://www.zillow.com/homedetails/90-Fischer-Ave-Pittsburgh-PA-15223/87986156_zpid/","","","165000","169600","1500","74100","03/24/2023","1040","sqft","158.65","4660.92","sqft","35.4","2","2","","Alexis Pollock","No","No","","90 Fischer Ave","Pittsburgh","15223","PA","USA","40.510498","-79.95393"
"https://www.zillow.com/homedetails/2528-Hawthorne-Dr-Oakdale-PA-15071/59850799_zpid/","","","200000","206300","1594","108100","03/23/2023","1302","sqft","153.61","2073.46","sqft","96.46","3","2","","Alyssa Costantino","No","No","","2528 Hawthorne Dr","Oakdale","15071","PA","USA","40.446156","-80.21013"
"https://www.zillow.com/homedetails/61-New-London-Ln-Oakmont-PA-15139/11489439_zpid/","","","178000","183100","1425","112000","03/22/2023","1288","sqft","138.2","1955.84","sqft","91.01","2","2","","Melissa Blazer","No","No","","61 New London Ln","Oakmont","15139","PA","USA","40.51457","-79.827644"
"https://www.zillow.com/homedetails/46-Bracken-Pl-Pittsburgh-PA-15239/87992620_zpid/","","","215000","221300","2199","149300","03/21/2023","1750","sqft","122.86","1385","sqft","155.23","3","2.5","","","No","No","","46 Bracken Pl","Pittsburgh","15239","PA","USA","40.454544","-79.7175"
"https://www.zillow.com/homedetails/133-Boroview-Ave-Carnegie-PA-15106/11254351_zpid/","","","170000","237100","1314","68000","03/20/2023","2256","sqft","75.35","4960","sqft","34.27","2","1.5","","","No","No","","133 Boroview Ave","Carnegie","15106","PA","USA","40.400806","-80.08951"
"https://www.zillow.com/homedetails/133-Spruce-Ct-Pittsburgh-PA-15229/11369703_zpid/","","","200000","207200","1500","106200","03/03/2023","1100","sqft","181.82","1655.28","sqft","120.83","2","2","","Ted Block","No","No","","133 Spruce Ct","Pittsburgh","15229","PA","USA","40.51065","-80.04338"
"https://www.zillow.com/homedetails/310-Wildflower-Ct-Pittsburgh-PA-15202/11369994_zpid/","","","206000","213500","2100","127600","03/03/2023","1474","sqft","139.76","1742.4","sqft","118.23","3","3","","Megan Grenek","No","No","","310 Wildflower Ct","Pittsburgh","15202","PA","USA","40.50288","-80.04431"
"https://www.zillow.com/homedetails/162-Olde-Orchard-Dr-Bridgeville-PA-15017/59857238_zpid/","","","173500","179800","1450","92100","03/03/2023","930","sqft","186.56","1089","sqft","159.32","2","2","","Susan Accetta","No","No","","162 Olde Orchard Dr","Bridgeville","15017","PA","USA","40.341045","-80.122154"
"https://www.zillow.com/homedetails/404-Chandler-Pl-Pittsburgh-PA-15212/11269992_zpid/","","","210000","217800","1500","83500","03/01/2023","984","sqft","213.41","4420","sqft","47.51","2","2","","Diana McKay","No","No","","404 Chandler Pl","Pittsburgh","15212","PA","USA","40.485832","-80.02707"
"https://www.zillow.com/homedetails/104-Springwater-Ct-Coraopolis-PA-15108/11256553_zpid/","","","170000","176600","1999","132100","02/24/2023","","","","","","","3","4","","Michael Bassilios","No","No","","104 Springwater Ct","Coraopolis","15108","PA","USA","40.531654","-80.26911"
"https://www.zillow.com/homedetails/2413-Brook-Ledge-Rd-Bridgeville-PA-15017/59856654_zpid/","","","190000","197800","1615","129400","02/14/2023","1269","sqft","149.72","1171","sqft","162.25","3","2","","","No","No","","2413 Brook Ledge Rd","Bridgeville","15017","PA","USA","40.324905","-80.11965"
"https://www.zillow.com/homedetails/2413-Brook-Ledge-Rd-S-Bridgeville-PA-15017/2060903200_zpid/","","","190000","","1444","","02/10/2023","1269","sqft","149.72","1132.56","sqft","167.76","3","2","","Lynn Dempsey","No","No","","2413 Brook Ledge Rd S","Bridgeville","15017","PA","USA","",""
"https://www.zillow.com/homedetails/321-Karen-Ct-Monroeville-PA-15146/11600850_zpid/","","","173000","180200","2199","143400","02/08/2023","1828","sqft","94.64","2374.02","sqft","72.87","2","3","","Lisa Haberstroh","No","No","","321 Karen Ct","Monroeville","15146","PA","USA","40.44008","-79.77519"
"https://www.zillow.com/homedetails/111-5th-Ave-West-Mifflin-PA-15122/11349024_zpid/","","","200000","208400","964","128600","02/07/2023","650","sqft","307.69","8000","sqft","25","1","1","","","No","No","","111 5th Ave","West Mifflin","15122","PA","USA","40.38738","-79.88463"
"https://www.zillow.com/homedetails/107-Shadowlawn-Dr-Pittsburgh-PA-15236/11354893_zpid/","","","165000","172000","1366","96600","02/06/2023","992","sqft","166.33","1071.58","sqft","153.98","2","2","","Victoria Angiolini","No","No","","107 Shadowlawn Dr","Pittsburgh","15236","PA","USA","40.371086","-79.99653"
"https://www.zillow.com/homedetails/419-Shady-Ridge-Dr-Monroeville-PA-15146/11535977_zpid/","","","186475","194700","2064","116100","02/02/2023","1464","sqft","127.37","5118.3","sqft","36.43","3","4","","Andrew Griffin","No","No","","419 Shady Ridge Dr","Monroeville","15146","PA","USA","40.410053","-79.80655"
"https://www.zillow.com/homedetails/1700-Parsonage-Ln-Bethel-Park-PA-15102/11639034_zpid/","","","195000","203600","1625","117000","02/02/2023","1518","sqft","128.46","","","","3","3","","DJ Fairley","No","No","","1700 Parsonage Ln","Bethel Park","15102","PA","USA","40.29314","-80.04063"
"https://www.zillow.com/homedetails/1605-Harewood-Sq-Wexford-PA-15090/11258448_zpid/","","","177500","185400","1664","129100","01/31/2023","1224","sqft","145.02","1149.98","sqft","154.35","2","2","","Jacqueline Bohdan","No","No","","1605 Harewood Sq","Wexford","15090","PA","USA","40.589542","-80.03353"
"https://www.zillow.com/homedetails/305-Canterbury-Ct-Oakmont-PA-15139/11489373_zpid/","","","170000","177600","1581","125000","01/30/2023","1288","sqft","131.99","2186.71","sqft","77.74","3","2","","Lori Hummel","No","No","","305 Canterbury Ct","Oakmont","15139","PA","USA","40.51498","-79.82733"
"https://www.zillow.com/homedetails/110-Jamestown-Ct-Pittsburgh-PA-15216/59836117_zpid/","","","175000","182800","1498","108800","01/30/2023","","","","","","","2","2","","Ronald Graf","No","No","","110 Jamestown Ct","Pittsburgh","15216","PA","USA","40.39295","-80.05693"
"https://www.zillow.com/homedetails/45-Shadow-Dr-Pittsburgh-PA-15227/11355012_zpid/","","","167000","174600","1379","88900","01/27/2023","","","","1149.98","sqft","145.22","2","2","","Susan Cancelliere","No","No","","45 Shadow Dr","Pittsburgh","15227","PA","USA","40.37201","-79.99323"
"https://www.zillow.com/homedetails/233-Heather-Dr-Monroeville-PA-15146/11600701_zpid/","","","165000","172600","1924","116000","01/25/2023","1559","sqft","105.84","87.12","sqft","1893.94","2","3","","Kurt Thompson","No","No","","233 Heather Dr","Monroeville","15146","PA","USA","40.441494","-79.77775"
"https://www.zillow.com/homedetails/1106-Countryside-Dr-Mc-Kees-Rocks-PA-15136/11365314_zpid/","","","177500","185700","1500","147000","01/23/2023","","","","823.28","sqft","215.6","3","2","","Georgie Smigel","No","No","","1106 Countryside Dr","Mc Kees Rocks","15136","PA","USA","40.456493","-80.13153"
"https://www.zillow.com/homedetails/2533-Hunting-Ridge-Trl-Bridgeville-PA-15017/59856596_zpid/","","","172000","179900","1749","115800","01/23/2023","1311","sqft","131.2","1703.2","sqft","100.99","3","3","","Dana DeMarino","No","No","","2533 Hunting Ridge Trl","Bridgeville","15017","PA","USA","40.325466","-80.12312"
"https://www.zillow.com/homedetails/143-Rossmor-Ct-Pittsburgh-PA-15229/11369734_zpid/","","","182500","191000","1514","107400","01/20/2023","1037","sqft","175.99","3179.88","sqft","57.39","2","2","","Trish Cloonan","No","No","","143 Rossmor Ct","Pittsburgh","15229","PA","USA","40.510986","-80.038795"
"https://www.zillow.com/homedetails/13-13-Bethany-Dr-A-Pittsburgh-PA-15215/2062151845_zpid/","","","185000","","1631","","01/18/2023","","","","3049.2","sqft","60.67","2","2","","Lynn Niman","No","No","# A","13-13 Bethany Dr #A","Pittsburgh","15215","PA","USA","",""
"https://www.zillow.com/homedetails/2571-Hawthorne-Dr-Oakdale-PA-15071/59850914_zpid/","","","175000","183500","1494","104100","01/17/2023","990","sqft","176.77","1283","sqft","136.4","2","1.5","","","No","No","","2571 Hawthorne Dr","Oakdale","15071","PA","USA","40.44615","-80.21091"
"https://www.zillow.com/homedetails/663-Woodcrest-Dr-Pittsburgh-PA-15205/11256811_zpid/","","","207500","217500","1599","150000","01/13/2023","1940","sqft","106.96","4356","sqft","47.64","2","3","","James Schons","No","No","","663 Woodcrest Dr","Pittsburgh","15205","PA","USA","40.430473","-80.094315"
"https://www.zillow.com/homedetails/2571-Hawthorne-Dr-N-Oakdale-PA-15071/2060482313_zpid/","","","175000","","1616","","01/11/2023","990","sqft","176.77","1285.02","sqft","136.18","2","2","","Stefani Jazudek","No","No","","2571 Hawthorne Dr N","Oakdale","15071","PA","USA","",""
"https://www.zillow.com/homedetails/101-Palace-Ct-Pittsburgh-PA-15227/11302791_zpid/","","","195000","204600","1395","98000","01/09/2023","","","","1045.44","sqft","186.52","2","2","","Tracy Artman","No","No","","101 Palace Ct","Pittsburgh","15227","PA","USA","40.384186","-79.96119"
"https://www.zillow.com/homedetails/189-London-Towne-Dr-Pittsburgh-PA-15226/11440083_zpid/","","","200000","209900","1529","110700","01/06/2023","1440","sqft","138.89","1463","sqft","136.71","2","2","","","No","No","","189 London Towne Dr","Pittsburgh","15226","PA","USA","40.410908","-80.0099"
"https://www.zillow.com/homedetails/205-Old-Ridge-Rd-Coraopolis-PA-15108/59846022_zpid/","","","161500","169600","1535","86200","01/04/2023","1280","sqft","126.17","1838.23","sqft","87.86","3","2","","Dan Geller","No","No","","205 Old Ridge Rd","Coraopolis","15108","PA","USA","40.4568","-80.209984"
"https://www.zillow.com/homedetails/4331-Hemlock-Cir-Allison-Park-PA-15101/11619157_zpid/","","","210000","220700","1614","112000","12/30/2022","1408","sqft","149.15","2082.17","sqft","100.86","2","2","","Roger Rech","No","No","","4331 Hemlock Cir","Allison Park","15101","PA","USA","40.577293","-79.97828"
"https://www.zillow.com/homedetails/425-Redrome-Cir-E-Bridgeville-PA-15017/59857201_zpid/","","","172000","180800","1450","92000","12/30/2022","930","sqft","184.95","1020","sqft","168.63","2","2","","","No","No","","425 Redrome Cir E","Bridgeville","15017","PA","USA","40.341263","-80.12298"
"https://www.zillow.com/homedetails/335-Woodbridge-Dr-Pittsburgh-PA-15237/11409734_zpid/","","","215000","226000","1847","117800","12/29/2022","1340","sqft","160.45","901.69","sqft","238.44","3","2","","Diane Bureman","No","No","","335 Woodbridge Dr","Pittsburgh","15237","PA","USA","40.51558","-79.988525"
"https://www.zillow.com/homedetails/425-Redrome-Cir-Bridgeville-PA-15017/2060720566_zpid/","","","172000","","1481","","12/29/2022","","","","1019.3","sqft","168.74","2","2","","Lisa McLaughlin","No","No","","425 Redrome Cir","Bridgeville","15017","PA","USA","",""
"https://www.zillow.com/homedetails/109-Pennwood-Ave-Pittsburgh-PA-15218/11343802_zpid/","","","199900","210100","1270","98800","12/28/2022","966","sqft","206.94","1668.35","sqft","119.82","2","2","","Mark Panichella","No","No","","109 Pennwood Ave","Pittsburgh","15218","PA","USA","40.433105","-79.88542"
"https://www.zillow.com/homedetails/400-Allenberry-Dr-Pittsburgh-PA-15237/11409678_zpid/","","","199900","210100","1995","117400","12/28/2022","1474","sqft","135.62","","","","3","2","","Vince Schmidt","No","No","","400 Allenberry Dr","Pittsburgh","15237","PA","USA","40.51578","-79.98896"
"https://www.zillow.com/homedetails/82-Escalon-Dr-Coraopolis-PA-15108/11657117_zpid/","","","188000","197800","1500","97500","12/22/2022","1226","sqft","153.34","2391.44","sqft","78.61","3","2","","Lindsey Callender","No","No","","82 Escalon Dr","Coraopolis","15108","PA","USA","40.457806","-80.20858"
"https://www.zillow.com/homedetails/634-Deer-Watch-Rd-Bridgeville-PA-15017/59856248_zpid/","","","190000","199900","1580","106600","12/22/2022","1318","sqft","144.16","1703.2","sqft","111.55","3","2","","Nicole Putignano","No","No","","634 Deer Watch Rd","Bridgeville","15017","PA","USA","40.32828","-80.131454"
"https://www.zillow.com/homedetails/702-Arkwood-Dr-Bethel-Park-PA-15102/11581229_zpid/","","","188900","198700","1450","97900","12/21/2022","1150","sqft","164.26","","","","2","2","","Krista Lorenzo","No","No","","702 Arkwood Dr","Bethel Park","15102","PA","USA","40.308353","-80.0678"
"https://www.zillow.com/homedetails/13-New-London-Ln-Oakmont-PA-15139/11489450_zpid/","","","180000","189400","1414","124100","12/19/2022","1288","sqft","139.75","2173.64","sqft","82.81","2","2","","Stephanie Wanamaker","No","No","","13 New London Ln","Oakmont","15139","PA","USA","40.516216","-79.82781"
"https://www.zillow.com/homedetails/603-Bayberry-Ln-Imperial-PA-15126/59850275_zpid/","","","179900","189400","1440","106600","12/16/2022","930","sqft","193.44","1062.86","sqft","169.26","2","2","","Jennifer Tylenda","No","No","","603 Bayberry Ln","Imperial","15126","PA","USA","40.44257","-80.22202"
"https://www.zillow.com/homedetails/1620-Beechwood-Blvd-APT-1-Pittsburgh-PA-15217/11631268_zpid/","","","205000","215800","2100","154600","12/15/2022","1632","sqft","125.61","1599","sqft","128.21","3","1","","","No","No","Apt 1","1620 Beechwood Blvd APT 1","Pittsburgh","15217","PA","USA","40.43997","-79.91728"
"https://www.zillow.com/homedetails/1620-Beechwood-Blvd-Pittsburgh-PA-15217/2080453087_zpid/","","","205000","464800","2039","","12/14/2022","1632","sqft","125.61","","","","3","1","","","No","No","","1620 Beechwood Blvd","Pittsburgh","15217","PA","USA","40.43997","-79.91728"
"https://www.zillow.com/homedetails/156-Rossmor-Ct-Pittsburgh-PA-15229/11369751_zpid/","","","210000","221100","1498","102200","12/13/2022","1037","sqft","202.51","1520","sqft","138.16","2","1.5","","","No","No","","156 Rossmor Ct","Pittsburgh","15229","PA","USA","40.509914","-80.03896"
"https://www.zillow.com/homedetails/107-Cobbler-Cir-Pittsburgh-PA-15212/11269800_zpid/","","","214900","226300","2500","134700","12/12/2022","1747","sqft","123.01","3680.82","sqft","58.38","3","3","","Karen Minnitte","No","No","","107 Cobbler Cir","Pittsburgh","15212","PA","USA","40.487057","-80.02865"
"https://www.zillow.com/homedetails/325-Carters-Grove-Dr-Gibsonia-PA-15044/11318161_zpid/","","","200000","210600","1450","113600","12/12/2022","1314","sqft","152.21","1216","sqft","164.47","2","1.5","","","No","No","","325 Carters Grove Dr","Gibsonia","15044","PA","USA","40.6188","-79.9267"
"https://www.zillow.com/homedetails/22-Hennig-Dr-Pittsburgh-PA-15236/11357447_zpid/","","","167000","175900","1350","113600","12/12/2022","900","sqft","185.56","352.84","sqft","473.31","2","2","","Stacie Williams","No","No","","22 Hennig Dr","Pittsburgh","15236","PA","USA","40.365555","-80.0011"
"https://www.zillow.com/homedetails/1845-Bedford-Ave-Pittsburgh-PA-15219/11659478_zpid/","","","166000","238800","1805","116400","12/12/2022","1178","sqft","140.92","2499","sqft","66.43","3","1.5","","","No","No","","1845 Bedford Ave","Pittsburgh","15219","PA","USA","40.44612","-79.98395"
"https://www.zillow.com/homedetails/116-Meadow-Gap-Dr-Monroeville-PA-15146/11536163_zpid/","","","183000","222100","1794","102600","12/09/2022","1320","sqft","138.64","7209.18","sqft","25.38","3","3","","Frank Amato","No","No","","116 Meadow Gap Dr","Monroeville","15146","PA","USA","40.40893","-79.804985"
"https://www.zillow.com/homedetails/5532-Darlington-Rd-Pittsburgh-PA-15217/11631373_zpid/","","","200000","385400","2199","197600","12/07/2022","1979","sqft","101.06","4051.08","sqft","49.37","5","2","","Joe Larkin","No","No","","5532 Darlington Rd","Pittsburgh","15217","PA","USA","40.43642","-79.92928"
"https://www.zillow.com/homedetails/47-Bracken-Pl-Pittsburgh-PA-15239/87990002_zpid/","","","210000","221500","2206","150400","12/06/2022","1750","sqft","120","1385","sqft","151.62","3","2.5","","","No","No","","47 Bracken Pl","Pittsburgh","15239","PA","USA","40.45451","-79.71757"
"https://www.zillow.com/homedetails/1321-Buckskin-Trl-Bethel-Park-PA-15102/11639001_zpid/","","","195000","205600","1792","108600","12/02/2022","1320","sqft","147.73","5.4","acres","36077.83","3","2","","","No","No","","1321 Buckskin Trl","Bethel Park","15102","PA","USA","40.292877","-80.04217"
"https://www.zillow.com/homedetails/3130-Laurel-Ridge-Cir-Bridgeville-PA-15017/59856955_zpid/","","","200000","210900","1599","137900","12/02/2022","1296","sqft","154.32","1698.84","sqft","117.73","3","2","","Ralph Harvey","No","No","","3130 Laurel Ridge Cir","Bridgeville","15017","PA","USA","40.33031","-80.12268"
"https://www.zillow.com/homedetails/104-Sonnybrook-Ct-Bethel-Park-PA-15102/11508779_zpid/","","","195000","205600","1958","117600","12/01/2022","","","","","","","3","3","","Janet Caputo","No","No","","104 Sonnybrook Ct","Bethel Park","15102","PA","USA","40.329647","-80.02668"
"https://www.zillow.com/homedetails/101-Springwater-Ct-Coraopolis-PA-15108/11256550_zpid/","","","165000","174000","1616","132100","11/30/2022","2008","sqft","82.17","","","","3","4","","Jeremy Pronto","No","No","","101 Springwater Ct","Coraopolis","15108","PA","USA","40.531784","-80.26894"
"https://www.zillow.com/homedetails/228-Commons-Dr-Oakmont-PA-15139/11489327_zpid/","","","210000","221500","1594","135800","11/30/2022","1448","sqft","145.03","2090.88","sqft","100.44","3","2","","Lee Blystone","No","No","","228 Commons Dr","Oakmont","15139","PA","USA","40.5167","-79.82416"
"https://www.zillow.com/homedetails/174-Jamestown-Dr-Pittsburgh-PA-15216/59836129_zpid/","","","206500","217800","1685","137000","11/30/2022","","","","","","","3","3","","Nancy Donahue","No","No","","174 Jamestown Dr","Pittsburgh","15216","PA","USA","40.393326","-80.05784"
"https://www.zillow.com/homedetails/311-Hamlet-Ct-Pittsburgh-PA-15227/59835659_zpid/","","","180000","189800","1410","93500","11/29/2022","","","","1045.44","sqft","172.18","2","2","","Arthur Evans","No","No","","311 Hamlet Ct","Pittsburgh","15227","PA","USA","40.385406","-79.963"
"https://www.zillow.com/homedetails/1555-Pineview-Dr-Pittsburgh-PA-15241/11434246_zpid/","","","200000","210900","2470","162500","11/28/2022","1912","sqft","104.6","4.54","acres","44082.15","2","2.5","","","No","No","","1555 Pineview Dr","Pittsburgh","15241","PA","USA","40.346916","-80.08493"
"https://www.zillow.com/homedetails/3224-Camberly-Dr-Gibsonia-PA-15044/11298991_zpid/","","","162000","170900","1464","101400","11/23/2022","1064","sqft","152.26","5697","sqft","28.44","2","2","","","No","No","","3224 Camberly Dr","Gibsonia","15044","PA","USA","40.613377","-79.93269"
"https://www.zillow.com/homedetails/417-Elm-Dr-Oakdale-PA-15071/59850602_zpid/","","","182500","192500","1450","100700","11/23/2022","981","sqft","186.03","1611.72","sqft","113.23","2","3","","Kathryn Pfister","No","No","","417 Elm Dr","Oakdale","15071","PA","USA","40.444973","-80.20948"
"https://www.zillow.com/homedetails/108-Old-English-Rd-Pittsburgh-PA-15237/11557765_zpid/","","","204000","215200","1862","127100","11/22/2022","1332","sqft","153.15","3219.08","sqft","63.37","3","2","","Leah Steigerwald","No","No","","108 Old English Rd","Pittsburgh","15237","PA","USA","40.550823","-80.05736"
"https://www.zillow.com/homedetails/151-Westbrooke-Ln-Coraopolis-PA-15108/59846508_zpid/","","","193000","205700","1500","110000","11/22/2022","1122","sqft","172.01","1960.2","sqft","98.46","2","2","","Heather Romanelli","No","No","","151 Westbrooke Ln","Coraopolis","15108","PA","USA","40.45477","-80.20785"
"https://www.zillow.com/homedetails/1502-Timberglen-Dr-Imperial-PA-15126/59850988_zpid/","","","210000","244600","1958","139300","11/22/2022","1464","sqft","143.44","1645","sqft","127.66","3","4","","","No","No","","1502 Timberglen Dr","Imperial","15126","PA","USA","40.443565","-80.21761"
"https://www.zillow.com/homedetails/1311-Harewood-Sq-Wexford-PA-15090/11258427_zpid/","","","208000","219500","1749","134300","11/21/2022","1320","sqft","157.58","1189.19","sqft","174.91","2","2","","Nancy Evans","No","No","","1311 Harewood Sq","Wexford","15090","PA","USA","40.58963","-80.03407"
"https://www.zillow.com/homedetails/436-Country-View-Ct-Pittsburgh-PA-15205/11318629_zpid/","","","169900","179300","1381","92200","11/21/2022","1120","sqft","151.7","","","","2","2","","Robin Ross","No","No","","436 Country View Ct","Pittsburgh","15205","PA","USA","40.430008","-80.10024"
"https://www.zillow.com/homedetails/816-Wheatland-Cir-Bridgeville-PA-15017/59856544_zpid/","","","210000","221600","1500","104500","11/21/2022","1188","sqft","176.77","1738.04","sqft","120.83","3","2","","Ed Pockl","No","No","","816 Wheatland Cir","Bridgeville","15017","PA","USA","40.329","-80.13413"
"https://www.zillow.com/homedetails/2905-Big-Meadow-Ct-Bridgeville-PA-15017/59857040_zpid/","","","181000","191000","1749","109100","11/21/2022","1260","sqft","143.65","1306.8","sqft","138.51","3","3","","Ruth Weigers","No","No","","2905 Big Meadow Ct","Bridgeville","15017","PA","USA","40.32678","-80.12267"
"https://www.zillow.com/homedetails/2862-Beechwood-Blvd-Pittsburgh-PA-15217/11639773_zpid/","","","165000","221100","1254","101600","11/18/2022","936","sqft","176.28","2199.78","sqft","75.01","2","1","","Cindy Ingram","No","No","","2862 Beechwood Blvd","Pittsburgh","15217","PA","USA","40.42305","-79.92002"
"https://www.zillow.com/homedetails/186-Cambria-Hill-Dr-Tarentum-PA-15084/49941561_zpid/","","","212000","223800","1363","119700","11/16/2022","1699","sqft","124.78","6991.38","sqft","30.32","2","2","","Frank Amato","No","No","","186 Cambria Hill Dr","Tarentum","15084","PA","USA","40.573765","-79.78123"
"https://www.zillow.com/homedetails/104-Westbrooke-Ln-Coraopolis-PA-15108/59846488_zpid/","","","185000","218100","1494","131500","11/16/2022","1172","sqft","157.85","1690.13","sqft","109.46","2","2","","Denise Serbin","No","No","","104 Westbrooke Ln","Coraopolis","15108","PA","USA","40.455566","-80.2097"
"https://www.zillow.com/homedetails/304-1-2-West-St-Pittsburgh-PA-15221/11342419_zpid/","","","189500","200000","1668","101500","11/14/2022","1080","sqft","175.46","2591.82","sqft","73.11","3","2","","Adam Hoppel","No","No","","304 1/2 West St","Pittsburgh","15221","PA","USA","40.43911","-79.89099"
"https://www.zillow.com/homedetails/569-Newport-Dr-Pittsburgh-PA-15235/11493595_zpid/","","","200000","211100","1466","131800","11/14/2022","1625","sqft","123.08","","sqft","","3","3","","Robert Giancola","No","No","","569 Newport Dr","Pittsburgh","15235","PA","USA","40.455273","-79.82979"
"https://www.zillow.com/homedetails/2733-Bingham-Dr-Pittsburgh-PA-15241/11582561_zpid/","","","200000","211100","1599","117000","11/14/2022","1056","sqft","189.39","1563.8","sqft","127.89","2","2","","Mike Abney","No","No","","2733 Bingham Dr","Pittsburgh","15241","PA","USA","40.31226","-80.10718"
"https://www.zillow.com/homedetails/1502-Timberglen-Dr-1502-Imperial-PA-15126/2061565537_zpid/","","","210000","","1645","","11/14/2022","1464","sqft","143.44","1646.57","sqft","127.54","3","4","","Johnny Lounder","No","No","# 1502","1502 Timberglen Dr #1502","Imperial","15126","PA","USA","",""
"https://www.zillow.com/homedetails/12-Gloucester-Ct-Oakmont-PA-15139/11489420_zpid/","","","180000","190000","1429","103100","11/10/2022","1288","sqft","139.75","1807.74","sqft","99.57","2","2","","Andrea McIntosh","No","No","","12 Gloucester Ct","Oakmont","15139","PA","USA","40.516068","-79.82522"
"https://www.zillow.com/homedetails/2645-Hawthorne-Dr-Oakdale-PA-15071/59851087_zpid/","","","200000","211200","1500","124600","11/07/2022","1122","sqft","178.25","1346","sqft","148.59","2","2","","Heather Edmondson","No","No","","2645 Hawthorne Dr","Oakdale","15071","PA","USA","40.44365","-80.21109"
"https://www.zillow.com/homedetails/905-Westchester-Dr-Wexford-PA-15090/11258642_zpid/","","","213000","227100","1814","121300","11/04/2022","1088","sqft","195.77","1088","sqft","195.77","2","2","","Jennifer Solomon","No","No","","905 Westchester Dr","Wexford","15090","PA","USA","40.59121","-80.032745"
"https://www.zillow.com/homedetails/552-Beech-Ct-Pittsburgh-PA-15237/11522793_zpid/","","","178000","188000","1800","137400","11/04/2022","1464","sqft","121.58","705.67","sqft","252.24","2","2","","Zachary Restelli","No","No","","552 Beech Ct","Pittsburgh","15237","PA","USA","40.54529","-80.02109"
"https://www.zillow.com/homedetails/319-S-Birmingham-Ave-Pittsburgh-PA-15202/11368831_zpid/","","","187000","188300","1094","45000","11/03/2022","","","","1568.16","sqft","119.25","2","2","","Nicole Blinov","No","No","","319 S Birmingham Ave","Pittsburgh","15202","PA","USA","40.50167","-80.06955"
"https://www.zillow.com/homedetails/733-Windvue-Dr-Pittsburgh-PA-15205/11256856_zpid/","","","215000","227100","1708","153100","11/02/2022","1456","sqft","147.66","","","","2","2","","Evan Krahe","No","No","","733 Windvue Dr","Pittsburgh","15205","PA","USA","40.430565","-80.093285"
"https://www.zillow.com/homedetails/653-Robinwood-Dr-Pittsburgh-PA-15216/59836182_zpid/","","","195000","206000","1529","110300","11/02/2022","1056","sqft","184.66","12.96","acres","15047.46","2","2","","","No","No","","653 Robinwood Dr","Pittsburgh","15216","PA","USA","40.392796","-80.055534"
"https://www.zillow.com/homedetails/802-Brighton-Woods-Rd-Pittsburgh-PA-15212/11269792_zpid/","","","195000","206000","1627","104800","10/31/2022","1260","sqft","154.76","3715.67","sqft","52.48","2","2","","Erin Taylor","No","No","","802 Brighton Woods Rd","Pittsburgh","15212","PA","USA","40.487602","-80.02923"
"https://www.zillow.com/homedetails/118-Cambria-Hill-Dr-Tarentum-PA-15084/11623687_zpid/","","","215000","227100","1494","102300","10/28/2022","1278","sqft","168.23","4948.42","sqft","43.45","3","2","","Joseph Weltner","No","No","","118 Cambria Hill Dr","Tarentum","15084","PA","USA","40.573208","-79.78319"
"https://www.zillow.com/homedetails/909-Tanglewood-Dr-Bethel-Park-PA-15102/67344931_zpid/","","","215000","227100","2094","170600","10/28/2022","1414","sqft","152.05","1341.65","sqft","160.25","3","4","","Mark Ratti","No","No","","909 Tanglewood Dr","Bethel Park","15102","PA","USA","40.2987","-80.05346"
"https://www.zillow.com/homedetails/5493-Library-Rd-APT-15-Bethel-Park-PA-15102/104362293_zpid/","","","165000","174300","1381","109200","10/27/2022","992","sqft","166.33","","","","2","2","","Kelly Luhn","No","No","Apt 15","5493 Library Rd APT 15","Bethel Park","15102","PA","USA","40.322723","-80.02602"
"https://www.zillow.com/homedetails/108-Springwater-Ct-Coraopolis-PA-15108/11256557_zpid/","","","174500","184300","1732","132200","10/25/2022","1508","sqft","115.72","","","","3","4","","Donna DiVito","No","No","","108 Springwater Ct","Coraopolis","15108","PA","USA","40.531467","-80.26932"
"https://www.zillow.com/homedetails/178-Cranbrooke-Dr-Coraopolis-PA-15108/59846054_zpid/","","","187000","197500","1432","135000","10/25/2022","946","sqft","197.67","7766.75","sqft","24.08","2","2","","Arlene Klick","No","No","","178 Cranbrooke Dr","Coraopolis","15108","PA","USA","40.45728","-80.207794"
"https://www.zillow.com/homedetails/476-Enright-Ct-Pittsburgh-PA-15206/11624389_zpid/","","","184900","195300","1808","72400","10/21/2022","1054","sqft","175.43","2413.22","sqft","76.62","3","2","","Mary Hester","No","No","","476 Enright Ct","Pittsburgh","15206","PA","USA","40.461906","-79.91714"
"https://www.zillow.com/homedetails/902-Bayberry-Ln-Imperial-PA-15126/59850374_zpid/","","","182500","192700","1586","128500","10/17/2022","","","","840.71","sqft","217.08","3","3","","Jackie von Thun","No","No","","902 Bayberry Ln","Imperial","15126","PA","USA","40.442734","-80.22158"
"https://www.zillow.com/homedetails/582-Broadhead-Ave-Pittsburgh-PA-15205/11584841_zpid/","","","165000","174200","1800","104000","10/14/2022","1302","sqft","126.73","7901.78","sqft","20.88","3","2","","Luanne Ryan","No","No","","582 Broadhead Ave","Pittsburgh","15205","PA","USA","40.435917","-80.07226"
"https://www.zillow.com/homedetails/1043-Mirror-St-Pittsburgh-PA-15217/11635696_zpid/","","","210000","221700","1870","81100","10/14/2022","","","","2090.88","sqft","100.44","3","2","","Maureen States","No","No","","1043 Mirror St","Pittsburgh","15217","PA","USA","40.426357","-79.92933"
"https://www.zillow.com/homedetails/106-Old-Village-Ln-Bethel-Park-PA-15102/11607858_zpid/","","","191000","201600","1617","107500","10/11/2022","1048","sqft","182.25","1176.12","sqft","162.4","3","2","","Beth Thomas","No","No","","106 Old Village Ln","Bethel Park","15102","PA","USA","40.30355","-80.04088"
"https://www.zillow.com/homedetails/2323-Firethorn-Rd-Bridgeville-PA-15017/59856672_zpid/","","","197000","207900","1603","106800","10/11/2022","1340","sqft","147.01","1467.97","sqft","134.2","3","2","","Jim Dolanch","No","No","","2323 Firethorn Rd","Bridgeville","15017","PA","USA","40.323704","-80.122284"
"https://www.zillow.com/homedetails/200-Commons-Dr-Oakmont-PA-15139/11489217_zpid/","","","172500","182100","1360","119900","10/10/2022","1146","sqft","150.52","2047.32","sqft","84.26","2","2","","Lori Hummel","No","No","","200 Commons Dr","Oakmont","15139","PA","USA","40.516537","-79.8255"
"https://www.zillow.com/homedetails/206-Walden-Way-Imperial-PA-15126/59850119_zpid/","","","215000","226900","1847","144400","10/07/2022","1296","sqft","165.9","1367.78","sqft","157.19","3","4","","Amanda Grimm","No","No","","206 Walden Way","Imperial","15126","PA","USA","40.443146","-80.22191"
"https://www.zillow.com/homedetails/1205-Harewood-Sq-Wexford-PA-15090/11643602_zpid/","","","200000","211700","1664","115800","10/06/2022","1152","sqft","173.61","1149.98","sqft","173.92","2","2","","Wayne Carson","No","No","","1205 Harewood Sq","Wexford","15090","PA","USA","40.58911","-80.03359"
"https://www.zillow.com/homedetails/118-Longvue-Dr-White-Oak-PA-15131/61279408_zpid/","","","190000","201100","2163","136100","10/05/2022","1428","sqft","133.05","4791.6","sqft","39.65","3","3","","Barbara Sulava","No","No","","118 Longvue Dr","White Oak","15131","PA","USA","40.352962","-79.81075"
"https://www.zillow.com/homedetails/26-Hennig-Dr-Pittsburgh-PA-15236/11357445_zpid/","","","205000","226900","1450","109900","10/03/2022","","","","1886","sqft","108.7","2","2","","Patricia Arnold","No","No","","26 Hennig Dr","Pittsburgh","15236","PA","USA","40.365585","-80.00123"
"https://www.zillow.com/homedetails/113-Timberidge-Dr-Bethel-Park-PA-15102/11638334_zpid/","","","173000","183100","1364","97700","10/03/2022","","","","","","","2","2","","John Skapinac","No","No","","113 Timberidge Dr","Bethel Park","15102","PA","USA","40.295307","-80.03084"
"https://www.zillow.com/homedetails/953-Lysle-St-Pittsburgh-PA-15212/11375760_zpid/","","","215000","227500","1164","25600","09/30/2022","1361","sqft","157.97","788.44","sqft","272.69","3","3","","Molli McGrath","No","No","","953 Lysle St","Pittsburgh","15212","PA","USA","40.45923","-80.02097"
"https://www.zillow.com/homedetails/301-Forest-Ridge-Dr-Pittsburgh-PA-15221/11455286_zpid/","","","191000","202100","1791","112800","09/30/2022","","","","","","","2","3","","Pamela D'Alessandro","No","No","","301 Forest Ridge Dr","Pittsburgh","15221","PA","USA","40.425255","-79.84691"
"https://www.zillow.com/homedetails/708-Palace-Ct-Pittsburgh-PA-15227/11642498_zpid/","","","164900","174500","1407","94700","09/30/2022","1014","sqft","162.62","871.2","sqft","189.28","2","2","","Rosina Scalamogna","No","No","","708 Palace Ct","Pittsburgh","15227","PA","USA","40.385075","-79.9631"
"https://www.zillow.com/homedetails/10-Yale-Ave-Pittsburgh-PA-15229/11406411_zpid/","","","210000","222200","1859","130000","09/29/2022","1564","sqft","134.27","2813.98","sqft","74.63","3","2","","Karen Itteilag","No","No","","10 Yale Ave","Pittsburgh","15229","PA","USA","40.516438","-80.04066"
"https://www.zillow.com/homedetails/4204-Bruce-St-Pittsburgh-PA-15201/11513479_zpid/","","","200000","211600","1620","56100","09/29/2022","","","","696.96","sqft","286.96","2","1","","Mary Anne Kirby","No","No","","4204 Bruce St","Pittsburgh","15201","PA","USA","40.468136","-79.956955"
"https://www.zillow.com/homedetails/234-Falls-Village-Rd-Pittsburgh-PA-15239/11262577_zpid/","","","185000","195700","1495","117100","09/27/2022","1440","sqft","128.47","1102","sqft","167.88","2","2","","","No","No","","234 Falls Village Rd","Pittsburgh","15239","PA","USA","40.454132","-79.71828"
"https://www.zillow.com/homedetails/3078-Meadow-Brook-Ct-Gibsonia-PA-15044/11298726_zpid/","","","194000","205200","1951","134600","09/27/2022","1280","sqft","151.56","1485.4","sqft","130.6","2","3","","Angela Leslie","No","No","","3078 Meadow Brook Ct","Gibsonia","15044","PA","USA","40.61309","-79.93471"
"https://www.zillow.com/homedetails/2667-Hawthorne-Dr-Oakdale-PA-15071/59851088_zpid/","","","210000","222100","1800","135500","09/26/2022","1260","sqft","166.67","1437.48","sqft","146.09","2","3","","Alexis Cuervo","No","No","","2667 Hawthorne Dr","Oakdale","15071","PA","USA","40.442932","-80.211006"
"https://www.zillow.com/homedetails/117-Rossmor-Ct-Pittsburgh-PA-15229/11406917_zpid/","","","206000","217800","1586","110300","09/23/2022","","","","","","","2","2","","Jill Jacobs","No","No","","117 Rossmor Ct","Pittsburgh","15229","PA","USA","40.511337","-80.03961"
"https://www.zillow.com/homedetails/828-Chislett-St-Pittsburgh-PA-15206/11620673_zpid/","","","209000","221000","1749","47400","09/23/2022","1352","sqft","154.59","1600","sqft","130.63","3","2","","","No","No","","828 Chislett St","Pittsburgh","15206","PA","USA","40.47405","-79.93019"
"https://www.zillow.com/homedetails/40-Freedom-Dr-N-Bridgeville-PA-15017/59856398_zpid/","","","165000","174500","1450","85000","09/23/2022","1188","sqft","138.89","1489.75","sqft","110.76","2","2","","Chad Schmitt","No","No","","40 Freedom Dr N","Bridgeville","15017","PA","USA","40.34555","-80.115974"
"https://www.zillow.com/homedetails/237-Thornberry-Dr-McKnight-PA-15237/11409524_zpid/","","","200000","211400","1884","125400","09/20/2022","1484","sqft","134.77","","","","3","2","","Adam Cannon","No","No","","237 Thornberry Dr","Mcknight","15237","PA","USA","40.515137","-79.99198"
"https://www.zillow.com/homedetails/341-Ridge-Point-Cir-Bridgeville-PA-15017/164451093_zpid/","","","171000","180700","1731","97900","09/19/2022","1302","sqft","131.34","1224.04","sqft","139.7","3","2","","Erika Frain","No","No","","341 Ridge Point Cir","Bridgeville","15017","PA","USA","40.3262","-80.12723"
"https://www.zillow.com/homedetails/2658-Quail-Ridge-Ln-Wexford-PA-15090/11273678_zpid/","","","207500","218600","1963","133800","09/15/2022","1556","sqft","133.35","22.19","acres","9351.06","2","2","","","No","No","","2658 Quail Ridge Ln","Wexford","15090","PA","USA","40.60573","-80.09327"
"https://www.zillow.com/homedetails/25-Vassar-Ave-Pittsburgh-PA-15229/11406579_zpid/","","","195000","206000","1518","123800","09/15/2022","1168","sqft","166.95","5898.02","sqft","33.06","2","2","","Marlene Lotzmann","No","No","","25 Vassar Ave","Pittsburgh","15229","PA","USA","40.515865","-80.04642"
"https://www.zillow.com/homedetails/508-Countryside-Dr-Mc-Kees-Rocks-PA-15136/11365142_zpid/","","","170000","179600","1481","89900","09/14/2022","1080","sqft","157.41","888.62","sqft","191.31","2","2","","Robert Sonnenberg","No","No","","508 Countryside Dr","Mc Kees Rocks","15136","PA","USA","40.457535","-80.13048"
"https://www.zillow.com/homedetails/296-Elm-Ct-Pittsburgh-PA-15237/11523047_zpid/","","","209000","220800","2162","137300","09/14/2022","1534","sqft","136.25","958.32","sqft","218.09","3","3","","Georgie Smigel","No","No","","296 Elm Ct","Pittsburgh","15237","PA","USA","40.543823","-80.01819"
"https://www.zillow.com/homedetails/272-Heather-Dr-Monroeville-PA-15146/11600740_zpid/","","","203000","214400","1999","139100","09/14/2022","1584","sqft","128.16","1568.16","sqft","129.45","3","3","","Gina Fonzi","No","No","","272 Heather Dr","Monroeville","15146","PA","USA","40.442207","-79.77806"
"https://www.zillow.com/homedetails/802-Penn-St-Pittsburgh-PA-15215/11333574_zpid/","","","170000","230700","1599","79700","09/13/2022","1500","sqft","113.33","4131","sqft","41.15","2","1.5","","","No","No","","802 Penn St","Pittsburgh","15215","PA","USA","40.49621","-79.93439"
"https://www.zillow.com/homedetails/202-Chesterfield-Rd-Pittsburgh-PA-15213/11412420_zpid/","","","190000","200700","1999","46400","09/13/2022","","","","","","","3","1","","Jack Ulrich","No","No","","202 Chesterfield Rd","Pittsburgh","15213","PA","USA","40.44043","-79.96282"
"https://www.zillow.com/homedetails/129-Heather-Dr-Monroeville-PA-15146/11600722_zpid/","","","189500","200100","1924","131400","09/12/2022","1562","sqft","121.32","2252.05","sqft","84.15","2","3","","Lisa Manso","No","No","","129 Heather Dr","Monroeville","15146","PA","USA","40.44116","-79.775826"
"https://www.zillow.com/homedetails/8112-8112A-Nuttals-Grove-Rd-Pittsburgh-PA-15239/2061996981_zpid/","","","190000","","1394","","09/08/2022","1260","sqft","150.79","3959.6","sqft","47.98","2","3","","Susan Pittman","No","No","","8112-8112A Nuttals Grove Rd","Pittsburgh","15239","PA","USA","",""
"https://www.zillow.com/homedetails/8-Yale-Ave-Pittsburgh-PA-15229/11406412_zpid/","","","185567","255900","1500","129400","09/02/2022","1360","sqft","136.45","5140.08","sqft","36.1","3","1","","Daniel Bewersdorff","No","No","","8 Yale Ave","Pittsburgh","15229","PA","USA","40.516468","-80.04054"
"https://www.zillow.com/homedetails/2517-Hunting-Ridge-Trl-Bridgeville-PA-15017/59856569_zpid/","","","165000","174100","1594","103800","09/02/2022","1308","sqft","126.15","1711.91","sqft","96.38","3","2","","Nathaniel Yost","No","No","","2517 Hunting Ridge Trl","Bridgeville","15017","PA","USA","40.32632","-80.12331"
"https://www.zillow.com/homedetails/904-Bayberry-Ln-Imperial-PA-15126/59850372_zpid/","","","181000","191000","1325","98300","08/31/2022","936","sqft","193.38","840.71","sqft","215.29","2","2","","Keith Devries","No","No","","904 Bayberry Ln","Imperial","15126","PA","USA","40.442814","-80.22166"
"https://www.zillow.com/homedetails/3135-Cheltenham-Ct-Gibsonia-PA-15044/11298689_zpid/","","","167900","177100","1450","102900","08/29/2022","1120","sqft","149.91","1411.34","sqft","118.96","2","2","","Jackie Smith","No","No","","3135 Cheltenham Ct","Gibsonia","15044","PA","USA","40.612297","-79.93405"
"https://www.zillow.com/homedetails/21-Hennig-Dr-Pittsburgh-PA-15236/11393496_zpid/","","","175000","184600","1450","113000","08/26/2022","1071","sqft","163.4","1006.24","sqft","173.92","2","2","","Sara Augustine","No","No","","21 Hennig Dr","Pittsburgh","15236","PA","USA","40.365177","-80.00157"
"https://www.zillow.com/homedetails/1002-Timberidge-Dr-Bethel-Park-PA-15102/2062367193_zpid/","","","165500","","1525","","08/26/2022","","","","4791.6","sqft","34.54","2","2","","Susan Cancelliere","No","No","","1002 Timberidge Dr","Bethel Park","15102","PA","USA","40.29685","-80.03076"
"https://www.zillow.com/homedetails/6721-Greenwood-St-Pittsburgh-PA-15206/11277917_zpid/","","","188275","198600","1650","57000","08/25/2022","1504","sqft","125.18","1698.84","sqft","110.83","3","2","","Sara Leitera","No","No","","6721 Greenwood St","Pittsburgh","15206","PA","USA","40.487007","-79.92766"
"https://www.zillow.com/homedetails/103-Cathedral-Ct-Carnegie-PA-15106/64808228_zpid/","","","201600","212600","2070","129800","08/25/2022","1416","sqft","142.37","3920.4","sqft","51.42","3","3","","AnnaMarie DeFrank","No","No","","103 Cathedral Ct","Carnegie","15106","PA","USA","40.409927","-80.09573"
"https://www.zillow.com/homedetails/3119-Camberly-Dr-Gibsonia-PA-15044/11298743_zpid/","","","178000","187600","1450","86800","08/15/2022","1302","sqft","136.71","1868.72","sqft","95.25","2","2","","Ryan Alexander","No","No","","3119 Camberly Dr","Gibsonia","15044","PA","USA","40.61156","-79.934105"
"https://www.zillow.com/homedetails/1711-Timberidge-Dr-Bethel-Park-PA-15102/11638319_zpid/","","","210000","221300","1747","137700","08/15/2022","1320","sqft","159.09","740","sqft","283.78","3","3","","","No","No","","1711 Timberidge Dr","Bethel Park","15102","PA","USA","40.29861","-80.03194"
"https://www.zillow.com/homedetails/2588-Hawthorne-Dr-Oakdale-PA-15071/59850347_zpid/","","","214125","225700","1800","131000","08/15/2022","1188","sqft","180.24","1481.04","sqft","144.58","2","3","","Stefani Jazudek","No","No","","2588 Hawthorne Dr","Oakdale","15071","PA","USA","40.44336","-80.21059"
"https://www.zillow.com/homedetails/141-Spruce-Ct-Pittsburgh-PA-15229/11369698_zpid/","","","196000","206500","1550","110600","08/12/2022","1100","sqft","178.18","1916.64","sqft","102.26","2","2","","Blane Molinari","No","No","","141 Spruce Ct","Pittsburgh","15229","PA","USA","40.510574","-80.04372"
"https://www.zillow.com/homedetails/955-Twin-Leaf-Ct-Bethel-Park-PA-15102/11608950_zpid/","","","175000","184400","1450","112200","08/12/2022","1185","sqft","147.68","1420.06","sqft","123.23","2","2","","Morgan Bardzil","No","No","","955 Twin Leaf Ct","Bethel Park","15102","PA","USA","40.297813","-80.05361"
"https://www.zillow.com/homedetails/500-Hemlock-Ct-Coraopolis-PA-15108/59845962_zpid/","","","172500","181700","1566","100700","08/12/2022","1333","sqft","129.41","","","","3","2","","Ron Ziolkowski","No","No","","500 Hemlock Ct","Coraopolis","15108","PA","USA","40.457188","-80.209435"
"https://www.zillow.com/homedetails/326-Timber-Trl-Imperial-PA-15126/59850524_zpid/","","","170000","179100","1435","93900","08/12/2022","992","sqft","171.37","3920.4","sqft","43.36","2","2","","Eric Draper","No","No","","326 Timber Trl","Imperial","15126","PA","USA","40.44676","-80.224976"
"https://www.zillow.com/homedetails/328-Ridge-Point-Cir-Bridgeville-PA-15017/59856054_zpid/","","","206000","217100","1606","102400","08/12/2022","1292","sqft","159.44","1585.58","sqft","129.92","3","2","","Amy Montgomery","No","No","","328 Ridge Point Cir","Bridgeville","15017","PA","USA","40.32603","-80.12646"
"https://www.zillow.com/homedetails/5085-Empire-Dr-Bridgeville-PA-15017/59857461_zpid/","","","178000","219900","1597","107200","08/12/2022","","","","3301.85","sqft","53.91","3","2","","Dan Haeck","No","No","","5085 Empire Dr","Bridgeville","15017","PA","USA","40.327847","-80.135284"
"https://www.zillow.com/homedetails/1025-Rural-Ridge-Dr-Cheswick-PA-15024/67345139_zpid/","","","210000","221300","1997","117300","08/12/2022","","","","2221.56","sqft","94.53","3","4","","Molly Finley","No","No","","1025 Rural Ridge Dr","Cheswick","15024","PA","USA","40.586758","-79.82331"
"https://www.zillow.com/homedetails/384-Karen-Ct-Monroeville-PA-15146/11600866_zpid/","","","203500","214400","2199","152200","08/11/2022","1828","sqft","111.32","2051.68","sqft","99.19","3","3","","Corey Drexler","No","No","","384 Karen Ct","Monroeville","15146","PA","USA","40.440884","-79.7764"
"https://www.zillow.com/homedetails/2003-Timber-Trl-Imperial-PA-15126/59850880_zpid/","","","168500","177500","1400","95700","08/10/2022","916","sqft","183.95","1285.02","sqft","131.13","2","2","","Kim Bradley","No","No","","2003 Timber Trl","Imperial","15126","PA","USA","40.44565","-80.22332"
"https://www.zillow.com/homedetails/2028-Arbor-Ridge-Ct-Cheswick-PA-15024/67345144_zpid/","","","190000","200100","2199","141700","08/10/2022","1398","sqft","135.91","3336.7","sqft","56.94","3","4","","Stephanie Veenis","No","No","","2028 Arbor Ridge Ct","Cheswick","15024","PA","USA","40.58643","-79.823975"
"https://www.zillow.com/homedetails/702-Palace-Ct-Pittsburgh-PA-15227/11642501_zpid/","","","174000","183300","1366","98400","08/08/2022","1036","sqft","167.95","1045.44","sqft","166.44","2","2","","John Adair","No","No","","702 Palace Ct","Pittsburgh","15227","PA","USA","40.385086","-79.963264"
"https://www.zillow.com/homedetails/718-Carriage-Cir-Pittsburgh-PA-15205/11318798_zpid/","","","168000","176900","1283","89600","08/05/2022","992","sqft","169.35","","","","2","1","","Robin Ross","No","No","","718 Carriage Cir","Pittsburgh","15205","PA","USA","40.425972","-80.10086"
"https://www.zillow.com/homedetails/626-Heron-Ct-Coraopolis-PA-15108/59846008_zpid/","","","170000","179000","1500","107000","08/05/2022","1302","sqft","130.57","1916.64","sqft","88.7","3","2","","Leah Wulster","No","No","","626 Heron Ct","Coraopolis","15108","PA","USA","40.45582","-80.20956"
"https://www.zillow.com/homedetails/605-Briarleaf-Dr-Pittsburgh-PA-15205/11256759_zpid/","","","166500","175300","1599","135700","08/04/2022","1472","sqft","113.11","","","","2","2","","Luanne Ryan","No","No","","605 Briarleaf Dr","Pittsburgh","15205","PA","USA","40.43259","-80.09286"
"https://www.zillow.com/homedetails/2218-Lebanon-Dr-McKeesport-PA-15135/104362235_zpid/","","","191000","201100","2202","148200","08/04/2022","","","","6969.6","sqft","27.4","3","3","","Melissa Shipley","No","No","","2218 Lebanon Dr","McKeesport","15135","PA","USA","40.291695","-79.82334"
"https://www.zillow.com/homedetails/103-Laurel-Ct-Pittsburgh-PA-15202/11370032_zpid/","","","199900","210500","1500","100000","08/03/2022","1078","sqft","185.44","1258.88","sqft","158.79","2","2","","Amy Salera","No","No","","103 Laurel Ct","Pittsburgh","15202","PA","USA","40.501705","-80.04425"
"https://www.zillow.com/homedetails/1305-Timber-Trl-Imperial-PA-15126/59851019_zpid/","","","200000","210600","1494","118000","08/03/2022","1188","sqft","168.35","2099.59","sqft","95.26","2","2","","Jeremy Wells","No","No","","1305 Timber Trl","Imperial","15126","PA","USA","40.445965","-80.2245"
"https://www.zillow.com/homedetails/821-Lindenwood-Dr-Pittsburgh-PA-15234/11357738_zpid/","","","180000","189500","1595","76800","08/01/2022","1008","sqft","178.57","1720.62","sqft","104.61","3","2","","Kerry Owens","No","No","","821 Lindenwood Dr","Pittsburgh","15234","PA","USA","40.374786","-80.02008"
"https://www.zillow.com/homedetails/2-Shadow-Dr-Pittsburgh-PA-15227/59836798_zpid/","","","171000","180000","1400","100400","08/01/2022","","","","753.59","sqft","226.91","2","2","","Deb Walton","No","No","","2 Shadow Dr","Pittsburgh","15227","PA","USA","40.371265","-79.99436"
"https://www.zillow.com/homedetails/339-Joan-Of-Arc-Ct-Jefferson-Hills-PA-15025/11250935_zpid/","","","170000","178900","1285","83800","07/29/2022","1239","sqft","137.21","832","sqft","204.33","2","2","","Amanda Houston","No","No","","339 Joan Of Arc Ct","Jefferson Hills","15025","PA","USA","40.286148","-79.958176"
"https://www.zillow.com/homedetails/314-Timber-Trl-Imperial-PA-15126/59850657_zpid/","","","175000","184200","1494","93400","07/29/2022","992","sqft","176.41","849.42","sqft","206.02","2","2","","Amanda Greaff","No","No","","314 Timber Trl","Imperial","15126","PA","USA","40.44637","-80.22476"
"https://www.zillow.com/homedetails/210-W-Russets-Cir-Bridgeville-PA-15017/59857405_zpid/","","","170000","178900","1398","94000","07/29/2022","","","","2657.16","sqft","63.98","2","2","","Bob Spithaler","No","No","","210 W Russets Cir","Bridgeville","15017","PA","USA","40.3423","-80.12279"
"https://www.zillow.com/homedetails/378-Enright-Ct-Pittsburgh-PA-15206/11624386_zpid/","","","177500","186800","1864","57000","07/27/2022","1183","sqft","150.04","871.2","sqft","203.74","3","2","","Alicia Pittman","No","No","","378 Enright Ct","Pittsburgh","15206","PA","USA","40.461613","-79.917786"
"https://www.zillow.com/homedetails/2709-Bingham-Dr-Pittsburgh-PA-15241/11582556_zpid/","","","210000","221000","2074","129300","07/26/2022","1648","sqft","127.43","1594.3","sqft","131.72","3","4","","Lauren Ganoe","No","No","","2709 Bingham Dr","Pittsburgh","15241","PA","USA","40.31273","-80.1074"
"https://www.zillow.com/homedetails/746-Wheatland-Cir-Bridgeville-PA-15017/59856448_zpid/","","","208000","218900","1563","111700","07/25/2022","1309","sqft","158.9","1880","sqft","110.64","3","2","","","No","No","","746 Wheatland Cir","Bridgeville","15017","PA","USA","40.327965","-80.13416"
"https://www.zillow.com/homedetails/321-Timber-Trl-Imperial-PA-15126/59850519_zpid/","","","185000","194600","1450","92800","07/22/2022","992","sqft","186.49","4051.08","sqft","45.67","2","2","","Michael Reed","No","No","","321 Timber Trl","Imperial","15126","PA","USA","40.44662","-80.2246"
"https://www.zillow.com/homedetails/3156-Laurel-Ridge-Cir-Bridgeville-PA-15017/59856975_zpid/","","","170000","178800","1494","88800","07/22/2022","","","","1306.8","sqft","130.09","2","2","","Kayla Fehl","No","No","","3156 Laurel Ridge Cir","Bridgeville","15017","PA","USA","40.331177","-80.123085"
"https://www.zillow.com/homedetails/88-Springmeadow-Ct-Pittsburgh-PA-15236/11393962_zpid/","","","200400","210800","1366","128000","07/21/2022","975","sqft","205.54","1524.6","sqft","131.44","2","2","","John Geisler","No","No","","88 Springmeadow Ct","Pittsburgh","15236","PA","USA","40.35891","-80.0047"
"https://www.zillow.com/homedetails/792-Wheatland-Cir-Bridgeville-PA-15017/59856526_zpid/","","","169000","177800","1714","101800","07/21/2022","2100","sqft","80.48","2069","sqft","81.68","3","1.5","","","No","No","","792 Wheatland Cir","Bridgeville","15017","PA","USA","40.329243","-80.134605"
"https://www.zillow.com/homedetails/943-Trillium-Trl-Bethel-Park-PA-15102/11608964_zpid/","","","185000","194500","1410","108900","07/15/2022","1185","sqft","156.12","1341.65","sqft","137.89","2","2","","Melissa Woods","No","No","","943 Trillium Trl","Bethel Park","15102","PA","USA","40.29831","-80.052795"
"https://www.zillow.com/homedetails/1704-Timberglen-Dr-Imperial-PA-15126/11657403_zpid/","","","205000","219900","1642","105300","07/15/2022","1474","sqft","139.08","1698.84","sqft","120.67","3","2","","DJ Fairley","No","No","","1704 Timberglen Dr","Imperial","15126","PA","USA","40.44355","-80.21852"
"https://www.zillow.com/homedetails/516-Hemlock-Ct-Coraopolis-PA-15108/59845975_zpid/","","","197000","207100","1500","129300","07/15/2022","1260","sqft","156.35","2073.46","sqft","95.01","3","2","","Kelly Robinson","No","No","","516 Hemlock Ct","Coraopolis","15108","PA","USA","40.45683","-80.20893"
"https://www.zillow.com/homedetails/1119-Elm-Ct-Oakdale-PA-15071/59850746_zpid/","","","185050","194600","1450","113100","07/15/2022","","","","1306.8","sqft","141.61","2","2","","Lindsie Zatezalo","No","No","","1119 Elm Ct","Oakdale","15071","PA","USA","40.444515","-80.21005"
"https://www.zillow.com/homedetails/320-Fort-Duquesne-Blvd-APT-23-Pittsburgh-PA-15222/11363082_zpid/","","","165000","173800","1198","134100","07/14/2022","1033","sqft","159.73","1033","sqft","159.73","1","1","","","No","No","Apt 23","320 Fort Duquesne Blvd APT 23","Pittsburgh","15222","PA","USA","40.442528","-80.00726"
"https://www.zillow.com/homedetails/206-Little-Hollow-Dr-Sewickley-PA-15143/11481287_zpid/","","","213500","231800","1999","128200","07/14/2022","1485","sqft","143.77","","","","2","2","","Gina Mercurio","No","No","","206 Little Hollow Dr","Sewickley","15143","PA","USA","40.53713","-80.15294"
"https://www.zillow.com/homedetails/2309-Firethorn-Rd-Bridgeville-PA-15017/59856693_zpid/","","","210000","220800","1800","125300","07/14/2022","1360","sqft","154.41","1812.1","sqft","115.89","3","4","","Lauren Ganoe","No","No","","2309 Firethorn Rd","Bridgeville","15017","PA","USA","40.323982","-80.12275"
"https://www.zillow.com/homedetails/70-New-London-Ln-Oakmont-PA-15139/11489378_zpid/","","","187000","196600","1581","126100","07/12/2022","1288","sqft","145.19","3824.57","sqft","48.89","3","2","","Lori Hummel","No","No","","70 New London Ln","Oakmont","15139","PA","USA","40.514526","-79.826965"
"https://www.zillow.com/homedetails/4417-Laurel-Oak-Dr-Allison-Park-PA-15101/11619067_zpid/","","","205000","215500","1597","111400","07/11/2022","1295","sqft","158.3","2692.01","sqft","76.15","2","2","","Michelle Bushee","No","No","","4417 Laurel Oak Dr","Allison Park","15101","PA","USA","40.578045","-79.97942"
"https://www.zillow.com/homedetails/121-Glenwood-Dr-Monroeville-PA-15146/11651561_zpid/","","","200000","210200","2010","135700","07/09/2022","1688","sqft","118.48","","sqft","","2","3","","Blanca Pifano-Lenk","No","No","","121 Glenwood Dr","Monroeville","15146","PA","USA","40.44171","-79.74636"
"https://www.zillow.com/homedetails/3162-Camberly-Dr-Gibsonia-PA-15044/11299193_zpid/","","","192500","202000","1729","99900","07/08/2022","","","","2143.15","sqft","89.82","2","2","","John Marzullo","No","No","","3162 Camberly Dr","Gibsonia","15044","PA","USA","40.61245","-79.93294"
"https://www.zillow.com/homedetails/5650-Rural-St-Pittsburgh-PA-15206/11623580_zpid/","","","175000","183900","1628","53200","07/08/2022","1242","sqft","140.9","2347.88","sqft","74.54","3","1","","Christa Ross","No","No","","5650 Rural St","Pittsburgh","15206","PA","USA","40.464817","-79.92772"
"https://www.zillow.com/homedetails/141-Meadow-Gap-Dr-Monroeville-PA-15146/11536172_zpid/","","","165000","173300","1599","100600","07/07/2022","1304","sqft","126.53","2415","sqft","68.32","3","1.5","","","No","No","","141 Meadow Gap Dr","Monroeville","15146","PA","USA","40.408985","-79.80592"
"https://www.zillow.com/homedetails/314-Ridge-Point-Cir-Bridgeville-PA-15017/59856048_zpid/","","","190000","199600","1594","103400","07/07/2022","1292","sqft","147.06","1533","sqft","123.94","3","1.5","","","No","No","","314 Ridge Point Cir","Bridgeville","15017","PA","USA","40.325714","-80.12613"
"https://www.zillow.com/homedetails/932-Mill-Ct-Bridgeville-PA-15017/59856341_zpid/","","","179500","188600","1849","111900","07/07/2022","","","","1368","sqft","131.21","3","3","","Sangita Thapar","No","No","","932 Mill Ct","Bridgeville","15017","PA","USA","40.32744","-80.13315"
"https://www.zillow.com/homedetails/216-Shadowlawn-Cir-Pittsburgh-PA-15236/11354918_zpid/","","","167500","175900","1435","89800","07/01/2022","992","sqft","168.85","1350.36","sqft","124.04","2","2","","Lisa George","No","No","","216 Shadowlawn Cir","Pittsburgh","15236","PA","USA","40.37023","-79.99585"
"https://www.zillow.com/homedetails/202-Timberidge-Dr-Bethel-Park-PA-15102/11638336_zpid/","","","166000","174300","1350","99100","06/30/2022","","","","","","","2","2","","Georgann Koumaros","No","No","","202 Timberidge Dr","Bethel Park","15102","PA","USA","40.29541","-80.03047"
"https://www.zillow.com/homedetails/2004-Timber-Trl-Imperial-PA-15126/59850873_zpid/","","","161500","169600","1535","104400","06/30/2022","1266","sqft","127.57","1280.66","sqft","126.11","2","2","","DJ Fairley","No","No","","2004 Timber Trl","Imperial","15126","PA","USA","40.445686","-80.22336"
"https://www.zillow.com/homedetails/3104-Laurel-Ridge-Cir-Bridgeville-PA-15017/59856881_zpid/","","","185000","194300","1847","105200","06/30/2022","1272","sqft","145.44","1555.09","sqft","118.96","3","4","","Hannah Sosinski","No","No","","3104 Laurel Ridge Cir","Bridgeville","15017","PA","USA","40.329563","-80.122185"
"https://www.zillow.com/homedetails/138-Duquesne-Blvd-New-Kensington-PA-15068/11596356_zpid/","","","165500","173800","1550","87800","06/28/2022","1339","sqft","123.6","4251.46","sqft","38.93","3","2","","Lisa Jackson","No","No","","138 Duquesne Blvd","New Kensington","15068","PA","USA","40.527184","-79.77622"
"https://www.zillow.com/homedetails/139-Heather-Dr-Monroeville-PA-15146/11600720_zpid/","","","175000","183700","1924","131900","06/24/2022","1560","sqft","112.18","1054.15","sqft","166.01","2","3","","Matthew Shanty","No","No","","139 Heather Dr","Monroeville","15146","PA","USA","40.44121","-79.776054"
"https://www.zillow.com/homedetails/320-Benson-Cir-Pittsburgh-PA-15227/52560708_zpid/","","","170000","178400","1599","76200","06/24/2022","1445","sqft","117.65","2178","sqft","78.05","3","2","","Kelly Robinson","No","No","","320 Benson Cir","Pittsburgh","15227","PA","USA","40.364235","-79.96029"
"https://www.zillow.com/homedetails/14-Chapel-Dr-Pittsburgh-PA-15237/11522396_zpid/","","","210000","220400","1999","108600","06/23/2022","","","","","","","3","2","","Jill Jacobs","No","No","","14 Chapel Dr","Pittsburgh","15237","PA","USA","40.548615","-80.02631"
"https://www.zillow.com/homedetails/3083-Raintree-Dr-Gibsonia-PA-15044/11298610_zpid/","","","175000","183700","1432","120700","06/22/2022","1394","sqft","125.54","1729","sqft","101.21","2","1.5","","","No","No","","3083 Raintree Dr","Gibsonia","15044","PA","USA","40.614086","-79.93457"
"https://www.zillow.com/homedetails/1318-Lake-St-Pittsburgh-PA-15233/164594253_zpid/","","","185000","","1470","700","06/22/2022","720","sqft","256.94","596.77","sqft","310","2","2","","Deanna Davis","No","No","","1318 Lake St","Pittsburgh","15233","PA","USA","40.457504","-80.02654"
"https://www.zillow.com/homedetails/15-Chapel-Dr-Pittsburgh-PA-15237/11522389_zpid/","","","199900","209800","1999","106800","06/21/2022","1344","sqft","148.74","","","","3","2","","Patti McMahon","No","No","","15 Chapel Dr","Pittsburgh","15237","PA","USA","40.548492","-80.02578"
"https://www.zillow.com/homedetails/231-Shadowlawn-Cir-Pittsburgh-PA-15236/11354924_zpid/","","","167500","175700","1350","89200","06/17/2022","992","sqft","168.85","1324.22","sqft","126.49","2","2","","Alex Norton","No","No","","231 Shadowlawn Cir","Pittsburgh","15236","PA","USA","40.37034","-79.99535"
"https://www.zillow.com/homedetails/156-Bronx-Ave-Pittsburgh-PA-15229/11405981_zpid/","","","195000","204600","1597","90600","06/17/2022","","","","3920.4","sqft","49.74","2","2","","Aaron Hirak","No","No","","156 Bronx Ave","Pittsburgh","15229","PA","USA","40.52026","-80.03918"
"https://www.zillow.com/homedetails/59A-Bethany-Dr-Pittsburgh-PA-15215/164309329_zpid/","","","168000","203300","1535","118600","06/15/2022","929","sqft","180.84","5414","sqft","31.03","2","1.5","","","No","No","","59A Bethany Dr","Pittsburgh","15215","PA","USA","40.50521","-79.94065"
"https://www.zillow.com/homedetails/916-Mill-Ct-Bridgeville-PA-15017/59856352_zpid/","","","200000","209800","1800","118700","06/14/2022","1288","sqft","155.28","2212.85","sqft","90.38","3","3","","Jordan Jankowski","No","No","","916 Mill Ct","Bridgeville","15017","PA","USA","40.327923","-80.13276"
"https://www.zillow.com/homedetails/47A-Bethany-Dr-A-Pittsburgh-PA-15215/164595580_zpid/","","","185000","194000","1429","117900","06/14/2022","1040","sqft","177.88","5805","sqft","31.87","2","1","","","No","No","# A","47A Bethany Dr #A","Pittsburgh","15215","PA","USA","40.505463","-79.941696"
"https://www.zillow.com/homedetails/22-BA-Bethany-Dr-Pittsburgh-PA-15215/164309384_zpid/","","","193000","202300","1414","99700","06/13/2022","1040","sqft","185.58","2060.39","sqft","93.67","2","2","","Gere Edwards","No","No","","22 BA Bethany Dr","Pittsburgh","15215","PA","USA","40.50601","-79.93898"
"https://www.zillow.com/homedetails/110-Heather-Dr-Monroeville-PA-15146/11600687_zpid/","","","182500","191400","1914","129800","06/10/2022","1496","sqft","121.99","0.32","acres","576073.23","2","3","","Deborah Sterrett","No","No","","110 Heather Dr","Monroeville","15146","PA","USA","40.44153","-79.77519"
"https://www.zillow.com/homedetails/35-Run-St-Carnegie-PA-15106/59836435_zpid/","","","196888","206500","1407","108000","06/10/2022","1032","sqft","190.78","2613.6","sqft","75.33","2","2","","Sean Belajac","No","No","","35 Run St","Carnegie","15106","PA","USA","40.414566","-80.09572"
"https://www.zillow.com/homedetails/230-Cambria-Hill-Dr-Tarentum-PA-15084/119345228_zpid/","","","205000","214900","1370","116800","06/10/2022","1478","sqft","138.7","3963.96","sqft","51.72","2","2","","Matthew Bonosky","No","No","","230 Cambria Hill Dr","Tarentum","15084","PA","USA","40.574753","-79.78267"
"https://www.zillow.com/homedetails/626-Freedom-Dr-Carnegie-PA-15106/164301067_zpid/","","","198000","307800","2129","198000","06/10/2022","1548","sqft","127.91","4782.89","sqft","41.4","3","3","","","No","No","","626 Freedom Dr","Carnegie","15106","PA","USA","40.422695","-80.132545"
"https://www.zillow.com/homedetails/47-Bethany-Dr-A-Pittsburgh-PA-15215/2063315470_zpid/","","","185000","","1294","","06/10/2022","1040","sqft","177.88","5806.55","sqft","31.86","2","1","","Alexandra Bradley","No","No","# A","47 Bethany Dr #A","Pittsburgh","15215","PA","USA","40.505432","-79.94172"
"https://www.zillow.com/homedetails/1501-Timberidge-Dr-Bethel-Park-PA-15102/11638305_zpid/","","","170000","178300","1425","99300","06/09/2022","1088","sqft","156.25","4791.6","sqft","35.48","2","2","","Benedict Serratore","No","No","","1501 Timberidge Dr","Bethel Park","15102","PA","USA","40.297966","-80.031586"
"https://www.zillow.com/homedetails/335-Reifert-St-Pittsburgh-PA-15210/11436402_zpid/","","","181000","189800","1145","62500","06/08/2022","2663","sqft","67.97","3800","sqft","47.63","2","1","","","No","No","","335 Reifert St","Pittsburgh","15210","PA","USA","40.40957","-79.9951"
"https://www.zillow.com/homedetails/102-Waterfront-Ridge-Ln-Homestead-PA-15120/104363336_zpid/","","","206500","216500","1114","130200","06/07/2022","948","sqft","217.83","6534","sqft","31.6","2","1","","Richard Creo","No","No","","102 Waterfront Ridge Ln","Homestead","15120","PA","USA","40.405056","-79.8907"
"https://www.zillow.com/homedetails/8-Shadow-Dr-Pittsburgh-PA-15227/11355037_zpid/","","","161000","168700","1342","93100","06/06/2022","976","sqft","164.96","1248","sqft","129.01","2","1.5","","","No","No","","8 Shadow Dr","Pittsburgh","15227","PA","USA","40.371387","-79.99426"
"https://www.zillow.com/homedetails/59-59A-Bethany-Dr-Pittsburgh-PA-15215/2064119842_zpid/","","","168000","","1631","","06/06/2022","929","sqft","180.84","5414.51","sqft","31.03","2","2","","Patricia Ann McLaughlin","No","No","","59-59A Bethany Dr","Pittsburgh","15215","PA","USA","",""
"https://www.zillow.com/homedetails/1357-Cordova-Rd-Pittsburgh-PA-15206/11619601_zpid/","","","212000","222200","1597","101700","06/03/2022","1254","sqft","169.06","0.28","acres","749571.43","3","1","","","No","No","","1357 Cordova Rd","Pittsburgh","15206","PA","USA","40.480186","-79.926216"
"https://www.zillow.com/homedetails/111-Palace-Ct-Pittsburgh-PA-15227/11302794_zpid/","","","168500","176600","1395","96500","06/01/2022","1036","sqft","162.64","1054.15","sqft","159.84","2","2","","Lisa Bossong","No","No","","111 Palace Ct","Pittsburgh","15227","PA","USA","40.384228","-79.96147"
"https://www.zillow.com/homedetails/206-Parkridge-Ln-Coraopolis-PA-15108/11552421_zpid/","","","215000","225400","1849","123900","05/31/2022","1344","sqft","159.97","2783.48","sqft","77.24","2","3","","Jennifer Hoberman","No","No","","206 Parkridge Ln","Coraopolis","15108","PA","USA","40.5092","-80.20174"
"https://www.zillow.com/homedetails/1225-Elm-Dr-Oakdale-PA-15071/59850697_zpid/","","","201125","210900","1784","121000","05/31/2022","","","","2178","sqft","92.34","3","2","","Georgie Smigel","No","No","","1225 Elm Dr","Oakdale","15071","PA","USA","40.44482","-80.21034"
"https://www.zillow.com/homedetails/706-Carla-Dr-Pittsburgh-PA-15238/11414598_zpid/","","","187000","196000","1564","112400","05/27/2022","1296","sqft","144.29","2012.47","sqft","92.92","2","2","","Jan Stevens","No","No","","706 Carla Dr","Pittsburgh","15238","PA","USA","40.494232","-79.86527"
"https://www.zillow.com/homedetails/1316-Lake-St-Pittsburgh-PA-15233/11375981_zpid/","","","180000","188600","1695","113700","05/25/2022","720","sqft","250","596.77","sqft","301.62","2","2","","Deanna Davis","No","No","","1316 Lake St","Pittsburgh","15233","PA","USA","40.457523","-80.026535"
"https://www.zillow.com/homedetails/1802-Timberidge-Dr-Bethel-Park-PA-15102/11638326_zpid/","","","164500","172400","1433","113700","05/25/2022","","","","544.5","sqft","302.11","2","2","","","No","No","","1802 Timberidge Dr","Bethel Park","15102","PA","USA","40.298496","-80.031494"
"https://www.zillow.com/homedetails/206-W-Russets-Cir-Bridgeville-PA-15017/59857406_zpid/","","","172000","180300","1398","98300","05/25/2022","930","sqft","184.95","2831.4","sqft","60.75","2","2","","Adar Ben-Lapid","No","No","","206 W Russets Cir","Bridgeville","15017","PA","USA","40.342243","-80.1227"
"https://www.zillow.com/homedetails/233-S-Highland-Ave-Oakdale-PA-15071/59843114_zpid/","","","166000","174000","1400","72700","05/24/2022","930","sqft","178.49","1351","sqft","122.87","2","1.5","","","No","No","","233 S Highland Ave","Oakdale","15071","PA","USA","40.399426","-80.189415"
"https://www.zillow.com/homedetails/70-Hennig-Dr-Pittsburgh-PA-15236/11357423_zpid/","","","210000","220100","1464","115500","05/20/2022","1400","sqft","150","1089","sqft","192.84","2","2","","Sandra Rodeheaver","No","No","","70 Hennig Dr","Pittsburgh","15236","PA","USA","40.36638","-80.00305"
"https://www.zillow.com/homedetails/114-Rossmor-Ct-Pittsburgh-PA-15229/11369774_zpid/","","","215000","225300","1514","108800","05/20/2022","1037","sqft","207.33","3484.8","sqft","61.7","2","2","","Deborah Platts","No","No","","114 Rossmor Ct","Pittsburgh","15229","PA","USA","40.51088","-80.04"
"https://www.zillow.com/homedetails/301-Bayberry-Ln-Imperial-PA-15126/59850223_zpid/","","","172000","180300","1400","104500","05/20/2022","992","sqft","173.39","1476.68","sqft","116.48","2","2","","Linda Diffendal","No","No","","301 Bayberry Ln","Imperial","15126","PA","USA","40.441975","-80.22288"
"https://www.zillow.com/homedetails/305-Carters-Grove-Dr-Gibsonia-PA-15044/11318172_zpid/","","","190000","199100","1485","106700","05/19/2022","","","","1393.92","sqft","136.31","2","2","","Ariel Harat","No","No","","305 Carters Grove Dr","Gibsonia","15044","PA","USA","40.618362","-79.92668"
"https://www.zillow.com/homedetails/649-Newport-Dr-Pittsburgh-PA-15235/11493666_zpid/","","","175000","183400","1898","126100","05/19/2022","1484","sqft","117.92","","","","2","3","","Deborah Kane","No","No","","649 Newport Dr","Pittsburgh","15235","PA","USA","40.453358","-79.82726"
"https://www.zillow.com/homedetails/4402-Laurel-Oak-Dr-Allison-Park-PA-15101/11619123_zpid/","","","209000","219000","1597","111000","05/19/2022","1364","sqft","153.23","1929.71","sqft","108.31","2","2","","Lori Springer","No","No","","4402 Laurel Oak Dr","Allison Park","15101","PA","USA","40.57756","-79.97882"
"https://www.zillow.com/homedetails/105-Springwater-Ct-Coraopolis-PA-15108/11256554_zpid/","","","169500","177600","1794","132100","05/16/2022","1508","sqft","112.4","","","","3","3","","Lynne White","No","No","","105 Springwater Ct","Coraopolis","15108","PA","USA","40.53161","-80.269165"
"https://www.zillow.com/homedetails/302-Springwater-Ct-Coraopolis-PA-15108/11256567_zpid/","","","180000","188700","1616","132900","05/16/2022","1508","sqft","119.36","3001.28","sqft","59.97","3","3","","Kathy McKenna","No","No","","302 Springwater Ct","Coraopolis","15108","PA","USA","40.532364","-80.26786"
"https://www.zillow.com/homedetails/708-Center-Ave-Aspinwall-PA-15215/11335035_zpid/","","","184900","193700","1500","85900","05/16/2022","","","","1812.1","sqft","102.04","2","2","","Marcie Parrish","No","No","","708 Center Ave","Aspinwall","15215","PA","USA","40.49521","-79.90289"
"https://www.zillow.com/homedetails/121-Rossmor-Ct-Pittsburgh-PA-15229/11406915_zpid/","","","191500","210200","1500","101800","05/16/2022","992","sqft","193.04","1663.99","sqft","115.08","2","2","","Barbara Bellotti","No","No","","121 Rossmor Ct","Pittsburgh","15229","PA","USA","40.51124","-80.03946"
"https://www.zillow.com/homedetails/5093-Empire-Dr-Bridgeville-PA-15017/59857465_zpid/","","","175900","184400","1800","119100","05/16/2022","1242","sqft","141.63","3558.85","sqft","49.43","3","3","","John Adair","No","No","","5093 Empire Dr","Bridgeville","15017","PA","USA","40.327625","-80.13523"
"https://www.zillow.com/homedetails/832-Wheatland-Cir-Bridgeville-PA-15017/59856550_zpid/","","","201000","210700","1500","100600","05/13/2022","1216","sqft","165.3","1650.92","sqft","121.75","3","2","","Matthew Gillespie","No","No","","832 Wheatland Cir","Bridgeville","15017","PA","USA","40.328514","-80.134026"
"https://www.zillow.com/homedetails/92-Escalon-Dr-Coraopolis-PA-15108/59845946_zpid/","","","200000","209600","1500","137900","05/10/2022","1226","sqft","163.13","2400.16","sqft","83.33","3","2","","Christopher Angelo","No","No","","92 Escalon Dr","Coraopolis","15108","PA","USA","40.45786","-80.20899"
"https://www.zillow.com/homedetails/117-Union-Ave-North-Versailles-PA-15137/11497325_zpid/","","","167500","175600","1494","73000","05/06/2022","1462","sqft","114.57","2983.86","sqft","56.14","3","2","","Gina Giacchino","No","No","","117 Union Ave","North Versailles","15137","PA","USA","40.378044","-79.81908"
"https://www.zillow.com/homedetails/27-Run-St-Carnegie-PA-15106/53220809_zpid/","","","190000","199200","1448","106400","05/06/2022","1076","sqft","176.58","2613.6","sqft","72.7","2","2","","John Barley","No","No","","27 Run St","Carnegie","15106","PA","USA","40.414505","-80.09551"
"https://www.zillow.com/homedetails/110-Creekview-Ln-Oakdale-PA-15071/119344127_zpid/","","","202000","211700","1500","130000","05/06/2022","1156","sqft","174.74","1502.82","sqft","134.41","2","2","","Raymond Carnevali","No","No","","110 Creekview Ln","Oakdale","15071","PA","USA","40.401924","-80.18838"
"https://www.zillow.com/homedetails/11-New-London-Ln-Oakmont-PA-15139/11489449_zpid/","","","175000","183400","1411","110000","05/04/2022","1288","sqft","135.87","2186.71","sqft","80.03","2","2","","Pamela Stamper","No","No","","11 New London Ln","Oakmont","15139","PA","USA","40.51627","-79.82778"
"https://www.zillow.com/homedetails/217-Shady-Ridge-Dr-Monroeville-PA-15146/11536127_zpid/","","","202500","212300","1687","107400","05/04/2022","1344","sqft","150.67","0.35","acres","586107.09","3","2","","Donna Hornicak","No","No","","217 Shady Ridge Dr","Monroeville","15146","PA","USA","40.408386","-79.80384"
"https://www.zillow.com/homedetails/302-Timberglen-Dr-Imperial-PA-15126/59850456_zpid/","","","180000","188700","1550","104900","05/03/2022","1310","sqft","137.4","3720","sqft","48.39","2","1.5","","","No","No","","302 Timberglen Dr","Imperial","15126","PA","USA","40.44212","-80.218414"
"https://www.zillow.com/homedetails/102-Berrington-Ct-Bethel-Park-PA-15102/62983199_zpid/","","","189872","199000","1379","121100","05/02/2022","1116","sqft","170.14","","","","2","2","","Brian Teyssier","No","No","","102 Berrington Ct","Bethel Park","15102","PA","USA","40.291798","-80.032104"
"https://www.zillow.com/homedetails/233-S-Highland-Ave-233-Oakdale-PA-15071/2065596792_zpid/","","","166000","","2299","","05/02/2022","1150","sqft","144.35","1350.36","sqft","122.93","2","2","","Bob Miller","No","No","# 233","233 S Highland Ave #233","Oakdale","15071","PA","USA","",""
"https://www.zillow.com/homedetails/817-Lindenwood-Dr-Pittsburgh-PA-15234/11357736_zpid/","","","174900","183400","1562","76300","04/28/2022","","","","","","","3","2","","Allison Zeiler","No","No","","817 Lindenwood Dr","Pittsburgh","15234","PA","USA","40.374844","-80.02019"
"https://www.zillow.com/homedetails/5-Gloucester-Ct-Oakmont-PA-15139/11489247_zpid/","","","164500","172300","1409","100500","04/28/2022","","","","2070","sqft","79.47","2","2","","Alice Vaday","No","No","","5 Gloucester Ct","Oakmont","15139","PA","USA","40.516373","-79.82597"
"https://www.zillow.com/homedetails/716-Rosecliff-Rd-Wexford-PA-15090/125935171_zpid/","","","164021","414900","2529","284700","04/28/2022","1965","sqft","83.47","2751","sqft","59.62","3","2.5","","","No","No","","716 Rosecliff Rd","Wexford","15090","PA","USA","40.629154","-80.04937"
"https://www.zillow.com/homedetails/701-Countryside-Dr-Mc-Kees-Rocks-PA-15136/11365160_zpid/","","","170000","178300","1494","115800","04/22/2022","1026","sqft","165.69","901","sqft","188.68","2","2","","","No","No","","701 Countryside Dr","Mc Kees Rocks","15136","PA","USA","40.457596","-80.131935"
"https://www.zillow.com/homedetails/2804-Timberglen-Dr-Imperial-PA-15126/59851449_zpid/","","","211000","221300","1849","128400","04/21/2022","1440","sqft","146.53","4094.64","sqft","51.53","3","3","","Denise Sipe","No","No","","2804 Timberglen Dr","Imperial","15126","PA","USA","40.442566","-80.2159"
"https://www.zillow.com/homedetails/201-Kendall-Ln-Bethel-Park-PA-15102/11547721_zpid/","","","190000","199300","1649","120100","04/19/2022","1178","sqft","161.29","4003.16","sqft","47.46","3","2","","Marjory Stawiarski","No","No","","201 Kendall Ln","Bethel Park","15102","PA","USA","40.326008","-80.04709"
"https://www.zillow.com/homedetails/303-Hiland-Valley-Dr-Pittsburgh-PA-15229/11482291_zpid/","","","168500","176800","1881","101400","04/18/2022","1246","sqft","135.23","","","","2","2","","Marilou Williams","No","No","","303 Hiland Valley Dr","Pittsburgh","15229","PA","USA","40.532406","-80.03642"
"https://www.zillow.com/homedetails/4-Gloucester-Ct-Oakmont-PA-15139/11489268_zpid/","","","165000","173100","1425","101100","04/18/2022","1288","sqft","128.11","2164.93","sqft","76.21","2","2","","Deborah Reddick","No","No","","4 Gloucester Ct","Oakmont","15139","PA","USA","40.51632","-79.825294"
"https://www.zillow.com/homedetails/319-Ridge-Point-Cir-Bridgeville-PA-15017/59856199_zpid/","","","190000","199300","1562","100300","04/15/2022","2016","sqft","94.25","1.13","acres","168141.59","3","2","","Daniel Demers","No","No","","319 Ridge Point Cir","Bridgeville","15017","PA","USA","40.32631","-80.124916"
