Property URL,MLS ID,Number of days on Zillow,Property price (USD),Zestimate (USD),Rent zestimate (USD per month),Tax assessed value (USD),Sold date (MM/DD/YYYY),Living area,Living area unit,Price per living area unit (USD),Lot/land area,Lot/land area unit,Price per lot/land area unit (USD),Bedrooms,Bathrooms,Broker name,Broker agent,Is owner occupied,Property owned by Zillow,Property unit number,Street address,City,Zip,State,Country,Latitude,Longitude
"https://www.zillow.com/homedetails/413-Center-Ave-Pittsburgh-PA-15215/11335071_zpid/","","","365000","365000","1399","128100","10/13/2023","1120","sqft","325.89","2500.34","sqft","145.98","3","1","","Julie Rost","No","No","","413 Center Ave","Pittsburgh","15215","PA","USA","40.493458","-79.904045"
"https://www.zillow.com/homedetails/324-Newburn-Dr-Pittsburgh-PA-15216/11658433_zpid/","","","365000","375400","2100","182800","10/13/2023","1556","sqft","234.58","8820.9","sqft","41.38","3","3","","Maria Holzworth","No","No","","324 Newburn Dr","Pittsburgh","15216","PA","USA","40.39307","-80.0532"
"https://www.zillow.com/homedetails/2374-Jenkinson-Dr-Pittsburgh-PA-15237/11643028_zpid/","","","364000","364000","2364","196000","10/10/2023","1776","sqft","204.95","0.66","acres","554708.93","3","3","","Jeffrey Varga","No","No","","2374 Jenkinson Dr","Pittsburgh","15237","PA","USA","40.586273","-80.07225"
"https://www.zillow.com/homedetails/4736-Kincaid-St-Pittsburgh-PA-15224/11519500_zpid/","","","365000","","2284","81300","10/05/2023","","","","5105.23","sqft","71.5","3","3","","Ally Mahon","No","No","","4736 Kincaid St","Pittsburgh","15224","PA","USA","40.468388","-79.94668"
"https://www.zillow.com/homedetails/8050-Remington-Dr-Pittsburgh-PA-15237/11558998_zpid/","","","356000","356000","2100","159700","10/05/2023","1489","sqft","239.09","10145.12","sqft","35.09","4","3","","Melissa Faulkner","No","No","","8050 Remington Dr","Pittsburgh","15237","PA","USA","40.557648","-80.00789"
"https://www.zillow.com/homedetails/425-Taylor-St-Pittsburgh-PA-15224/11402330_zpid/","","","365000","365000","1514","48000","10/04/2023","","","","2739.92","sqft","133.22","2","2","","Ryan Shedlock","No","No","","425 Taylor St","Pittsburgh","15224","PA","USA","40.460636","-79.95208"
"https://www.zillow.com/homedetails/205-Dorseyville-Rd-Pittsburgh-PA-15215/11411294_zpid/","","","365000","365000","1742","139100","10/04/2023","","","","0.83","acres","441674.73","3","2","","Todd Killmeyer","No","No","","205 Dorseyville Rd","Pittsburgh","15215","PA","USA","40.515797","-79.93407"
"https://www.zillow.com/homedetails/171-Pilgrim-Dr-Sewickley-PA-15143/11614481_zpid/","","","355500","355500","2500","203800","10/04/2023","2080","sqft","170.91","0.33","acres","1089154.41","3","3","","Robyn Jones","No","No","","171 Pilgrim Dr","Sewickley","15143","PA","USA","40.572952","-80.21184"
"https://www.zillow.com/homedetails/136-Lakeview-Dr-Mc-Kees-Rocks-PA-15136/11365083_zpid/","","","365000","365000","2500","191800","10/03/2023","1976","sqft","184.72","0.32","acres","1140625","4","4","","Erin Cucarese","No","No","","136 Lakeview Dr","Mc Kees Rocks","15136","PA","USA","40.46127","-80.127266"
"https://www.zillow.com/homedetails/52-Little-Sewickley-Creek-Rd-Sewickley-PA-15143/11587519_zpid/","","","365000","376300","3411","400000","09/29/2023","2714","sqft","134.49","2.18","acres","167431.19","3","3","","Libby Sosinski","No","No","","52 Little Sewickley Creek Rd","Sewickley","15143","PA","USA","40.56049","-80.19078"
"https://www.zillow.com/homedetails/4696-Marina-Dr-Homestead-PA-15120/11640645_zpid/","","","358000","358000","1650","125000","09/28/2023","2103","sqft","170.23","7609.93","sqft","47.04","4","4","","Mary Frances Miller","No","No","","4696 Marina Dr","Homestead","15120","PA","USA","40.389122","-79.921425"
"https://www.zillow.com/homedetails/102-Morelli-Dr-Pittsburgh-PA-15237/11410025_zpid/","","","365000","365000","1999","148500","09/27/2023","","","","10132.06","sqft","36.02","3","2","","Wendy Martin","No","No","","102 Morelli Dr","Pittsburgh","15237","PA","USA","40.511974","-79.99916"
"https://www.zillow.com/homedetails/5145-Colewood-Dr-Pittsburgh-PA-15236/11469401_zpid/","","","360000","360000","1550","118900","09/22/2023","1851","sqft","194.49","0.42","acres","857142.86","5","4","","Elisa Ciotti","No","No","","5145 Colewood Dr","Pittsburgh","15236","PA","USA","40.343422","-79.99033"
"https://www.zillow.com/homedetails/1333-Hazenwood-Dr-Monroeville-PA-15146/11654320_zpid/","","","355000","355000","2966","220600","09/20/2023","2700","sqft","131.48","0.25","acres","1402607.66","4","4","","Tanisha Lydic","No","No","","1333 Hazenwood Dr","Monroeville","15146","PA","USA","40.41069","-79.73871"
"https://www.zillow.com/homedetails/503-Long-Dr-Pittsburgh-PA-15241/11432421_zpid/","","","365000","364900","1999","146200","09/15/2023","1632","sqft","223.65","0.38","acres","955497.38","4","3","","Denise Marasco","No","No","","503 Long Dr","Pittsburgh","15241","PA","USA","40.354065","-80.06299"
"https://www.zillow.com/homedetails/2126-Middle-Rd-Glenshaw-PA-15116/11527033_zpid/","","","363000","362900","1999","163600","09/12/2023","","","","1.18","acres","308936.17","3","3","","Jason Rakers","No","No","","2126 Middle Rd","Glenshaw","15116","PA","USA","40.54813","-79.934525"
"https://www.zillow.com/homedetails/1542-Hawthorne-St-Pittsburgh-PA-15201/11275464_zpid/","","","360000","359900","1779","106600","09/11/2023","2316","sqft","155.44","4647.85","sqft","77.46","3","2","","Katie Boutros","No","No","","1542 Hawthorne St","Pittsburgh","15201","PA","USA","40.48581","-79.933395"
"https://www.zillow.com/homedetails/2017-Karen-Dr-Pittsburgh-PA-15237/11521578_zpid/","","","357000","356900","2999","232300","09/11/2023","","","","9491.72","sqft","37.61","3","3","","Georgie Smigel","No","No","","2017 Karen Dr","Pittsburgh","15237","PA","USA","40.54539","-80.06506"
"https://www.zillow.com/homedetails/6467-Quaker-Dr-Pittsburgh-PA-15236/11547036_zpid/","","","357000","356900","2570","187900","09/11/2023","2016","sqft","177.08","0.76","acres","471660.72","3","3","","Carri Czyzewski","No","No","","6467 Quaker Dr","Pittsburgh","15236","PA","USA","40.319843","-79.98759"
"https://www.zillow.com/homedetails/509-Northview-Dr-Glenshaw-PA-15116/11442959_zpid/","","","360000","360700","2500","180500","09/08/2023","2146","sqft","167.75","0.31","acres","1165425.7","4","3","","Krista Lorenzo","No","No","","509 Northview Dr","Glenshaw","15116","PA","USA","40.527943","-79.976135"
"https://www.zillow.com/homedetails/109-Aber-Dr-Clairton-PA-15025/11545927_zpid/","","","365000","364900","1674","97900","09/08/2023","","","","0.54","acres","678943.45","4","3","","Lynn Nix","No","No","","109 Aber Dr","Clairton","15025","PA","USA","40.318504","-79.92305"
"https://www.zillow.com/homedetails/422-Meade-Dr-Coraopolis-PA-15108/11612089_zpid/","","","360000","359900","2205","182500","09/08/2023","1839","sqft","195.76","0.25","acres","1417881.06","4","3","","Laura Palmer","No","No","","422 Meade Dr","Coraopolis","15108","PA","USA","40.533516","-80.244545"
"https://www.zillow.com/homedetails/1821-Tragone-Dr-Pittsburgh-PA-15241/11433316_zpid/","","","365000","358800","2444","211500","09/05/2023","1944","sqft","187.76","0.29","acres","1245733.79","4","3","","Liz Fecko","No","No","","1821 Tragone Dr","Pittsburgh","15241","PA","USA","40.351295","-80.07902"
"https://www.zillow.com/homedetails/444-Woodland-Hills-Dr-Pittsburgh-PA-15235/11454935_zpid/","","","365000","364700","1636","133700","09/01/2023","","","","9659","sqft","37.79","3","3","","Lee Borellis","No","No","","444 Woodland Hills Dr","Pittsburgh","15235","PA","USA","40.430256","-79.83673"
"https://www.zillow.com/homedetails/4021-Saline-St-Pittsburgh-PA-15217/11636411_zpid/","","","365000","365000","2361","227000","09/01/2023","","","","4181.76","sqft","87.28","4","4","","Sara Leitera","No","No","","4021 Saline St","Pittsburgh","15217","PA","USA","40.42465","-79.92567"
"https://www.zillow.com/homedetails/3975-Mimosa-Dr-Bethel-Park-PA-15102/11578743_zpid/","","","362500","362400","2400","176100","08/31/2023","1890","sqft","191.8","0.3","acres","1196369.64","4","3","","Mark Ratti","No","No","","3975 Mimosa Dr","Bethel Park","15102","PA","USA","40.316242","-80.023415"
"https://www.zillow.com/homedetails/6320-Caton-St-Pittsburgh-PA-15217/11636602_zpid/","","","362000","361900","1800","151100","08/31/2023","1300","sqft","278.46","2752.99","sqft","131.49","3","1","","Sherri Mayer","No","No","","6320 Caton St","Pittsburgh","15217","PA","USA","40.423664","-79.9232"
"https://www.zillow.com/homedetails/1109-Island-Ave-Pittsburgh-PA-15212/11499464_zpid/","","","360000","360000","1599","45200","08/30/2023","2166","sqft","166.2","1559.45","sqft","230.85","4","2","","Brian Czapor","No","No","","1109 Island Ave","Pittsburgh","15212","PA","USA","40.463272","-80.024216"
"https://www.zillow.com/homedetails/1268-Cairn-Dr-Bethel-Park-PA-15102/11607385_zpid/","","","355000","354900","2400","190000","08/29/2023","1847","sqft","192.2","0.56","acres","633928.57","4","3","","Ruth Weigers","No","No","","1268 Cairn Dr","Bethel Park","15102","PA","USA","40.29895","-80.03177"
"https://www.zillow.com/homedetails/1975-Ridge-Rd-South-Park-PA-15129/11578535_zpid/","","","361500","361600","2740","180000","08/28/2023","2384","sqft","151.64","0.41","acres","892592.59","4","3","","Rachel Marchionda","No","No","","1975 Ridge Rd","South Park","15129","PA","USA","40.30763","-79.99037"
"https://www.zillow.com/homedetails/5854-Hobart-St-Pittsburgh-PA-15217/11632021_zpid/","","","355000","355100","2429","188300","08/28/2023","","","","5201.06","sqft","68.26","5","2","","Sara Leitera","No","No","","5854 Hobart St","Pittsburgh","15217","PA","USA","40.43377","-79.920784"
"https://www.zillow.com/homedetails/9939-Neuhart-Blvd-Wexford-PA-15090/11258414_zpid/","","","360000","360100","2034","173800","08/25/2023","1633","sqft","220.45","0.5","acres","720000","3","2","","Zita Billmann","No","No","","9939 Neuhart Blvd","Wexford","15090","PA","USA","40.590584","-80.04081"
"https://www.zillow.com/homedetails/838-Spring-Garden-Ave-Pittsburgh-PA-15212/11394737_zpid/","","","360000","359700","1650","201200","08/23/2023","1704","sqft","211.27","2178","sqft","165.29","3","2","","Charlene Haislip","No","No","","838 Spring Garden Ave","Pittsburgh","15212","PA","USA","40.45772","-79.99644"
"https://www.zillow.com/homedetails/404-Winfred-Manor-Dr-Bethel-Park-PA-15102/11509510_zpid/","","","368000","368100","2267","181700","08/22/2023","1683","sqft","218.66","0.29","acres","1268528.09","4","3","","Ralph Harvey","No","No","","404 Winfred Manor Dr","Bethel Park","15102","PA","USA","40.3281","-80.042274"
"https://www.zillow.com/homedetails/2608-Center-St-Bethel-Park-PA-15102/11471401_zpid/","","","365000","365000","1817","242100","08/21/2023","1867","sqft","195.5","0.33","acres","1112804.88","3","2","","Krista Lorenzo","No","No","","2608 Center St","Bethel Park","15102","PA","USA","40.33727","-80.03215"
"https://www.zillow.com/homedetails/1832-Ley-St-Pittsburgh-PA-15212/11512360_zpid/","","","360000","360200","1793","40100","08/17/2023","","","","0.6","acres","600000","4","5","","Lynn Dempsey","No","No","","1832 Ley St","Pittsburgh","15212","PA","USA","40.465572","-79.98218"
"https://www.zillow.com/homedetails/132-N-Jamestown-Rd-Coraopolis-PA-15108/11553874_zpid/","","","358250","358500","2110","230000","08/17/2023","1677","sqft","213.63","0.47","acres","757079.46","3","3","","Nicholas Fix","No","No","","132 N Jamestown Rd","Coraopolis","15108","PA","USA","40.53256","-80.20931"
"https://www.zillow.com/homedetails/6346-Walnut-St-Pittsburgh-PA-15206/11625139_zpid/","","","361888","344400","2141","279700","08/11/2023","","","","2090.88","sqft","173.08","5","1","","Maureen States","No","No","","6346 Walnut St","Pittsburgh","15206","PA","USA","40.455414","-79.920204"
"https://www.zillow.com/homedetails/2110-Lorenzi-Ln-Mc-Kees-Rocks-PA-15136/11365235_zpid/","","","357000","357000","2398","162500","08/09/2023","1853","sqft","192.66","0.41","acres","866294.59","3","3","","Sara Minshull","No","No","","2110 Lorenzi Ln","Mc Kees Rocks","15136","PA","USA","40.45911","-80.12208"
"https://www.zillow.com/homedetails/202-Dana-Dr-Sewickley-PA-15143/333136146_zpid/","","","359265","","2067","400","08/09/2023","","","","2870","sqft","125.18","","","","","No","No","","202 Dana Dr","Sewickley","15143","PA","USA","40.565063","-80.10573"
"https://www.zillow.com/homedetails/138-Alta-Vista-Dr-Imperial-PA-15126/338888172_zpid/","","","360555","","999","2000","08/09/2023","","","","8292","sqft","43.48","","","","","No","No","","138 Alta Vista Dr","Imperial","15126","PA","USA","40.45173","-80.25669"
"https://www.zillow.com/homedetails/654-Edward-Dr-Carnegie-PA-15106/11256256_zpid/","","","360000","360000","2250","192300","08/08/2023","1688","sqft","213.27","10611.22","sqft","33.93","3","3","","John Sergeant","No","No","","654 Edward Dr","Carnegie","15106","PA","USA","40.416668","-80.090546"
"https://www.zillow.com/homedetails/259-Ashland-Ave-Pittsburgh-PA-15228/11312347_zpid/","","","360000","359400","1700","182400","08/08/2023","1458","sqft","246.91","5005.04","sqft","71.93","3","2","","John Adair","No","No","","259 Ashland Ave","Pittsburgh","15228","PA","USA","40.375305","-80.0409"
"https://www.zillow.com/homedetails/1611-Branning-Rd-Pittsburgh-PA-15235/11454152_zpid/","","","365000","365000","2526","176100","08/04/2023","2563","sqft","142.41","0.28","acres","1324863.88","4","3","","Anthony DiThomas","No","No","","1611 Branning Rd","Pittsburgh","15235","PA","USA","40.44054","-79.84208"
"https://www.zillow.com/homedetails/23-Woodland-Farms-Rd-Pittsburgh-PA-15238/11487668_zpid/","","","366000","365400","1488","199000","08/04/2023","1350","sqft","271.11","0.87","acres","420158.42","2","1","","Annette Ganassi","No","No","","23 Woodland Farms Rd","Pittsburgh","15238","PA","USA","40.53911","-79.87468"
"https://www.zillow.com/homedetails/420-W-Swissvale-Ave-Pittsburgh-PA-15218/11344094_zpid/","","","355000","354500","2370","185000","07/31/2023","","","","1354.68","sqft","262.05","5","3","","Stefanie Behrend","No","No","","420 W Swissvale Ave","Pittsburgh","15218","PA","USA","40.42938","-79.88997"
"https://www.zillow.com/homedetails/51-Collinwood-Dr-Pittsburgh-PA-15215/11373856_zpid/","","","355000","355000","2034","219700","07/31/2023","1635","sqft","217.13","0.46","acres","773252.01","4","2","","Laura Sauereisen","No","No","","51 Collinwood Dr","Pittsburgh","15215","PA","USA","40.504677","-79.92221"
"https://www.zillow.com/homedetails/212-Horseshoe-Cir-Bridgeville-PA-15017/59856159_zpid/","","","355000","355000","2635","183500","07/31/2023","2182","sqft","162.69","0.34","acres","1041361.1","4","3","","Marjory Stawiarski","No","No","","212 Horseshoe Cir","Bridgeville","15017","PA","USA","40.329865","-80.127396"
"https://www.zillow.com/homedetails/3520-Huntertown-Rd-Allison-Park-PA-15101/11277072_zpid/","","","362000","361600","1983","171400","07/28/2023","1930","sqft","187.56","10018.8","sqft","36.13","4","3","","Katie Rau","No","No","","3520 Huntertown Rd","Allison Park","15101","PA","USA","40.60438","-79.91344"
"https://www.zillow.com/homedetails/171-Alta-Vista-Dr-Imperial-PA-15126/338888157_zpid/","","","355640","","996","2500","07/28/2023","","","","8434","sqft","42.17","","","","","No","No","","171 Alta Vista Dr","Imperial","15126","PA","USA","40.45109","-80.25509"
"https://www.zillow.com/homedetails/479-Haverhill-Rd-Pittsburgh-PA-15228/11310146_zpid/","","","357000","356600","2264","182700","07/26/2023","1811","sqft","197.13","9417.67","sqft","37.91","2","3","","Mary Ketchum","No","No","","479 Haverhill Rd","Pittsburgh","15228","PA","USA","40.37874","-80.024254"
"https://www.zillow.com/homedetails/5924-Elgin-St-Pittsburgh-PA-15206/11620584_zpid/","","","358076","357600","1714","147300","07/26/2023","","","","2718.14","sqft","131.74","3","3","","Dorothy Klingensmith","No","No","","5924 Elgin St","Pittsburgh","15206","PA","USA","40.475956","-79.91862"
"https://www.zillow.com/homedetails/1442-Sandstone-Ct-W-Tarentum-PA-15084/64877403_zpid/","","","354900","354500","2429","183900","07/26/2023","","","","0.26","acres","1365000","4","3","","Kim Van Horn","No","No","","1442 Sandstone Ct W","Tarentum","15084","PA","USA","40.6316","-79.86048"
"https://www.zillow.com/homedetails/124-Mason-Dr-Glenshaw-PA-15116/11443555_zpid/","","","363250","362900","1694","127100","07/25/2023","1431","sqft","253.84","0.26","acres","1416731.67","3","4","","Aubre Stacknick","No","No","","124 Mason Dr","Glenshaw","15116","PA","USA","40.5259","-79.96681"
"https://www.zillow.com/homedetails/246-46th-St-Pittsburgh-PA-15201/67344688_zpid/","","","355000","354600","1999","67300","07/25/2023","","","","871.2","sqft","407.48","4","1","","Ronald Huber","No","No","","246 46th St","Pittsburgh","15201","PA","USA","40.471615","-79.95746"
"https://www.zillow.com/homedetails/459-Pearl-St-Pittsburgh-PA-15224/11402954_zpid/","","","367500","367100","1834","38000","07/24/2023","1915","sqft","191.91","1598.65","sqft","229.88","3","3","","Stephanie Fresh","No","No","","459 Pearl St","Pittsburgh","15224","PA","USA","40.459354","-79.95182"
"https://www.zillow.com/homedetails/10087-Mansion-Dr-Gibsonia-PA-15044/11258671_zpid/","","","360000","360700","1999","284400","07/20/2023","1680","sqft","214.29","3354.12","sqft","107.33","3","2","","Michelle Mattioli","No","No","","10087 Mansion Dr","Gibsonia","15044","PA","USA","40.596058","-79.992714"
"https://www.zillow.com/homedetails/141-Alta-Vista-Dr-Imperial-PA-15126/338888142_zpid/","","","354345","","999","2500","07/20/2023","","","","0.25","acres","1400532.46","","","","","No","No","","141 Alta Vista Dr","Imperial","15126","PA","USA","40.45161","-80.25771"
"https://www.zillow.com/homedetails/126-Penn-Lear-Dr-Monroeville-PA-15146/11630222_zpid/","","","358000","358700","1772","187300","07/19/2023","3500","sqft","102.29","8921.09","sqft","40.13","5","3","","Lindy Sgambati-Cox","No","No","","126 Penn Lear Dr","Monroeville","15146","PA","USA","40.39955","-79.7581"
"https://www.zillow.com/homedetails/8951-Harmony-Dr-Pittsburgh-PA-15237/87989710_zpid/","","","359000","357500","3413","207600","07/18/2023","2656","sqft","135.17","4125.13","sqft","87.03","3","4","","Tina Groce","No","No","","8951 Harmony Dr","Pittsburgh","15237","PA","USA","40.56876","-80.05161"
"https://www.zillow.com/homedetails/201-5th-St-Oakmont-PA-15139/11447945_zpid/","","","365500","366400","1677","153600","07/14/2023","1714","sqft","213.24","5052.96","sqft","72.33","3","2","","Brock Hanna","No","No","","201 5th St","Oakmont","15139","PA","USA","40.513943","-79.84004"
"https://www.zillow.com/homedetails/422-Winfred-Manor-Dr-Bethel-Park-PA-15102/11509506_zpid/","","","365000","365600","1879","90000","07/14/2023","1503","sqft","242.85","10731","sqft","34.01","3","2","","","No","No","","422 Winfred Manor Dr","Bethel Park","15102","PA","USA","40.328064","-80.041664"
"https://www.zillow.com/homedetails/6743-Elk-Rush-Dr-Imperial-PA-15126/59850866_zpid/","","","360000","361000","2258","168900","07/13/2023","1963","sqft","183.39","10315.01","sqft","34.9","4","3","","Brian Larson","No","No","","6743 Elk Rush Dr","Imperial","15126","PA","USA","40.448875","-80.21859"
"https://www.zillow.com/homedetails/1434-Macon-Ave-Pittsburgh-PA-15218/11344283_zpid/","","","367000","367700","1497","244600","07/12/2023","1088","sqft","337.32","3001.28","sqft","122.28","3","1","","Sara Minshull","No","No","","1434 Macon Ave","Pittsburgh","15218","PA","USA","40.427383","-79.89427"
"https://www.zillow.com/homedetails/499-Locust-Ln-Pittsburgh-PA-15241/11398378_zpid/","","","362000","362700","2316","161000","07/10/2023","1778","sqft","203.6","0.39","acres","928205.13","3","3","","John Geisler","No","No","","499 Locust Ln","Pittsburgh","15241","PA","USA","40.355743","-80.0588"
"https://www.zillow.com/homedetails/27-4th-St-Pittsburgh-PA-15215/11335245_zpid/","","","355000","355800","1688","177300","07/05/2023","1808","sqft","196.35","2500","sqft","142","3","1.5","","","No","No","","27 4th St","Pittsburgh","15215","PA","USA","40.49382","-79.906906"
"https://www.zillow.com/homedetails/109-Overdale-Rd-Pittsburgh-PA-15221/11419131_zpid/","","","363000","364000","2353","186300","06/30/2023","2195","sqft","165.38","8394.01","sqft","43.25","4","3","","Marlene Lotzmann","No","No","","109 Overdale Rd","Pittsburgh","15221","PA","USA","40.430504","-79.86581"
"https://www.zillow.com/homedetails/716-Hopkins-St-Sewickley-PA-15143/11480371_zpid/","","","360000","361000","1610","161000","06/30/2023","1400","sqft","257.14","5227.2","sqft","68.87","3","2","","Robyn Jones","No","No","","716 Hopkins St","Sewickley","15143","PA","USA","40.53973","-80.17507"
"https://www.zillow.com/homedetails/5031-Lakeview-Dr-Gibsonia-PA-15044/11275941_zpid/","","","355065","346700","1999","171200","06/29/2023","1324","sqft","268.18","0.5","acres","717303.03","3","2","","Zita Billmann","No","No","","5031 Lakeview Dr","Gibsonia","15044","PA","USA","40.608017","-79.96711"
"https://www.zillow.com/homedetails/107-Jarod-Dr-Coraopolis-PA-15108/11517811_zpid/","","","365000","366200","2466","177700","06/28/2023","1770","sqft","206.21","0.41","acres","901012.1","3","4","","Pam Firth","No","No","","107 Jarod Dr","Coraopolis","15108","PA","USA","40.529636","-80.19723"
"https://www.zillow.com/homedetails/4724-Kincaid-St-Pittsburgh-PA-15224/11519443_zpid/","","","360000","361400","1900","76700","06/23/2023","","","","4791.6","sqft","75.13","4","2","","Maria Simonovsky","No","No","","4724 Kincaid St","Pittsburgh","15224","PA","USA","40.468815","-79.94689"
"https://www.zillow.com/homedetails/238-Kinvara-Dr-Pittsburgh-PA-15237/11523974_zpid/","","","365000","366500","2166","154600","06/23/2023","1444","sqft","252.77","0.36","acres","1022408.96","3","3","","Dawn Ross","No","No","","238 Kinvara Dr","Pittsburgh","15237","PA","USA","40.540165","-79.99878"
"https://www.zillow.com/homedetails/471-Fruitwood-Dr-Bethel-Park-PA-15102/11580301_zpid/","","","365000","366500","2189","136800","06/23/2023","1662","sqft","219.61","8772.98","sqft","41.61","4","3","","Sue Musulin","No","No","","471 Fruitwood Dr","Bethel Park","15102","PA","USA","40.310284","-80.06321"
"https://www.zillow.com/homedetails/305-Meadow-Ct-Monroeville-PA-15146/11599877_zpid/","","","360000","361400","2889","164500","06/23/2023","2311","sqft","155.78","0.34","acres","1054172.77","3","4","","Brian Larson","No","No","","305 Meadow Ct","Monroeville","15146","PA","USA","40.456547","-79.76854"
"https://www.zillow.com/homedetails/603-Meade-Dr-Coraopolis-PA-15108/11612067_zpid/","","","360000","361400","2535","169900","06/23/2023","","","","10454.4","sqft","34.44","4","3","","Beth Ali","No","No","","603 Meade Dr","Coraopolis","15108","PA","USA","40.535755","-80.24165"
"https://www.zillow.com/homedetails/231-Limerick-Rd-Wexford-PA-15090/11657497_zpid/","","","360000","361400","1999","164900","06/23/2023","1603","sqft","224.58","0.48","acres","750000","3","2","","Nancy Evans","No","No","","231 Limerick Rd","Wexford","15090","PA","USA","40.622765","-80.0596"
"https://www.zillow.com/homedetails/4120-Woodland-Ave-South-Park-PA-15129/338888133_zpid/","","","366240","","1500","7700","06/23/2023","","","","9233","sqft","39.67","","","","","No","No","","4120 Woodland Ave","South Park","15129","PA","USA","40.289623","-80.019936"
"https://www.zillow.com/homedetails/228-Clifton-Ave-Pittsburgh-PA-15215/11333916_zpid/","","","365000","366500","2500","220000","06/22/2023","","","","2500.34","sqft","145.98","4","3","","Brandi Cugini","No","No","","228 Clifton Ave","Pittsburgh","15215","PA","USA","40.496796","-79.92833"
"https://www.zillow.com/homedetails/440-Pine-Creek-Rd-Wexford-PA-15090/11257992_zpid/","","","365000","366600","1849","175000","06/21/2023","1450","sqft","251.72","1.47","acres","248299.32","3","2","","Mindy Pry","No","No","","440 Pine Creek Rd","Wexford","15090","PA","USA","40.59338","-80.06277"
"https://www.zillow.com/homedetails/259-Randy-Ln-Coraopolis-PA-15108/11518518_zpid/","","","362000","363600","2500","181400","06/20/2023","1710","sqft","211.7","0.37","acres","991780.82","3","3","","Maria Holzworth","No","No","","259 Randy Ln","Coraopolis","15108","PA","USA","40.534924","-80.19716"
"https://www.zillow.com/homedetails/5159-Penn-Ave-Pittsburgh-PA-15224/11520288_zpid/","","","363500","365200","1997","228800","06/20/2023","2020","sqft","179.95","1999.4","sqft","181.8","3","2","","Krisztian Burzuk","No","No","","5159 Penn Ave","Pittsburgh","15224","PA","USA","40.46484","-79.94061"
"https://www.zillow.com/homedetails/611-Winfield-St-Bridgeville-PA-15017/11434743_zpid/","","","360500","362400","2100","169000","06/16/2023","1759","sqft","204.95","7200.47","sqft","50.07","3","3","","Dione Cahillane","No","No","","611 Winfield St","Bridgeville","15017","PA","USA","40.350033","-80.10548"
"https://www.zillow.com/homedetails/2375-Norton-Rd-Pittsburgh-PA-15241/11549771_zpid/","","","365000","366900","2765","207000","06/16/2023","2352","sqft","155.19","0.51","acres","716107.51","4","3","","Diane Horvath","No","No","","2375 Norton Rd","Pittsburgh","15241","PA","USA","40.318176","-80.075775"
"https://www.zillow.com/homedetails/355-Nelson-Dr-Monroeville-PA-15146/337926740_zpid/","","","359715","","1579","700","06/16/2023","","","","0.4","acres","902135.15","","","","","No","No","","355 Nelson Dr","Monroeville","15146","PA","USA","40.457954","-79.779915"
"https://www.zillow.com/homedetails/169-Alta-Vista-Dr-Imperial-PA-15126/338888156_zpid/","","","354655","","999","2500","06/16/2023","","","","8629","sqft","41.1","","","","","No","No","","169 Alta Vista Dr","Imperial","15126","PA","USA","40.45126","-80.25519"
"https://www.zillow.com/homedetails/212-W-Sandle-Ave-Pittsburgh-PA-15237/11557845_zpid/","","","365000","367000","1900","156100","06/15/2023","","","","0.4","acres","914786.97","3","2","","Arlene Guastella","No","No","","212 W Sandle Ave","Pittsburgh","15237","PA","USA","40.55791","-80.04154"
"https://www.zillow.com/homedetails/2636-Noblestown-Rd-Pittsburgh-PA-15205/11582680_zpid/","","","365000","367000","2394","163600","06/15/2023","2757","sqft","132.39","0.57","acres","645446.51","5","3","","Roberta Allen","No","No","","2636 Noblestown Rd","Pittsburgh","15205","PA","USA","40.42307","-80.067535"
"https://www.zillow.com/homedetails/2813-Edwards-Way-Pittsburgh-PA-15203/11292134_zpid/","","","355000","357000","1714","258800","06/14/2023","1380","sqft","257.25","1415.7","sqft","250.76","2","2","","Dan Haeck","No","No","","2813 Edwards Way","Pittsburgh","15203","PA","USA","40.423855","-79.96777"
"https://www.zillow.com/homedetails/17-Calhoun-Rd-Elizabeth-PA-15037/11604590_zpid/","","","360000","362000","1794","158000","06/14/2023","1225","sqft","293.88","8.26","acres","43562.44","3","3","","Christina Nahay","No","No","","17 Calhoun Rd","Elizabeth","15037","PA","USA","40.307487","-79.85112"
"https://www.zillow.com/homedetails/937-Fairfield-Ln-Mc-Donald-PA-15057/59851256_zpid/","","","365000","367100","2513","205200","06/13/2023","2176","sqft","167.74","0.46","acres","795206.97","4","3","","Linda Diffendal","No","No","","937 Fairfield Ln","Mc Donald","15057","PA","USA","40.389183","-80.211914"
"https://www.zillow.com/homedetails/822-Stuyvesant-Rd-Pittsburgh-PA-15237/11644042_zpid/","","","355000","357300","2100","193800","06/09/2023","","","","0.34","acres","1030778.16","3","2","","Rachel Novalesi","No","No","","822 Stuyvesant Rd","Pittsburgh","15237","PA","USA","40.579643","-80.023506"
"https://www.zillow.com/homedetails/3544-Maplevue-Dr-Bethel-Park-PA-15102/11580046_zpid/","","","359000","361400","2784","215400","06/08/2023","2543","sqft","141.17","0.86","acres","415993.83","3","2.5","","","No","No","","3544 Maplevue Dr","Bethel Park","15102","PA","USA","40.316296","-80.05794"
"https://www.zillow.com/homedetails/9147-Timberglen-Dr-Imperial-PA-15126/59851373_zpid/","","","355000","357800","2358","194500","06/01/2023","1716","sqft","206.88","0.28","acres","1281588.45","4","4","","Chris Britt","No","No","","9147 Timberglen Dr","Imperial","15126","PA","USA","40.450657","-80.21614"
"https://www.zillow.com/homedetails/115-Maple-Cir-Elizabeth-PA-15037/67338757_zpid/","","","365000","367900","2952","341300","06/01/2023","2630","sqft","138.78","0.42","acres","878248.32","4","4","","Lauren Romano","No","No","","115 Maple Cir","Elizabeth","15037","PA","USA","40.258827","-79.85938"
"https://www.zillow.com/homedetails/3520-Perrysville-Ave-Pittsburgh-PA-15214/11270738_zpid/","","","355000","357900","3085","28400","05/31/2023","2553","sqft","139.05","7039.3","sqft","50.43","4","4","","Paul Wang","No","No","","3520 Perrysville Ave","Pittsburgh","15214","PA","USA","40.48463","-80.01454"
"https://www.zillow.com/homedetails/175-Almond-Way-Pittsburgh-PA-15201/338887997_zpid/","","","365000","367900","1400","38200","05/31/2023","1300","sqft","280.77","689.11","sqft","529.67","2","2","","Catherine McConnell","No","No","","175 Almond Way","Pittsburgh","15201","PA","USA","40.469852","-79.96262"
"https://www.zillow.com/homedetails/144-Cobblestone-Dr-Pittsburgh-PA-15237/119345993_zpid/","","","355889","358900","2129","269000","05/30/2023","1852","sqft","192.16","6725.66","sqft","52.92","2","2","","Hedy Krenn","No","No","","144 Cobblestone Dr","Pittsburgh","15237","PA","USA","40.539146","-80.08605"
"https://www.zillow.com/homedetails/185-Wunderly-Dr-McKeesport-PA-15133/11542955_zpid/","","","355000","358400","3072","249500","05/26/2023","3285","sqft","108.07","1","acres","355000","3","4","","Cheryl Cook","No","No","","185 Wunderly Dr","McKeesport","15133","PA","USA","40.321445","-79.86308"
"https://www.zillow.com/homedetails/606-Beechwood-Ave-Carnegie-PA-15106/11254184_zpid/","","","358606","362300","1834","81800","05/23/2023","2934","sqft","122.22","9801","sqft","36.59","4","2","","Sherry Cagney","No","No","","606 Beechwood Ave","Carnegie","15106","PA","USA","40.403755","-80.08545"
"https://www.zillow.com/homedetails/261-Atlanta-Dr-Pittsburgh-PA-15228/11313466_zpid/","","","358000","361700","1845","152500","05/23/2023","1524","sqft","234.91","7250","sqft","49.38","3","1.5","","","No","No","","261 Atlanta Dr","Pittsburgh","15228","PA","USA","40.379642","-80.050804"
"https://www.zillow.com/homedetails/533-Summerlea-St-Pittsburgh-PA-15232/11624680_zpid/","","","355000","365600","2100","146200","05/22/2023","1236","sqft","287.22","1280.66","sqft","277.2","3","1","","Nathaniel Nieland","No","No","","533 Summerlea St","Pittsburgh","15232","PA","USA","40.455936","-79.93196"
"https://www.zillow.com/homedetails/701-Copper-Creek-Ln-Wexford-PA-15090/164593033_zpid/","","","355875","2911600","17574","311100","05/22/2023","8875","sqft","40.1","5.05","acres","70470.3","7","8","","","No","No","","701 Copper Creek Ln","Wexford","15090","PA","USA","40.659885","-80.12926"
"https://www.zillow.com/homedetails/5393-Peach-Dr-Gibsonia-PA-15044/11317696_zpid/","","","360000","364200","2605","198300","05/19/2023","","","","0.53","acres","673022.99","4","4","","Alyssa Policella","No","No","","5393 Peach Dr","Gibsonia","15044","PA","USA","40.623165","-79.94129"
"https://www.zillow.com/homedetails/3620-Frazier-St-Pittsburgh-PA-15213/11420186_zpid/","","","365000","369200","2304","143300","05/19/2023","","","","2500.34","sqft","145.98","3","3","","Elizabeth Kofmehl","No","No","","3620 Frazier St","Pittsburgh","15213","PA","USA","40.430058","-79.95502"
"https://www.zillow.com/homedetails/5017-Dolores-Dr-Pittsburgh-PA-15227/11428411_zpid/","","","357295","361400","2364","178200","05/19/2023","1878","sqft","190.25","9099.68","sqft","39.26","3","3","","Lynn Nix","No","No","","5017 Dolores Dr","Pittsburgh","15227","PA","USA","40.35511","-79.97212"
"https://www.zillow.com/homedetails/164-37th-St-Pittsburgh-PA-15201/11512518_zpid/","","","360000","364200","1999","50200","05/19/2023","1760","sqft","204.55","1598.65","sqft","225.19","2","2","","Beth Danchek","No","No","","164 37th St","Pittsburgh","15201","PA","USA","40.466724","-79.966324"
"https://www.zillow.com/homedetails/117-Jarod-Dr-Coraopolis-PA-15108/11517806_zpid/","","","360000","364200","2600","209000","05/19/2023","2088","sqft","172.41","10768.03","sqft","33.43","4","3","","Joe Yost","No","No","","117 Jarod Dr","Coraopolis","15108","PA","USA","40.53051","-80.197075"
"https://www.zillow.com/homedetails/121-Pinoak-Ln-Imperial-PA-15126/59850033_zpid/","","","365000","369200","2293","177800","05/19/2023","","","","7318.08","sqft","49.88","4","3","","Robin Ross","No","No","","121 Pinoak Ln","Imperial","15126","PA","USA","40.44301","-80.224525"
"https://www.zillow.com/homedetails/4620-Davison-St-Pittsburgh-PA-15201/11513035_zpid/","","","355000","345400","1499","63200","05/18/2023","","","","1319.87","sqft","268.97","2","1","","Sarah Madia","No","No","","4620 Davison St","Pittsburgh","15201","PA","USA","40.471542","-79.95581"
"https://www.zillow.com/homedetails/120-Nowalk-Dr-Pittsburgh-PA-15239/67337511_zpid/","","","360000","364300","2969","253500","05/18/2023","2320","sqft","155.17","0.89","acres","405862.46","4","4","","Dora Rudick","No","No","","120 Nowalk Dr","Pittsburgh","15239","PA","USA","40.470787","-79.72069"
"https://www.zillow.com/homedetails/1904-Shelly-Dr-Pittsburgh-PA-15216/11453235_zpid/","","","358000","362400","2355","174900","05/16/2023","","","","6969.6","sqft","51.37","3","3","","Lindsay Trojan","No","No","","1904 Shelly Dr","Pittsburgh","15216","PA","USA","40.408276","-80.03773"
"https://www.zillow.com/homedetails/889-Campmeeting-Rd-Sewickley-PA-15143/11642043_zpid/","","","355000","359800","2749","227300","05/15/2023","2350","sqft","151.06","0.63","acres","563508.49","4","3","","","No","No","","889 Campmeeting Rd","Sewickley","15143","PA","USA","40.58341","-80.1793"
"https://www.zillow.com/homedetails/70-Castle-Shannon-Blvd-Pittsburgh-PA-15228/11312202_zpid/","","","360000","364900","1978","203300","05/12/2023","1977","sqft","182.09","7048.01","sqft","51.08","3","3","","Nicole Gruen","No","No","","70 Castle Shannon Blvd","Pittsburgh","15228","PA","USA","40.37676","-80.04319"
"https://www.zillow.com/homedetails/1167-Greentree-Rd-Pittsburgh-PA-15220/11460423_zpid/","","","367350","372300","2250","162100","05/12/2023","1853","sqft","198.25","9300.06","sqft","39.5","3","3","","Nick Bova","No","No","","1167 Greentree Rd","Pittsburgh","15220","PA","USA","40.40736","-80.051186"
"https://www.zillow.com/homedetails/423-Kingsbrook-Dr-Mc-Donald-PA-15057/59858244_zpid/","","","365000","370000","2734","200000","05/12/2023","2216","sqft","164.71","0.45","acres","810750.78","4","3","","Raymond Carnevali","No","No","","423 Kingsbrook Dr","Mc Donald","15057","PA","USA","40.368935","-80.1496"
"https://www.zillow.com/homedetails/889-Camp-Meeting-Rd-Sewickley-PA-15143/2062907663_zpid/","","","355000","","1294","","05/12/2023","2350","sqft","151.06","0.63","acres","565106.65","4","3","","Tirzah DeCaria","No","No","","889 Camp Meeting Rd","Sewickley","15143","PA","USA","",""
"https://www.zillow.com/homedetails/47-Churchill-Rd-Pittsburgh-PA-15235/11454382_zpid/","","","354900","359800","1535","168900","05/11/2023","","","","0.34","acres","1030629.6","3","2","","Karen Sherer","No","No","","47 Churchill Rd","Pittsburgh","15235","PA","USA","40.436382","-79.83558"
"https://www.zillow.com/homedetails/6025-Hawthorn-Dr-Coraopolis-PA-15108/164705828_zpid/","","","362000","367100","2500","203100","05/10/2023","1944","sqft","186.21","10454.4","sqft","34.63","4","3","","Rosanna Coccoli","No","No","","6025 Hawthorn Dr","Coraopolis","15108","PA","USA","40.52608","-80.26187"
"https://www.zillow.com/homedetails/2334-Haven-Ct-Sewickley-PA-15143/11642874_zpid/","","","355000","360200","1999","215000","05/08/2023","1420","sqft","250","2.15","acres","165270.02","3","2","","Jill Stehnach","No","No","","2334 Haven Ct","Sewickley","15143","PA","USA","40.58026","-80.08937"
"https://www.zillow.com/homedetails/243-Crestmont-Rd-Pittsburgh-PA-15237/11643878_zpid/","","","360000","365300","1998","225000","05/08/2023","1739","sqft","207.02","0.49","acres","737704.92","3","3","","Judi Sahayda","No","No","","243 Crestmont Rd","Pittsburgh","15237","PA","USA","40.581673","-80.03455"
"https://www.zillow.com/homedetails/33-Watson-Blvd-Pittsburgh-PA-15214/11609657_zpid/","","","362500","368500","3499","120500","05/02/2023","2950","sqft","122.88","4460.54","sqft","81.27","6","3","","Kaedi Knepshield","No","No","","33 Watson Blvd","Pittsburgh","15214","PA","USA","40.47849","-80.010445"
"https://www.zillow.com/homedetails/325-Dupont-Dr-Mc-Donald-PA-15057/248643409_zpid/","","","355000","360900","1694","300700","05/01/2023","1767","sqft","200.91","0.4","acres","883964.14","2","2","","","No","No","","325 Dupont Dr","Mc Donald","15057","PA","USA","40.395023","-80.21223"
"https://www.zillow.com/homedetails/1337-Sheffield-St-Pittsburgh-PA-15233/11376312_zpid/","","","360000","","1400","82000","04/26/2023","1442","sqft","249.65","5662.8","sqft","63.57","2","2","","Mario Costanzo","No","No","","1337 Sheffield St","Pittsburgh","15233","PA","USA","40.45288","-80.0258"
"https://www.zillow.com/homedetails/3638-Mintwood-St-Pittsburgh-PA-15201/11514446_zpid/","","","360000","366800","2764","50900","04/25/2023","1608","sqft","223.88","","","","3","2.5","","","No","No","","3638 Mintwood St","Pittsburgh","15201","PA","USA","40.4633","-79.96272"
"https://www.zillow.com/homedetails/20-Setter-Pl-Bethel-Park-PA-15102/11608221_zpid/","","","355000","361900","2666","259200","04/24/2023","2140","sqft","165.89","0.29","acres","1242127.36","4","3","","Becky Beecham","No","No","","20 Setter Pl","Bethel Park","15102","PA","USA","40.29886","-80.03838"
"https://www.zillow.com/homedetails/320-Ophelia-St-Pittsburgh-PA-15213/11413175_zpid/","","","365000","358900","2576","192000","04/21/2023","1905","sqft","191.6","2535.19","sqft","143.97","5","4","","James Maloney","No","No","","320 Ophelia St","Pittsburgh","15213","PA","USA","40.43465","-79.96255"
"https://www.zillow.com/homedetails/1204-Crescent-Boulevard-Ext-Crescent-PA-15046/11586831_zpid/","","","365000","372500","2570","206900","04/21/2023","2140","sqft","170.56","0.61","acres","602310.23","4","3","","Gina Cuccaro","No","No","","1204 Crescent Boulevard Ext","Crescent","15046","PA","USA","40.553753","-80.229034"
"https://www.zillow.com/homedetails/1127-Tidewood-Dr-Bethel-Park-PA-15102/11580528_zpid/","","","362500","370100","2400","174400","04/20/2023","","","","8712","sqft","41.61","4","3","","Richard Charles","No","No","","1127 Tidewood Dr","Bethel Park","15102","PA","USA","40.30843","-80.06271"
"https://www.zillow.com/homedetails/765-Highvue-Rd-Pittsburgh-PA-15228/11309551_zpid/","","","362000","369800","1756","182700","04/18/2023","1628","sqft","222.36","6098.4","sqft","59.36","3","3","","Angie Flowers","No","No","","765 Highvue Rd","Pittsburgh","15228","PA","USA","40.38141","-80.03032"
"https://www.zillow.com/homedetails/300-1-2-45th-St-Pittsburgh-PA-15201/11513067_zpid/","","","365000","373100","1499","70500","04/17/2023","1201","sqft","303.91","1620.43","sqft","225.25","2","2","","Terrence Thurber","No","No","","300 1/2 45th St","Pittsburgh","15201","PA","USA","40.470074","-79.95681"
"https://www.zillow.com/homedetails/322-Weber-Rd-Sewickley-PA-15143/11481373_zpid/","","","365000","373500","1849","152300","04/14/2023","1809","sqft","201.77","0.48","acres","762163.29","2","2","","Robyn Jones","No","No","","322 Weber Rd","Sewickley","15143","PA","USA","40.53542","-80.15325"
"https://www.zillow.com/homedetails/230-Plymouth-St-Pittsburgh-PA-15211/11586139_zpid/","","","358000","366400","2166","83700","04/13/2023","","","","2613.6","sqft","136.98","3","3","","Reed Pirain","No","No","","230 Plymouth St","Pittsburgh","15211","PA","USA","40.43535","-80.02148"
"https://www.zillow.com/homedetails/184-Penhurst-Dr-Pittsburgh-PA-15235/11494566_zpid/","","","362000","370700","2570","216900","04/12/2023","2576","sqft","140.53","0.3","acres","1188834.15","4","3","","Thomas Cahill","No","No","","184 Penhurst Dr","Pittsburgh","15235","PA","USA","40.429497","-79.820946"
"https://www.zillow.com/homedetails/1022-King-Ave-Pittsburgh-PA-15206/11620253_zpid/","","","360000","368600","1627","115300","04/12/2023","1378","sqft","261.25","6799.72","sqft","52.94","3","2","","Marian McGinley","No","No","","1022 King Ave","Pittsburgh","15206","PA","USA","40.47542","-79.92713"
"https://www.zillow.com/homedetails/316-44th-St-Pittsburgh-PA-15201/11513667_zpid/","","","362500","371300","1714","55700","04/11/2023","1144","sqft","316.87","1598.65","sqft","226.75","2","2","","Nancy Ware","No","No","","316 44th St","Pittsburgh","15201","PA","USA","40.469616","-79.957596"
"https://www.zillow.com/homedetails/352-Marshall-Ave-Pittsburgh-PA-15214/11609961_zpid/","","","356000","364000","1494","75700","04/11/2023","2120","sqft","167.92","5954.65","sqft","59.79","4","2","","Matthew Smuts","No","No","","352 Marshall Ave","Pittsburgh","15214","PA","USA","40.47277","-80.015915"
"https://www.zillow.com/homedetails/2369-Trimble-Rd-Pittsburgh-PA-15237/11643037_zpid/","","","365000","374000","2070","172300","04/10/2023","1963","sqft","185.94","0.5","acres","728397.53","4","2","","Monice Ming Tong","No","No","","2369 Trimble Rd","Pittsburgh","15237","PA","USA","40.584522","-80.073685"
"https://www.zillow.com/homedetails/128-Lilac-Ct-Oakdale-PA-15071/59851725_zpid/","","","361500","371100","2635","222700","04/05/2023","2412","sqft","149.88","0.29","acres","1246591.2","4","2.5","","","No","No","","128 Lilac Ct","Oakdale","15071","PA","USA","40.41803","-80.1863"
"https://www.zillow.com/homedetails/173-Banner-Way-Pittsburgh-PA-15201/11512782_zpid/","","","365000","374600","1500","40000","03/30/2023","","","","797.15","sqft","457.88","3","3","","Michael Costanzo","No","No","","173 Banner Way","Pittsburgh","15201","PA","USA","40.470573","-79.96176"
"https://www.zillow.com/homedetails/60-Gregory-St-Pittsburgh-PA-15203/245269680_zpid/","","","357500","367900","2414","213800","03/21/2023","1911","sqft","187.07","3600","sqft","99.31","3","3.5","","","No","No","","60 Gregory St","Pittsburgh","15203","PA","USA","40.42372","-79.97932"
"https://www.zillow.com/homedetails/60-Gregory-St-S-Pittsburgh-PA-15203/2059980556_zpid/","","","357500","","1464","","03/21/2023","1911","sqft","187.07","3598.06","sqft","99.36","3","4","","Michelle Petty","No","No","","60 Gregory St S","Pittsburgh","15203","PA","USA","",""
"https://www.zillow.com/homedetails/6628-Jackson-St-Pittsburgh-PA-15206/11282690_zpid/","","","365375","376600","2234","179100","03/17/2023","1700","sqft","214.93","4356","sqft","83.88","4","2","","Allison Pochapin","No","No","","6628 Jackson St","Pittsburgh","15206","PA","USA","40.47481","-79.91165"
"https://www.zillow.com/homedetails/224-Elm-St-Swissvale-PA-15218/11381702_zpid/","","","355000","332400","1507","97000","03/17/2023","2040","sqft","174.02","3001.28","sqft","118.28","4","3","","Marian Silverstein","No","No","","224 Elm St","Swissvale","15218","PA","USA","40.430553","-79.88155"
"https://www.zillow.com/homedetails/4793-Criss-Rd-Bethel-Park-PA-15102/11471022_zpid/","","","360000","371100","2500","159300","03/17/2023","","","","0.25","acres","1417881.06","5","3","","Benedict Serratore","No","No","","4793 Criss Rd","Bethel Park","15102","PA","USA","40.345566","-80.02294"
"https://www.zillow.com/homedetails/1216-Juniata-St-Pittsburgh-PA-15233/121887503_zpid/","","","358500","369500","2711","128100","03/17/2023","1672","sqft","214.41","3445.6","sqft","104.05","3","3","","Brian Czapor","No","No","","1216 Juniata St","Pittsburgh","15233","PA","USA","40.457664","-80.02403"
"https://www.zillow.com/homedetails/405-Heather-Ln-Pittsburgh-PA-15205/61279290_zpid/","","","360000","372000","2495","241800","03/15/2023","1801","sqft","199.89","0.42","acres","853095.42","4","2.5","","","No","No","","405 Heather Ln","Pittsburgh","15205","PA","USA","40.440704","-80.10677"
"https://www.zillow.com/homedetails/57-Locksley-Dr-Pittsburgh-PA-15235/11454219_zpid/","","","365000","376800","2663","243100","03/13/2023","2000","sqft","182.5","1.76","acres","207977.21","4","3","","Jennifer Collins","No","No","","57 Locksley Dr","Pittsburgh","15235","PA","USA","40.4391","-79.833595"
"https://www.zillow.com/homedetails/8830-Breezewood-Dr-Pittsburgh-PA-15237/11589470_zpid/","","","365000","376800","2224","211000","03/13/2023","1736","sqft","210.25","0.25","acres","1455923.41","3","3","","Becky Boring","No","No","","8830 Breezewood Dr","Pittsburgh","15237","PA","USA","40.565926","-80.05627"
"https://www.zillow.com/homedetails/1377-Lesnett-Rd-Pittsburgh-PA-15241/11434033_zpid/","","","364000","376200","2663","217500","03/10/2023","","","","0.6","acres","611559.14","4","3","","Shannon Gallagher","No","No","","1377 Lesnett Rd","Pittsburgh","15241","PA","USA","40.348732","-80.09318"
"https://www.zillow.com/homedetails/34-Coraopolis-Rd-Coraopolis-PA-15108/11322292_zpid/","","","354500","368300","3214","164000","02/24/2023","2900","sqft","122.24","0.51","acres","689286.41","4","3","","January Dolata","No","No","","34 Coraopolis Rd","Coraopolis","15108","PA","USA","40.48487","-80.10641"
"https://www.zillow.com/homedetails/8912-Perry-Hwy-Pittsburgh-PA-15237/2060484188_zpid/","","","368000","","1599","","02/24/2023","2322","sqft","158.48","1.35","acres","272592.59","3","2","","Molly Finley","No","No","","8912 Perry Hwy","Pittsburgh","15237","PA","USA","40.568493","-80.03669"
"https://www.zillow.com/homedetails/4617-Plummer-St-Pittsburgh-PA-15201/11613377_zpid/","","","355000","369100","1958","160200","02/22/2023","1470","sqft","241.5","1298.09","sqft","273.48","3","2","","Kaedi Knepshield","No","No","","4617 Plummer St","Pittsburgh","15201","PA","USA","40.47426","-79.96006"
"https://www.zillow.com/homedetails/177-Almond-Way-Pittsburgh-PA-15201/2067893078_zpid/","","","359149","374100","1962","","02/17/2023","1230","sqft","291.99","","","","2","2","","","No","No","","177 Almond Way","Pittsburgh","15201","PA","USA","40.469807","-79.96258"
"https://www.zillow.com/homedetails/3540-Maplevue-Dr-Bethel-Park-PA-15102/11580091_zpid/","","","360000","375100","2963","226500","02/07/2023","2646","sqft","136.05","0.45","acres","796989.15","4","4","","Hope Harmotto","No","No","","3540 Maplevue Dr","Bethel Park","15102","PA","USA","40.316544","-80.05756"
"https://www.zillow.com/homedetails/102-Scott-Ave-Glenshaw-PA-15116/11485895_zpid/","","","355119","370700","2500","245000","02/03/2023","1944","sqft","182.67","0.25","acres","1420476","4","3","","Lisa Gasperoni","No","No","","102 Scott Ave","Glenshaw","15116","PA","USA","40.539417","-79.97302"
"https://www.zillow.com/homedetails/1021-Arborwood-Dr-Gibsonia-PA-15044/11317881_zpid/","","","356500","372200","2400","248400","02/02/2023","","","","0.6","acres","594166.67","3","3","","Ashley Giel","No","No","","1021 Arborwood Dr","Gibsonia","15044","PA","USA","40.626766","-79.93117"
"https://www.zillow.com/homedetails/1393-Washington-Rd-Pittsburgh-PA-15228/11396852_zpid/","","","365000","381200","2250","216000","02/01/2023","1766","sqft","206.68","8881.88","sqft","41.09","4","3","","Pamela Michalek-Shirey","No","No","","1393 Washington Rd","Pittsburgh","15228","PA","USA","40.36019","-80.047356"
"https://www.zillow.com/homedetails/2519-Country-Side-Ln-Wexford-PA-15090/11274235_zpid/","","","365000","381400","2400","242000","01/30/2023","1804","sqft","202.33","0.58","acres","629310.34","3","3","","Kylie Lancaster","No","No","","2519 Country Side Ln","Wexford","15090","PA","USA","40.602894","-80.08192"
"https://www.zillow.com/homedetails/17-Melba-Pl-Pittsburgh-PA-15213/11412908_zpid/","","","360000","376900","2100","75000","01/19/2023","1648","sqft","218.45","","","","5","3","","","No","No","","17 Melba Pl","Pittsburgh","15213","PA","USA","40.437183","-79.953636"
"https://www.zillow.com/homedetails/218-Lakeside-Dr-Mc-Kees-Rocks-PA-15136/11365101_zpid/","","","366000","383700","2264","164600","01/12/2023","1742","sqft","210.1","0.56","acres","652290.14","4","3","","Kim Bradley","No","No","","218 Lakeside Dr","Mc Kees Rocks","15136","PA","USA","40.46084","-80.1286"
"https://www.zillow.com/homedetails/1491-Mohican-Dr-Pittsburgh-PA-15228/11397376_zpid/","","","360000","377400","1884","181600","01/12/2023","1425","sqft","252.63","0.38","acres","947368.42","3","2","","Bonnie Detwiler","No","No","","1491 Mohican Dr","Pittsburgh","15228","PA","USA","40.35684","-80.04845"
"https://www.zillow.com/homedetails/3119-Gaylord-Ave-Pittsburgh-PA-15216/11655734_zpid/","","","365000","382700","1949","161000","01/11/2023","2188","sqft","166.82","4403.92","sqft","82.88","4","2","","Robert Dini","No","No","","3119 Gaylord Ave","Pittsburgh","15216","PA","USA","40.389713","-80.03797"
"https://www.zillow.com/homedetails/358-Marbury-Rd-Bethel-Park-PA-15102/11509058_zpid/","","","365000","347900","2043","148400","01/10/2023","1569","sqft","232.63","0.34","acres","1073529.41","3","2","","Joann Robb","No","No","","358 Marbury Rd","Bethel Park","15102","PA","USA","40.33155","-80.04647"
"https://www.zillow.com/homedetails/477-Long-Dr-Pittsburgh-PA-15241/11432452_zpid/","","","360000","377600","3284","231900","01/09/2023","2220","sqft","162.16","0.26","acres","1399767.92","4","4","","","No","No","","477 Long Dr","Pittsburgh","15241","PA","USA","40.35297","-80.061874"
"https://www.zillow.com/homedetails/72-Midway-Dr-Mc-Kees-Rocks-PA-15136/11321787_zpid/","","","355200","372800","2570","197000","01/06/2023","2016","sqft","176.19","0.38","acres","934982.89","4","3","","Kelly Robinson","No","No","","72 Midway Dr","Mc Kees Rocks","15136","PA","USA","40.475296","-80.105545"
"https://www.zillow.com/homedetails/7142-Sansue-Dr-Bethel-Park-PA-15102/11470844_zpid/","","","356500","374300","2903","286100","01/04/2023","2739","sqft","130.16","0.5","acres","713000","4","3","","Robert Moncavage","No","No","","7142 Sansue Dr","Bethel Park","15102","PA","USA","40.336605","-80.01295"
"https://www.zillow.com/homedetails/1226-Breed-St-Pittsburgh-PA-15203/11475219_zpid/","","","365000","383300","2400","223200","01/03/2023","2366","sqft","154.27","1267.6","sqft","287.95","3","3","","Michele Leone","No","No","","1226 Breed St","Pittsburgh","15203","PA","USA","40.42588","-79.9851"
"https://www.zillow.com/homedetails/150-S-16th-St-Pittsburgh-PA-15203/11474785_zpid/","","","365000","384000","2129","166000","12/20/2022","1556","sqft","234.58","1271.95","sqft","286.96","3","2","","Amanda Salem","No","No","","150 S 16th St","Pittsburgh","15203","PA","USA","40.42693","-79.98308"
"https://www.zillow.com/homedetails/4931-Wickloe-Dr-Gibsonia-PA-15044/11276168_zpid/","","","360000","378800","2328","171100","12/19/2022","1760","sqft","204.55","0.34","acres","1053555.75","3","3","","Jen Hannaford","No","No","","4931 Wickloe Dr","Gibsonia","15044","PA","USA","40.601536","-79.95788"
"https://www.zillow.com/homedetails/331-Nelson-Dr-Monroeville-PA-15146/337926769_zpid/","","","358465","","1634","400","12/19/2022","","","","9300","sqft","38.54","","","","","No","No","","331 Nelson Dr","Monroeville","15146","PA","USA","40.456863","-79.777954"
"https://www.zillow.com/homedetails/256-Amity-Rd-Glenshaw-PA-15116/11560100_zpid/","","","366000","385300","2414","187200","12/16/2022","1870","sqft","195.72","10105.92","sqft","36.22","4","3","","Dawn Ross","No","No","","256 Amity Rd","Glenshaw","15116","PA","USA","40.54994","-79.99662"
"https://www.zillow.com/homedetails/1075-Fox-Terrier-Dr-Bethel-Park-PA-15102/11608053_zpid/","","","360000","379000","2570","196300","12/15/2022","2012","sqft","178.93","0.28","acres","1264044.94","4","3","","Jim Dolanch","No","No","","1075 Fox Terrier Dr","Bethel Park","15102","PA","USA","40.30123","-80.03889"
"https://www.zillow.com/homedetails/126-Alta-Vista-Dr-Imperial-PA-15126/338888178_zpid/","","","361950","","1034","2500","12/15/2022","","","","8910","sqft","40.62","","","","","No","No","","126 Alta Vista Dr","Imperial","15126","PA","USA","40.450912","-80.25741"
"https://www.zillow.com/homedetails/6347-Waldron-St-Pittsburgh-PA-15217/11635093_zpid/","","","365000","384300","2500","221100","12/14/2022","2020","sqft","180.69","4050","sqft","90.12","3","2.5","","","No","No","","6347 Waldron St","Pittsburgh","15217","PA","USA","40.43193","-79.916214"
"https://www.zillow.com/homedetails/157-Berryhill-Rd-Glenshaw-PA-15116/11487327_zpid/","","","359900","379200","2240","239900","12/13/2022","1363","sqft","264.05","1","acres","359900","3","3","","","No","No","","157 Berryhill Rd","Glenshaw","15116","PA","USA","40.532684","-79.92802"
"https://www.zillow.com/homedetails/337-Brookside-Blvd-Pittsburgh-PA-15241/72261339_zpid/","","","358000","377200","3351","298900","12/09/2022","2268","sqft","157.85","8346.1","sqft","42.89","4","5","","Barbara Baker","No","No","","337 Brookside Blvd","Pittsburgh","15241","PA","USA","40.337852","-80.06569"
"https://www.zillow.com/homedetails/157-Berryhill-Rd-O-Glenshaw-PA-15116/2060969517_zpid/","","","359900","","1772","","12/08/2022","","","","1.06","acres","341137.44","3","3","","Joe Gdovichin","No","No","# O","157 Berryhill Rd #O","Glenshaw","15116","PA","USA","",""
"https://www.zillow.com/homedetails/248-Alpine-Village-Dr-Cheswick-PA-15024/11259565_zpid/","","","357500","376700","2169","196000","12/07/2022","2458","sqft","145.44","1.49","acres","240256.41","4","2","","","No","No","","248 Alpine Village Dr","Cheswick","15024","PA","USA","40.58941","-79.87372"
"https://www.zillow.com/homedetails/2960-Wildwood-Road-Ext-Allison-Park-PA-15101/11259148_zpid/","","","360000","379400","1999","181400","12/05/2022","1750","sqft","205.71","0.5","acres","719339.45","3","3","","Rita Licnerski","No","No","","2960 Wildwood Road Ext","Allison Park","15101","PA","USA","40.59213","-79.942215"
"https://www.zillow.com/homedetails/1225-Laclair-Ave-Pittsburgh-PA-15218/11344042_zpid/","","","360000","379700","1685","191200","11/30/2022","1452","sqft","247.93","6000","sqft","60","2","1.5","","","No","No","","1225 Laclair Ave","Pittsburgh","15218","PA","USA","40.430195","-79.894356"
"https://www.zillow.com/homedetails/400-Apt-2A-312-Tarentum-PA-15084/2061245661_zpid/","","","360000","","1064","","11/30/2022","","","","","","","","","","","No","No","# 2A-312","400 Apt #2A-312","Tarentum","15084","PA","USA","",""
"https://www.zillow.com/homedetails/113-Shannon-Dr-Pittsburgh-PA-15237/11523984_zpid/","","","355000","374400","2400","188300","11/29/2022","1838","sqft","193.14","0.31","acres","1145530.82","3","3","","Karen Minnitte","No","No","","113 Shannon Dr","Pittsburgh","15237","PA","USA","40.541573","-79.99913"
"https://www.zillow.com/homedetails/60-Warrendale-Bayne-Rd-Warrendale-PA-15086/11657235_zpid/","","","365000","222300","1335","100500","11/23/2022","672","sqft","543.15","1.01","acres","361391.07","2","1","","","No","No","","60 Warrendale Bayne Rd","Warrendale","15086","PA","USA","40.65412","-80.08327"
"https://www.zillow.com/homedetails/729-Venango-Ave-Pittsburgh-PA-15209/11410414_zpid/","","","355000","374600","2966","244000","11/22/2022","2326","sqft","152.62","0.42","acres","845238.1","4","3","","Sonya Clemente","No","No","","729 Venango Ave","Pittsburgh","15209","PA","USA","40.513065","-79.98129"
"https://www.zillow.com/homedetails/764-14th-St-Oakmont-PA-15139/11488907_zpid/","","","365000","385100","1681","192200","11/22/2022","1874","sqft","194.77","0.5","acres","726802.07","3","3","","Timothy Favo","No","No","","764 14th St","Oakmont","15139","PA","USA","40.522224","-79.82425"
"https://www.zillow.com/homedetails/414-Grace-St-Mount-Washington-PA-15211/87802472_zpid/","","","365000","","2850","134800","11/18/2022","1778","sqft","205.29","2252","sqft","162.08","3","3","","","No","No","","414 Grace St","Mount Washington","15211","PA","USA","40.42966","-80.01365"
"https://www.zillow.com/homedetails/120-Weller-Dr-Wexford-PA-15090/11274383_zpid/","","","360000","380100","2295","232600","11/10/2022","1714","sqft","210.04","1.1","acres","327272.73","3","3","","Alyssa Olenych","No","No","","120 Weller Dr","Wexford","15090","PA","USA","40.60733","-80.05409"
"https://www.zillow.com/homedetails/135-Alta-Vista-Dr-Imperial-PA-15126/338888139_zpid/","","","362755","383000","1919","267600","11/10/2022","1352","sqft","268.31","0.26","acres","1389152.33","3","2","","","No","No","","135 Alta Vista Dr","Imperial","15126","PA","USA","40.45108","-80.25796"
"https://www.zillow.com/homedetails/14-Thorncrest-Dr-Pittsburgh-PA-15235/11494497_zpid/","","","360000","380100","2600","160000","11/09/2022","2580","sqft","139.53","0.35","acres","1024182.08","4","3","","Sara Minshull","No","No","","14 Thorncrest Dr","Pittsburgh","15235","PA","USA","40.43498","-79.817024"
"https://www.zillow.com/homedetails/2717-Tischler-Rd-Bethel-Park-PA-15102/11509159_zpid/","","","355000","374800","2149","205000","11/09/2022","1593","sqft","222.85","0.28","acres","1267404.5","4","3","","Lisa Jackson","No","No","","2717 Tischler Rd","Bethel Park","15102","PA","USA","40.332783","-80.03387"
"https://www.zillow.com/homedetails/1664-Montpelier-Ave-Pittsburgh-PA-15216/11571209_zpid/","","","359900","380000","2199","273700","11/09/2022","1747","sqft","206.01","3497.87","sqft","102.89","4","3","","Matthew Shanty","No","No","","1664 Montpelier Ave","Pittsburgh","15216","PA","USA","40.398045","-80.039246"
"https://www.zillow.com/homedetails/6450-Pickering-Ct-Bethel-Park-PA-15102/11471071_zpid/","","","360000","380200","2400","174800","11/07/2022","","","","8712","sqft","41.32","4","3","","Diana Mathison","No","No","","6450 Pickering Ct","Bethel Park","15102","PA","USA","40.34361","-80.016365"
"https://www.zillow.com/homedetails/5010-Oak-Point-Dr-Mc-Kees-Rocks-PA-15136/164264975_zpid/","","","365000","385500","2500","235000","11/04/2022","","","","0.43","acres","846671.31","3","3","","Mark Handlovitch","No","No","","5010 Oak Point Dr","Mc Kees Rocks","15136","PA","USA","40.47227","-80.110756"
"https://www.zillow.com/homedetails/2868-2870-Fernwald-Rd-Pittsburgh-PA-15217/2062385239_zpid/","","","358000","","2092","","11/02/2022","","","","","","","","","","","No","No","","2868-2870 Fernwald Rd","Pittsburgh","15217","PA","USA","",""
"https://www.zillow.com/homedetails/1518-Jenkins-Dr-Pittsburgh-PA-15241/11510582_zpid/","","","360000","380300","2833","238700","10/31/2022","2454","sqft","146.7","0.27","acres","1333356.01","4","3","","","No","No","","1518 Jenkins Dr","Pittsburgh","15241","PA","USA","40.33223","-80.09208"
"https://www.zillow.com/homedetails/3406-Shadeland-Ave-Pittsburgh-PA-15212/11604029_zpid/","","","358500","378700","2643","79400","10/31/2022","2191","sqft","163.62","4469.26","sqft","80.21","5","4","","Betsy Raber","No","No","","3406 Shadeland Ave","Pittsburgh","15212","PA","USA","40.477524","-80.03333"
"https://www.zillow.com/homedetails/121-Partridge-Run-Rd-Gibsonia-PA-15044/11299545_zpid/","","","365000","385600","2500","172800","10/28/2022","2072","sqft","176.16","0.26","acres","1426896.01","4","3","","Matthew McKenna","No","No","","121 Partridge Run Rd","Gibsonia","15044","PA","USA","40.61273","-79.91499"
"https://www.zillow.com/homedetails/200-Bird-Park-Dr-Pittsburgh-PA-15228/11359761_zpid/","","","355000","375000","2331","253300","10/27/2022","","","","","","","4","3","","","No","No","","200 Bird Park Dr","Pittsburgh","15228","PA","USA","40.368248","-80.06073"
"https://www.zillow.com/homedetails/117-Pauline-Dr-Monroeville-PA-15146/11599846_zpid/","","","360000","380300","2705","192200","10/26/2022","2382","sqft","151.13","0.52","acres","698622.16","4","3","","Loreen Abriola","No","No","","117 Pauline Dr","Monroeville","15146","PA","USA","40.456715","-79.77068"
"https://www.zillow.com/homedetails/6005-Parkvue-Drive-Ext-Pittsburgh-PA-15236/11429891_zpid/","","","354005","374000","2570","175000","10/25/2022","2168","sqft","163.29","0.33","acres","1065463.82","3","2.5","","","No","No","","6005 Parkvue Drive Ext","Pittsburgh","15236","PA","USA","40.346767","-79.98413"
"https://www.zillow.com/homedetails/1791-Timothy-Dr-West-Mifflin-PA-15122/11504807_zpid/","","","355000","375000","2984","209400","10/21/2022","2161","sqft","164.28","9265.21","sqft","38.32","4","4","","Mark Ratti","No","No","","1791 Timothy Dr","West Mifflin","15122","PA","USA","40.33598","-79.93238"
"https://www.zillow.com/homedetails/1542-Theresa-Ave-South-Park-PA-15129/11607332_zpid/","","","361000","336900","2363","135000","10/20/2022","","","","0.37","acres","982312.93","3","3","","Amanda Walton","No","No","","1542 Theresa Ave","South Park","15129","PA","USA","40.300903","-80.018585"
"https://www.zillow.com/homedetails/1014-Creekvue-Dr-Gibsonia-PA-15044/11317889_zpid/","","","367500","388000","2400","205100","10/18/2022","2100","sqft","175","0.88","acres","418564.92","4","3","","Linda Honeywill","No","No","","1014 Creekvue Dr","Gibsonia","15044","PA","USA","40.626987","-79.93284"
"https://www.zillow.com/homedetails/1181-Regency-Dr-Pittsburgh-PA-15237/11559298_zpid/","","","362000","382200","2400","187700","10/18/2022","1870","sqft","193.58","10397.77","sqft","34.82","4","3","","Paul Murray","No","No","","1181 Regency Dr","Pittsburgh","15237","PA","USA","40.553158","-80.01105"
"https://www.zillow.com/homedetails/303-Forestwood-Dr-Gibsonia-PA-15044/11317670_zpid/","","","355000","374800","2064","182600","10/14/2022","1897","sqft","187.14","0.48","acres","744546.98","4","2","","Tawnya Lunz","No","No","","303 Forestwood Dr","Gibsonia","15044","PA","USA","40.6258","-79.934265"
"https://www.zillow.com/homedetails/208-Arla-Dr-Pittsburgh-PA-15220/11460327_zpid/","","","355000","374800","3128","190500","10/14/2022","2250","sqft","157.78","7801.6","sqft","45.5","5","4","","Dana Block","No","No","","208 Arla Dr","Pittsburgh","15220","PA","USA","40.407284","-80.06255"
"https://www.zillow.com/homedetails/152-Manchester-Cir-Pittsburgh-PA-15237/119345800_zpid/","","","360000","380000","3058","334500","10/14/2022","2276","sqft","158.17","0.36","acres","991690.38","4","2.5","","","No","No","","152 Manchester Cir","Pittsburgh","15237","PA","USA","40.534733","-80.08302"
"https://www.zillow.com/homedetails/121-Elmhurst-Dr-Coraopolis-PA-15108/11256494_zpid/","","","365000","385400","2358","187200","10/13/2022","1820","sqft","200.55","0.56","acres","652135.07","4","3","","Scott LaRocca","No","No","","121 Elmhurst Dr","Coraopolis","15108","PA","USA","40.53105","-80.26713"
"https://www.zillow.com/homedetails/112-Cove-Ct-Mc-Donald-PA-15057/87987726_zpid/","","","360000","380000","2635","189000","10/12/2022","2256","sqft","159.57","0.32","acres","1113172.54","4","4","","Jennifer Drass","No","No","","112 Cove Ct","Mc Donald","15057","PA","USA","40.403866","-80.25779"
"https://www.zillow.com/homedetails/4744-Baptist-Rd-Pittsburgh-PA-15227/11392851_zpid/","","","355000","374600","2675","232800","10/11/2022","2004","sqft","177.15","","","","3","4","","Jeff Earley","No","No","","4744 Baptist Rd","Pittsburgh","15227","PA","USA","40.35974","-79.9954"
"https://www.zillow.com/homedetails/6005-Parkvue-Dr-Pittsburgh-PA-15236/2061685212_zpid/","","","354005","","1694","","10/10/2022","2168","sqft","163.29","","","","3","3","","Julie Taylor","No","No","","6005 Parkvue Dr","Pittsburgh","15236","PA","USA","",""
"https://www.zillow.com/homedetails/5119-Duncan-St-Pittsburgh-PA-15201/11612857_zpid/","","","365000","386200","2261","131400","09/29/2022","1500","sqft","243.33","910.4","sqft","400.92","3","3","","Joseph Weltner","No","No","","5119 Duncan St","Pittsburgh","15201","PA","USA","40.478203","-79.95161"
"https://www.zillow.com/homedetails/5119-Duncan-Lawrenceville-PA-15201/2085038104_zpid/","","","365000","386200","1400","","09/29/2022","","","","910","sqft","401.1","2","1","","","No","No","","5119 Duncan","Lawrenceville","15201","PA","USA","40.478203","-79.95161"
"https://www.zillow.com/homedetails/2809-Espy-Ave-Pittsburgh-PA-15216/11571351_zpid/","","","365000","386100","3502","276100","09/28/2022","3605","sqft","101.25","7865","sqft","46.41","6","3.5","","","No","No","","2809 Espy Ave","Pittsburgh","15216","PA","USA","40.39775","-80.03356"
"https://www.zillow.com/homedetails/95-Rustic-Ridge-Dr-Pittsburgh-PA-15239/11648758_zpid/","","","357500","378000","2184","173900","09/23/2022","1892","sqft","188.95","9679.03","sqft","36.94","3","4","","Jennifer Mascaro","No","No","","95 Rustic Ridge Dr","Pittsburgh","15239","PA","USA","40.515423","-79.743546"
"https://www.zillow.com/homedetails/929-Bideford-Dr-South-Park-PA-15129/62983249_zpid/","","","358000","378400","2833","210000","09/22/2022","2244","sqft","159.54","0.26","acres","1385985.29","4","3","","Radhakrishnan Pokhrel","No","No","","929 Bideford Dr","South Park","15129","PA","USA","40.281017","-79.970345"
"https://www.zillow.com/homedetails/5940-Pudding-Stone-Ln-Bethel-Park-PA-15102/11607725_zpid/","","","355000","375300","2666","211900","09/21/2022","2032","sqft","174.7","0.37","acres","959459.46","4","3","","CHRISTOPHER CARR","No","No","","5940 Pudding Stone Ln","Bethel Park","15102","PA","USA","40.30663","-80.03695"
"https://www.zillow.com/homedetails/1204-Plantation-Dr-Bethel-Park-PA-15102/11578860_zpid/","","","365800","386500","2768","205000","09/15/2022","2400","sqft","152.42","0.3","acres","1229993.28","4","3","","Barbara Baker","No","No","","1204 Plantation Dr","Bethel Park","15102","PA","USA","40.313274","-80.02605"
"https://www.zillow.com/homedetails/9462-Viewcrest-Dr-Allison-Park-PA-15101/11618713_zpid/","","","355000","375000","2400","197900","09/15/2022","1900","sqft","186.84","0.29","acres","1233924.23","3","3","","","No","No","","9462 Viewcrest Dr","Allison Park","15101","PA","USA","40.577667","-79.99337"
"https://www.zillow.com/homedetails/2990-Chautauqua-St-Gibsonia-PA-15044/11298782_zpid/","","","355000","374900","1999","164100","09/12/2022","1648","sqft","215.41","0.54","acres","658993.87","3","3","","Marcia Shipley","No","No","","2990 Chautauqua St","Gibsonia","15044","PA","USA","40.6099","-79.941956"
"https://www.zillow.com/homedetails/1831-Mount-Royal-Blvd-Glenshaw-PA-15116/11443483_zpid/","","","355000","374800","2500","194500","09/08/2022","","","","0.36","acres","986111.11","3","3","","Michelle Branham","No","No","","1831 Mount Royal Blvd","Glenshaw","15116","PA","USA","40.52865","-79.96546"
"https://www.zillow.com/homedetails/10005-Sheffield-Dr-Wexford-PA-15090/11258119_zpid/","","","355000","374700","2995","221700","09/07/2022","","","","0.25","acres","1406497.62","4","3","","Anthony Leone","No","No","","10005 Sheffield Dr","Wexford","15090","PA","USA","40.597206","-80.03694"
"https://www.zillow.com/homedetails/5132-Dorris-Dr-Elizabeth-PA-15037/11289083_zpid/","","","361150","381200","1294","150800","09/07/2022","1972","sqft","183.14","1.26","acres","286626.98","4","3","","Brian Czapor","No","No","","5132 Dorris Dr","Elizabeth","15037","PA","USA","40.259983","-79.8847"
"https://www.zillow.com/homedetails/6848-Meade-St-Pittsburgh-PA-15208/11287156_zpid/","","","364000","384200","2205","135300","09/06/2022","2027","sqft","179.58","4809.02","sqft","75.69","4","2","","Alisha Schweiger","No","No","","6848 Meade St","Pittsburgh","15208","PA","USA","40.452328","-79.908356"
"https://www.zillow.com/homedetails/Country-Club-Est-New-Kensington-PA-15068/294903372_zpid/","","","355455","364000","1194","42650","09/06/2022","","","","0.39","acres","907066.19","","","","","No","No","","Country Club Est","New Kensington","15068","PA","USA","40.528202","-79.756584"
"https://www.zillow.com/homedetails/1306-Star-Ridge-Dr-Pittsburgh-PA-15241/11473286_zpid/","","","358000","377800","2385","205400","09/02/2022","1963","sqft","182.37","0.31","acres","1141581.63","4","3","","Jim Dolanch","No","No","","1306 Star Ridge Dr","Pittsburgh","15241","PA","USA","40.338943","-80.10104"
"https://www.zillow.com/homedetails/344-McClellan-Dr-Pittsburgh-PA-15236/11507620_zpid/","","","360000","379900","1650","126500","09/02/2022","1716","sqft","209.79","9639.83","sqft","37.35","4","3","","Dan Haeck","No","No","","344 McClellan Dr","Pittsburgh","15236","PA","USA","40.33318","-79.97"
"https://www.zillow.com/homedetails/141-Marlborough-Dr-New-Kensington-PA-15068/10649648_zpid/","","","358000","366900","3800","42850","09/01/2022","4200","sqft","85.24","1.4","acres","255714.29","4","5","","","No","No","","141 Marlborough Dr","New Kensington","15068","PA","USA","40.528202","-79.756584"
"https://www.zillow.com/homedetails/24-Edgecliff-Rd-Carnegie-PA-15106/11256162_zpid/","","","365000","385200","1798","236000","09/01/2022","1773","sqft","205.87","0.34","acres","1059814.17","3","2","","Tony Tenfelde","No","No","","24 Edgecliff Rd","Carnegie","15106","PA","USA","40.41934","-80.086426"
"https://www.zillow.com/homedetails/404-Nelson-Park-Dr-Pittsburgh-PA-15214/11328140_zpid/","","","360000","379900","2997","215600","09/01/2022","2236","sqft","161","0.28","acres","1276595.74","4","3","","Lori Maffeo","No","No","","404 Nelson Park Dr","Pittsburgh","15214","PA","USA","40.5007","-80.00947"
"https://www.zillow.com/homedetails/1708-Fox-Way-Pittsburgh-PA-15203/11290545_zpid/","","","360000","379800","1880","167400","08/31/2022","","","","2178","sqft","165.29","3","2","","Margo Cicci","No","No","","1708 Fox Way","Pittsburgh","15203","PA","USA","40.430058","-79.9815"
"https://www.zillow.com/homedetails/181-39th-St-Pittsburgh-PA-15201/11513252_zpid/","","","365000","385100","1829","126700","08/31/2022","1126","sqft","324.16","1315.51","sqft","277.46","3","2","","Tracy Wiley","No","No","","181 39th St","Pittsburgh","15201","PA","USA","40.46794","-79.96463"
"https://www.zillow.com/homedetails/1669-Charlton-Heights-Rd-Coraopolis-PA-15108/11477357_zpid/","","","360000","379800","2250","162500","08/30/2022","","","","0.26","acres","1384615.38","4","3","","Brenda Petkunas","No","No","","1669 Charlton Heights Rd","Coraopolis","15108","PA","USA","40.501617","-80.17285"
"https://www.zillow.com/homedetails/715-Straight-St-Sewickley-PA-15143/11480345_zpid/","","","357000","376700","1594","148100","08/30/2022","1560","sqft","228.85","4159.98","sqft","85.82","3","2","","Kristen Burger","No","No","","715 Straight St","Sewickley","15143","PA","USA","40.54018","-80.17594"
"https://www.zillow.com/homedetails/101-Tel-Star-Dr-Pittsburgh-PA-15236/11546358_zpid/","","","366800","387000","3040","166500","08/30/2022","2160","sqft","169.81","7840.8","sqft","46.78","4","4","","Cathy Robb","No","No","","101 Tel Star Dr","Pittsburgh","15236","PA","USA","40.321384","-79.954575"
"https://www.zillow.com/homedetails/909-Tottenham-Dr-Coraopolis-PA-15108/11552636_zpid/","","","356000","375500","2730","172100","08/26/2022","2366","sqft","150.46","0.37","acres","962162.16","5","3","","Sandra Toulouse","No","No","","909 Tottenham Dr","Coraopolis","15108","PA","USA","40.507893","-80.20696"
"https://www.zillow.com/homedetails/415-Brilliant-Ave-Pittsburgh-PA-15215/11335382_zpid/","","","365000","385000","1756","175800","08/25/2022","","","","3798.43","sqft","96.09","3","2","","Michelle Proviano","No","No","","415 Brilliant Ave","Pittsburgh","15215","PA","USA","40.493053","-79.90066"
"https://www.zillow.com/homedetails/429-Limestone-Dr-Bethel-Park-PA-15102/11608558_zpid/","","","360000","379700","2765","232300","08/24/2022","2436","sqft","147.78","10079.78","sqft","35.72","4","3","","Joy Lamars","No","No","","429 Limestone Dr","Bethel Park","15102","PA","USA","40.303226","-80.063286"
"https://www.zillow.com/homedetails/521-Olive-St-Pittsburgh-PA-15237/11617636_zpid/","","","365000","384900","2500","218800","08/23/2022","2132","sqft","171.2","0.26","acres","1378122.56","4","2.5","","","No","No","","521 Olive St","Pittsburgh","15237","PA","USA","40.57343","-80.0469"
"https://www.zillow.com/homedetails/209-Sleepy-Hollow-Rd-Pittsburgh-PA-15216/11309345_zpid/","","","365000","384800","2997","198200","08/19/2022","2032","sqft","179.63","7840.8","sqft","46.55","4","4","","Marlene McNaughton","No","No","","209 Sleepy Hollow Rd","Pittsburgh","15216","PA","USA","40.383602","-80.03188"
"https://www.zillow.com/homedetails/620-Crystal-Dr-Pittsburgh-PA-15228/11310258_zpid/","","","360000","379500","2796","210500","08/19/2022","","","","6100","sqft","59.02","3","3","","Michele Belice","No","No","","620 Crystal Dr","Pittsburgh","15228","PA","USA","40.375916","-80.02888"
"https://www.zillow.com/homedetails/1456-Alabama-Ave-Pittsburgh-PA-15216/11655107_zpid/","","","359000","378400","1994","197000","08/18/2022","2160","sqft","166.2","3001.28","sqft","119.62","4","2","","Denise Marasco","No","No","","1456 Alabama Ave","Pittsburgh","15216","PA","USA","40.39358","-80.0389"
"https://www.zillow.com/homedetails/206-Pointe-West-Dr-Mc-Donald-PA-15057/59851544_zpid/","","","355000","374200","2428","194200","08/16/2022","1872","sqft","189.64","0.56","acres","636542.94","4","3","","Linda Diffendal","No","No","","206 Pointe West Dr","Mc Donald","15057","PA","USA","40.389885","-80.209175"
"https://www.zillow.com/homedetails/2965-Sebolt-Rd-South-Park-PA-15129/11252026_zpid/","","","355000","374100","2364","135200","08/12/2022","1874","sqft","189.43","7710.12","sqft","46.04","3","3","","Jessica Krach","No","No","","2965 Sebolt Rd","South Park","15129","PA","USA","40.28317","-80.00822"
"https://www.zillow.com/homedetails/4343-Lydia-St-Pittsburgh-PA-15207/11545131_zpid/","","","362500","382000","1662","133500","08/12/2022","1450","sqft","250","6960.89","sqft","52.08","3","2","","Joanne Bates","No","No","","4343 Lydia St","Pittsburgh","15207","PA","USA","40.419823","-79.94088"
"https://www.zillow.com/homedetails/6035-Independence-Dr-Clairton-PA-15025/102974137_zpid/","","","365000","384600","2500","216300","08/12/2022","1996","sqft","182.87","0.63","acres","575528.22","4","3","","Amanda Walton","No","No","","6035 Independence Dr","Clairton","15025","PA","USA","40.28354","-79.96346"
"https://www.zillow.com/homedetails/3101-Goodwin-Aly-S-Bridgeville-PA-15017/2069230281_zpid/","","","364990","384200","1985","","08/12/2022","1770","sqft","206.21","","","","3","2","","","No","No","","3101 Goodwin Aly S","Bridgeville","15017","PA","USA","",""
"https://www.zillow.com/homedetails/1106-Rial-Dr-Bethel-Park-PA-15102/11638978_zpid/","","","360000","379300","2699","212000","08/10/2022","2200","sqft","163.64","0.73","acres","492745.69","5","3","","Barbara Baker","No","No","","1106 Rial Dr","Bethel Park","15102","PA","USA","40.29357","-80.04584"
"https://www.zillow.com/homedetails/757-Greenhaven-Dr-Bethel-Park-PA-15102/11608652_zpid/","","","356000","375000","2100","202900","08/09/2022","1438","sqft","247.57","10807.24","sqft","32.94","3","3","","Luanne Ryan","No","No","","757 Greenhaven Dr","Bethel Park","15102","PA","USA","40.303","-80.05728"
"https://www.zillow.com/homedetails/347-Lincoln-Dr-Pittsburgh-PA-15241/11609188_zpid/","","","361000","380300","2400","183000","08/08/2022","1870","sqft","193.05","0.41","acres","873668.93","4","3","","John Adair","No","No","","347 Lincoln Dr","Pittsburgh","15241","PA","USA","40.30223","-80.08175"
"https://www.zillow.com/homedetails/125-Jarod-Dr-Coraopolis-PA-15108/11518579_zpid/","","","361000","380200","2800","253800","08/05/2022","2540","sqft","142.13","0.28","acres","1301839.16","4","4","","Robin Ross","No","No","","125 Jarod Dr","Coraopolis","15108","PA","USA","40.53136","-80.196785"
"https://www.zillow.com/homedetails/207-Randy-Ln-Coraopolis-PA-15108/59837730_zpid/","","","361500","380700","2535","228200","08/05/2022","2014","sqft","179.49","0.37","acres","969949.02","4","3","","Harry Kuruce","No","No","","207 Randy Ln","Coraopolis","15108","PA","USA","40.52997","-80.198296"
"https://www.zillow.com/homedetails/269-Roycroft-Ave-Pittsburgh-PA-15234/11359113_zpid/","","","355000","373900","1961","171100","08/04/2022","1307","sqft","271.61","8041.18","sqft","44.15","3","3","","Melissa Woods","No","No","","269 Roycroft Ave","Pittsburgh","15234","PA","USA","40.36747","-80.038376"
"https://www.zillow.com/homedetails/345-Columbia-Ave-Pittsburgh-PA-15229/11406672_zpid/","","","359900","379000","2499","114400","08/03/2022","2008","sqft","179.23","5100.88","sqft","70.56","5","3","","Bryan Reilly","No","No","","345 Columbia Ave","Pittsburgh","15229","PA","USA","40.515255","-80.0427"
"https://www.zillow.com/homedetails/2639-Bethel-Crest-Dr-Bethel-Park-PA-15102/11509027_zpid/","","","358000","377000","2498","177100","08/03/2022","1951","sqft","183.5","0.27","acres","1318114.87","4","3","","Jim Dolanch","No","No","","2639 Bethel Crest Dr","Bethel Park","15102","PA","USA","40.33413","-80.03484"
"https://www.zillow.com/homedetails/403-Laurelwood-Dr-Glenshaw-PA-15116/11487168_zpid/","","","362000","381100","2400","250000","07/29/2022","1818","sqft","199.12","8102.16","sqft","44.68","3","3","","Paul Rechenmacher","No","No","","403 Laurelwood Dr","Glenshaw","15116","PA","USA","40.53367","-79.93927"
"https://www.zillow.com/homedetails/2725-Otterbein-Dr-Allison-Park-PA-15101/11526831_zpid/","","","360000","379000","2500","208800","07/29/2022","1934","sqft","186.14","0.42","acres","851063.83","4","3","","Jordana Zober","No","No","","2725 Otterbein Dr","Allison Park","15101","PA","USA","40.541557","-79.95804"
"https://www.zillow.com/homedetails/8951-Seneca-Ave-Pittsburgh-PA-15237/11590008_zpid/","","","365000","384200","2166","167400","07/29/2022","","","","0.28","acres","1284758.89","3","3","","Zita Billmann","No","No","","8951 Seneca Ave","Pittsburgh","15237","PA","USA","40.569298","-80.04531"
"https://www.zillow.com/homedetails/837-Stuyvesant-Rd-Pittsburgh-PA-15237/11644054_zpid/","","","360000","378900","2400","189700","07/28/2022","2057","sqft","175.01","0.34","acres","1045296.17","4","3","","Monice Ming Tong","No","No","","837 Stuyvesant Rd","Pittsburgh","15237","PA","USA","40.580338","-80.02292"
"https://www.zillow.com/homedetails/1620-Harpster-St-Pittsburgh-PA-15212/11511819_zpid/","","","360000","378900","1988","15000","07/27/2022","2310","sqft","155.84","1041.08","sqft","345.79","3","3","","Marta Heisel","No","No","","1620 Harpster St","Pittsburgh","15212","PA","USA","40.464306","-79.9843"
"https://www.zillow.com/homedetails/5410-Deveny-Dr-Gibsonia-PA-15044/11298428_zpid/","","","355000","373600","1999","211500","07/25/2022","","","","2","acres","177500","3","2","","Georgie Smigel","No","No","","5410 Deveny Dr","Gibsonia","15044","PA","USA","40.616276","-79.94217"
"https://www.zillow.com/homedetails/104-William-Penn-Cir-Sewickley-PA-15143/11614547_zpid/","","","360000","378800","2464","225000","07/25/2022","1905","sqft","188.98","10349.86","sqft","34.78","3","3","","John Guss","No","No","","104 William Penn Cir","Sewickley","15143","PA","USA","40.570766","-80.209755"
"https://www.zillow.com/homedetails/10485-Frankstown-Rd-Penn-Hills-PA-15235/2119293974_zpid/","","","360000","","1626","","07/25/2022","","","","","","","","","","","No","No","","10485 Frankstown Rd","Penn Hills","15235","PA","USA","40.48626","-79.88895"
"https://www.zillow.com/homedetails/6929-Standish-St-Pittsburgh-PA-15206/11278542_zpid/","","","367000","386100","1546","114800","07/22/2022","1500","sqft","244.67","2901.1","sqft","126.5","4","2","","Adam Longshore","No","No","","6929 Standish St","Pittsburgh","15206","PA","USA","40.486015","-79.923454"
"https://www.zillow.com/homedetails/327-Haugh-Dr-Pittsburgh-PA-15237/11590459_zpid/","","","360000","378700","1999","157400","07/22/2022","1395","sqft","258.06","0.29","acres","1223657.38","3","2","","Andrew Belonzi","No","No","","327 Haugh Dr","Pittsburgh","15237","PA","USA","40.561596","-80.03398"
"https://www.zillow.com/homedetails/4357-Kenson-Dr-Allison-Park-PA-15101/11621437_zpid/","","","365000","384000","2258","168500","07/22/2022","","","","","","","4","3","","Jennifer Rausch","No","No","","4357 Kenson Dr","Allison Park","15101","PA","USA","40.579006","-79.94139"
"https://www.zillow.com/homedetails/1238-Old-Concord-Rd-Monroeville-PA-15146/11654126_zpid/","","","360000","378700","2282","105600","07/22/2022","2200","sqft","163.64","9448.16","sqft","38.1","4","3","","Lisa Haberstroh","No","No","","1238 Old Concord Rd","Monroeville","15146","PA","USA","40.412674","-79.748184"
"https://www.zillow.com/homedetails/1319-Woodcliffe-Dr-Monroeville-PA-15146/11654231_zpid/","","","367500","386600","2385","190100","07/22/2022","2398","sqft","153.25","0.33","acres","1104930.85","4","4","","Frank Amato","No","No","","1319 Woodcliffe Dr","Monroeville","15146","PA","USA","40.41344","-79.73911"
"https://www.zillow.com/homedetails/2112-Pococen-Dr-Coraopolis-PA-15108/11437668_zpid/","","","365000","384000","2276","164600","07/21/2022","","","","0.51","acres","710116.73","4","3","","Gina Cuccaro","No","No","","2112 Pococen Dr","Coraopolis","15108","PA","USA","40.499664","-80.162506"
"https://www.zillow.com/homedetails/1761-Hassam-Rd-Coraopolis-PA-15108/11477671_zpid/","","","360000","378700","3131","268000","07/21/2022","3148","sqft","114.36","3148","sqft","114.36","3","4","","","No","No","","1761 Hassam Rd","Coraopolis","15108","PA","USA","40.496876","-80.17124"
"https://www.zillow.com/homedetails/1980-Hertford-Dr-South-Park-PA-15129/11637622_zpid/","","","365000","384000","2737","217000","07/21/2022","2235","sqft","163.31","0.28","acres","1324863.88","4","3","","Nichole Merrell","No","No","","1980 Hertford Dr","South Park","15129","PA","USA","40.287987","-79.97812"
"https://www.zillow.com/homedetails/217-4th-St-Aspinwall-PA-15215/11335329_zpid/","","","356000","374500","1581","230800","07/20/2022","1580","sqft","225.32","2500","sqft","142.4","3","2","","Jane Herrmann","No","No","","217 4th St","Aspinwall","15215","PA","USA","40.492794","-79.9032"
"https://www.zillow.com/homedetails/218-Highlander-Heights-Dr-Glenshaw-PA-15116/11487124_zpid/","","","360000","378700","2566","191200","07/20/2022","2028","sqft","177.51","0.35","acres","1035375.32","4","3","","","No","No","","218 Highlander Heights Dr","Glenshaw","15116","PA","USA","40.535114","-79.943085"
"https://www.zillow.com/homedetails/2686-Bethel-Crest-Dr-Bethel-Park-PA-15102/11509141_zpid/","","","361000","379700","2783","197300","07/18/2022","2146","sqft","168.22","0.27","acres","1329160.53","4","3","","Katie Polley","No","No","","2686 Bethel Crest Dr","Bethel Park","15102","PA","USA","40.333168","-80.037605"
"https://www.zillow.com/homedetails/423-Fisk-St-Pittsburgh-PA-15224/11514973_zpid/","","","360000","389500","1746","168000","07/18/2022","","","","2456.78","sqft","146.53","2","2","","Kathleen Barge","No","No","","423 Fisk St","Pittsburgh","15224","PA","USA","40.46465","-79.95619"
"https://www.zillow.com/homedetails/7152-Shannon-Rd-Verona-PA-15147/11490243_zpid/","","","366000","352600","3351","148600","07/15/2022","","","","0.8","acres","457500","4","4","","Maria Holzworth","No","No","","7152 Shannon Rd","Verona","15147","PA","USA","40.49537","-79.83141"
"https://www.zillow.com/homedetails/2781-McMorran-Rd-Gibsonia-PA-15044/11363948_zpid/","","","355000","373200","2400","130700","07/13/2022","2060","sqft","172.33","0.75","acres","472074.47","3","3","","Judi Sahayda","No","No","","2781 McMorran Rd","Gibsonia","15044","PA","USA","40.648335","-79.92703"
"https://www.zillow.com/homedetails/4068-Howley-St-Pittsburgh-PA-15224/11514886_zpid/","","","368000","386900","1700","126800","07/13/2022","1476","sqft","249.32","1999.4","sqft","184.05","3","1","","Mona Williams","No","No","","4068 Howley St","Pittsburgh","15224","PA","USA","40.463852","-79.95462"
"https://www.zillow.com/homedetails/314-Forestwood-Dr-Gibsonia-PA-15044/11317665_zpid/","","","365000","383700","2470","200100","07/11/2022","2040","sqft","178.92","0.46","acres","795033.76","4","3","","Jennifer Stout","No","No","","314 Forestwood Dr","Gibsonia","15044","PA","USA","40.62735","-79.93341"
"https://www.zillow.com/homedetails/821-Peralta-St-Pittsburgh-PA-15212/11395332_zpid/","","","365000","306000","1610","80300","07/11/2022","","","","892.98","sqft","408.74","3","3","","Shannon Auten","No","No","","821 Peralta St","Pittsburgh","15212","PA","USA","40.45536","-79.996376"
"https://www.zillow.com/homedetails/5136-Meadowridge-Ln-Gibsonia-PA-15044/11276506_zpid/","","","365000","383600","2500","167300","07/08/2022","1972","sqft","185.09","0.28","acres","1296625.22","4","3","","Gail Scott","No","No","","5136 Meadowridge Ln","Gibsonia","15044","PA","USA","40.608086","-79.92939"
"https://www.zillow.com/homedetails/1420-Columbus-Ave-Pittsburgh-PA-15233/11375698_zpid/","","","355000","373100","1599","37100","07/08/2022","1994","sqft","178.03","1154.34","sqft","307.54","4","2","","Anthony Dasta","No","No","","1420 Columbus Ave","Pittsburgh","15233","PA","USA","40.457726","-80.02839"
"https://www.zillow.com/homedetails/1296-Morrow-Rd-Pittsburgh-PA-15241/11472730_zpid/","","","355000","373100","2097","215800","07/08/2022","1975","sqft","179.75","1.01","acres","352182.54","3","2","","","No","No","","1296 Morrow Rd","Pittsburgh","15241","PA","USA","40.34131","-80.09975"
"https://www.zillow.com/homedetails/519-Kellingwood-Dr-Pittsburgh-PA-15238/11646645_zpid/","","","360000","378300","2214","205800","07/08/2022","","","","0.4","acres","900000","3","3","","Linda Pelkofer","No","No","","519 Kellingwood Dr","Pittsburgh","15238","PA","USA","40.580048","-79.878876"
"https://www.zillow.com/homedetails/335-Logan-St-Sewickley-PA-15143/11480533_zpid/","","","365000","487500","2933","138500","07/06/2022","2384","sqft","153.1","4748","sqft","76.87","2","3","","","No","No","","335 Logan St","Sewickley","15143","PA","USA","40.5374","-80.18014"
"https://www.zillow.com/homedetails/708-Brookshire-Dr-Pittsburgh-PA-15237/11589291_zpid/","","","359500","377700","2500","229900","07/06/2022","1934","sqft","185.88","0.25","acres","1438000","3","3","","Christina Talotta","No","No","","708 Brookshire Dr","Pittsburgh","15237","PA","USA","40.568054","-80.05797"
"https://www.zillow.com/homedetails/111-Shawnee-Dr-Natrona-Heights-PA-15065/11332584_zpid/","","","358000","376000","3081","214300","07/01/2022","","","","0.33","acres","1079613.99","4","4","","Charles Veazey","No","No","","111 Shawnee Dr","Natrona Heights","15065","PA","USA","40.62861","-79.713196"
"https://www.zillow.com/homedetails/5180-Lombardi-Dr-Pittsburgh-PA-15236/11469362_zpid/","","","356600","374500","2094","121300","07/01/2022","1787","sqft","199.55","0.32","acres","1106079.4","4","4","","Karen Marshall","No","No","","5180 Lombardi Dr","Pittsburgh","15236","PA","USA","40.3436","-79.98719"
"https://www.zillow.com/homedetails/931-Cork-Dr-Bethel-Park-PA-15102/11580351_zpid/","","","365000","383300","2400","161700","06/30/2022","1904","sqft","191.7","10280.16","sqft","35.51","4","3","","Beverly Fusco","No","No","","931 Cork Dr","Bethel Park","15102","PA","USA","40.31178","-80.05758"
"https://www.zillow.com/homedetails/2539-Brandt-School-Rd-Wexford-PA-15090/11273819_zpid/","","","365000","383300","1882","123000","06/28/2022","","","","1","acres","366465.86","3","3","","Matthew McKenna","No","No","","2539 Brandt School Rd","Wexford","15090","PA","USA","40.605537","-80.087715"
"https://www.zillow.com/homedetails/1175-Cedar-Blvd-Pittsburgh-PA-15228/11359756_zpid/","","","365000","383300","2079","160000","06/27/2022","1924","sqft","189.71","8772.98","sqft","41.61","4","2","","Chad Church","No","No","","1175 Cedar Blvd","Pittsburgh","15228","PA","USA","40.368744","-80.06045"
"https://www.zillow.com/homedetails/2276-Cremona-Dr-Pittsburgh-PA-15241/11549260_zpid/","","","355000","372800","1900","186400","06/27/2022","1456","sqft","243.82","0.51","acres","692277.69","3","2","","Kristin Daugherty","No","No","","2276 Cremona Dr","Pittsburgh","15241","PA","USA","40.326168","-80.0715"
"https://www.zillow.com/homedetails/162-Monticello-Dr-Monroeville-PA-15146/11654497_zpid/","","","357000","374900","2934","208900","06/27/2022","2600","sqft","137.31","0.27","acres","1342216.47","4","4","","","No","No","","162 Monticello Dr","Monroeville","15146","PA","USA","40.40606","-79.74577"
"https://www.zillow.com/homedetails/1238-Monterey-St-Pittsburgh-PA-15212/11388290_zpid/","","","367500","385800","2500","238000","06/23/2022","1960","sqft","187.5","640.33","sqft","573.92","3","3","","Randy Buffington","No","No","","1238 Monterey St","Pittsburgh","15212","PA","USA","40.45601","-80.013"
"https://www.zillow.com/homedetails/442-William-St-Mount-Washington-PA-15211/11516290_zpid/","","","357000","374800","2328","181800","06/23/2022","1956","sqft","182.52","2761.7","sqft","129.27","2","3","","Glenn Ott","No","No","","442 William St","Mount Washington","15211","PA","USA","40.427692","-80.00465"
"https://www.zillow.com/homedetails/3541-Huntertown-Rd-Allison-Park-PA-15101/46327029_zpid/","","","360000","377900","2500","191900","06/23/2022","2052","sqft","175.44","10084.14","sqft","35.7","4","3","","Cheryl McConnell","No","No","","3541 Huntertown Rd","Allison Park","15101","PA","USA","40.603924","-79.91015"
"https://www.zillow.com/homedetails/5110-Dearborn-St-Pittsburgh-PA-15224/11520040_zpid/","","","366000","384200","2070","63200","06/22/2022","1768","sqft","207.01","1999.4","sqft","183.05","4","2","","Jenny Barnick","No","No","","5110 Dearborn St","Pittsburgh","15224","PA","USA","40.46546","-79.94228"
"https://www.zillow.com/homedetails/1265-Tidewood-Dr-Bethel-Park-PA-15102/11608348_zpid/","","","365000","383100","2416","182200","06/22/2022","","","","9639.83","sqft","37.86","4","3","","Mary Eve Kearns","No","No","","1265 Tidewood Dr","Bethel Park","15102","PA","USA","40.30493","-80.0628"
"https://www.zillow.com/homedetails/600-Dressel-Rd-Allison-Park-PA-15101/11527186_zpid/","","","355000","372500","2500","166500","06/17/2022","2006","sqft","176.97","10219.18","sqft","34.74","4","4","","Mary Jane DiMartino","No","No","","600 Dressel Rd","Allison Park","15101","PA","USA","40.543163","-79.94671"
"https://www.zillow.com/homedetails/3111-Goodwin-Aly-Bridgeville-PA-15017/2069501102_zpid/","","","355990","373300","1978","","06/17/2022","1673","sqft","212.79","","","","2","2","","","No","No","","3111 Goodwin Aly","Bridgeville","15017","PA","USA","",""
"https://www.zillow.com/homedetails/241-McComb-Ln-Pittsburgh-PA-15239/2078551257_zpid/","","","357275","374600","700","","06/13/2022","","","","0.55","acres","649590.91","3","3","","Michelle Grasinger","No","No","","241 McComb Ln","Pittsburgh","15239","PA","USA","",""
"https://www.zillow.com/homedetails/5602-McCormick-Rd-Pittsburgh-PA-15205/11401080_zpid/","","","360000","377600","1438","197300","06/10/2022","","","","0.41","acres","878048.78","4","2","","Donna Howland Klein","No","No","","5602 McCormick Rd","Pittsburgh","15205","PA","USA","40.44484","-80.13531"
"https://www.zillow.com/homedetails/1457-Judy-Ln-Monroeville-PA-15146/11535568_zpid/","","","360000","377600","2314","196600","06/10/2022","","","","0.25","acres","1440000","3","3","","Blair Cohen","No","No","","1457 Judy Ln","Monroeville","15146","PA","USA","40.419083","-79.80658"
"https://www.zillow.com/homedetails/3113-Goodwin-Aly-Bridgeville-PA-15017/2069468362_zpid/","","","365990","","1693","","06/10/2022","","","","","","","","","","","No","No","","3113 Goodwin Aly","Bridgeville","15017","PA","USA","",""
"https://www.zillow.com/homedetails/158-Pennsylvania-Ave-Bridgeville-PA-15017/11433843_zpid/","","","355000","372300","1981","152100","06/09/2022","1706","sqft","208.09","0.71","acres","500000","4","3","","Angie Flowers","No","No","","158 Pennsylvania Ave","Bridgeville","15017","PA","USA","40.353477","-80.09879"
"https://www.zillow.com/homedetails/1107-Bradish-St-Pittsburgh-PA-15203/11474543_zpid/","","","357500","374900","2100","110000","06/09/2022","1652","sqft","216.4","1598.65","sqft","223.63","2","3","","Lisa Rutkowski","No","No","","1107 Bradish St","Pittsburgh","15203","PA","USA","40.42726","-79.98709"
"https://www.zillow.com/homedetails/1130-Downlook-St-Pittsburgh-PA-15201/11275705_zpid/","","","357500","374900","1650","120300","06/08/2022","","","","3000","sqft","119.17","3","2","","Linda Pelkofer","No","No","","1130 Downlook St","Pittsburgh","15201","PA","USA","40.48329","-79.93868"
"https://www.zillow.com/homedetails/1818-President-Dr-Glenshaw-PA-15116/11443098_zpid/","","","360000","377400","2500","199500","06/03/2022","","","","10018.8","sqft","35.93","4","4","","Lindsay Trojan","No","No","","1818 President Dr","Glenshaw","15116","PA","USA","40.52813","-79.969154"
"https://www.zillow.com/homedetails/156-Pilgrim-Dr-Sewickley-PA-15143/11614474_zpid/","","","365000","382600","1849","159000","06/03/2022","","","","0.48","acres","762004.18","3","2","","Meg Smith","No","No","","156 Pilgrim Dr","Sewickley","15143","PA","USA","40.572857","-80.20975"
"https://www.zillow.com/homedetails/1019-E-End-Ave-Pittsburgh-PA-15221/11343137_zpid/","","","365000","382600","1718","169800","06/02/2022","","","","3598.06","sqft","101.44","4","1","","Maureen States","No","No","","1019 E End Ave","Pittsburgh","15221","PA","USA","40.434246","-79.89344"
"https://www.zillow.com/homedetails/4218-Post-St-Pittsburgh-PA-15201/11513999_zpid/","","","365000","382600","2163","74900","06/02/2022","","","","2787.84","sqft","130.93","4","2","","Ruth Weigers","No","No","","4218 Post St","Pittsburgh","15201","PA","USA","40.466946","-79.954926"
"https://www.zillow.com/homedetails/1001-Woodhill-Dr-Gibsonia-PA-15044/11317698_zpid/","","","365000","382600","2400","199400","06/01/2022","1984","sqft","183.97","0.72","acres","504980.63","3","3","","Meghan Scichilone","No","No","","1001 Woodhill Dr","Gibsonia","15044","PA","USA","40.623676","-79.93879"
"https://www.zillow.com/homedetails/650-Southern-Ave-Mount-Washington-PA-15211/11323840_zpid/","","","360000","377400","1764","204900","06/01/2022","1686","sqft","213.52","1354.72","sqft","265.74","3","2","","Meagan Schultz","No","No","","650 Southern Ave","Mount Washington","15211","PA","USA","40.420513","-80.013306"
"https://www.zillow.com/homedetails/32-Marquette-Rd-Pittsburgh-PA-15229/11440858_zpid/","","","355000","372100","2077","170000","06/01/2022","1712","sqft","207.36","0.38","acres","934210.53","3","3","","Shannon Kosko","No","No","","32 Marquette Rd","Pittsburgh","15229","PA","USA","40.523563","-80.03953"
"https://www.zillow.com/homedetails/1210-Biltmore-Ave-Pittsburgh-PA-15216/11656213_zpid/","","","354460","371500","1710","132900","06/01/2022","1888","sqft","187.74","4399.56","sqft","80.57","4","3","","Michael Vieira","No","No","","1210 Biltmore Ave","Pittsburgh","15216","PA","USA","40.389317","-80.03813"
"https://www.zillow.com/homedetails/551-Dawson-Ave-Pittsburgh-PA-15202/11325710_zpid/","","","365202","382800","3037","179400","05/27/2022","3117","sqft","117.16","5000.69","sqft","73.03","5","3","","Michael Reed","No","No","","551 Dawson Ave","Pittsburgh","15202","PA","USA","40.498814","-80.05543"
"https://www.zillow.com/homedetails/2245-Old-Washington-Rd-Pittsburgh-PA-15241/11510327_zpid/","","","360000","377300","2395","212200","05/27/2022","1861","sqft","193.44","0.33","acres","1080756.53","3","3","","Beth Thomas","No","No","","2245 Old Washington Rd","Pittsburgh","15241","PA","USA","40.330048","-80.07309"
"https://www.zillow.com/homedetails/120-Sharbot-Dr-Pittsburgh-PA-15237/11521609_zpid/","","","365000","379900","2265","163400","05/27/2022","1664","sqft","219.35","0.25","acres","1460000","4","3","","Cathy Wanserski","No","No","","120 Sharbot Dr","Pittsburgh","15237","PA","USA","40.546844","-80.06332"
"https://www.zillow.com/homedetails/200-Darnley-Dr-Coraopolis-PA-15108/11641296_zpid/","","","361500","378900","2500","209800","05/27/2022","2000","sqft","180.75","0.35","acres","1029328.02","4","3","","Jennifer Drass","No","No","","200 Darnley Dr","Coraopolis","15108","PA","USA","40.53733","-80.255486"
"https://www.zillow.com/homedetails/104-Valley-Hi-Dr-Pittsburgh-PA-15229/11439753_zpid/","","","355000","372100","2500","188300","05/26/2022","1890","sqft","187.83","0.76","acres","465634.84","4","3","","Judi Sahayda","No","No","","104 Valley Hi Dr","Pittsburgh","15229","PA","USA","40.525246","-80.06109"
"https://www.zillow.com/homedetails/1328-W-North-Ave-Pittsburgh-PA-15233/11611664_zpid/","","","355000","372000","2796","215500","05/25/2022","2592","sqft","136.96","4961.48","sqft","71.55","4","3","","Jason Carr","No","No","","1328 W North Ave","Pittsburgh","15233","PA","USA","40.452553","-80.02531"
"https://www.zillow.com/homedetails/1236-Resaca-Pl-Pittsburgh-PA-15212/11388671_zpid/","","","355000","372100","1200","139400","05/24/2022","","","","1655.28","sqft","214.47","2","1","","Susan Meadowcroft","No","No","","1236 Resaca Pl","Pittsburgh","15212","PA","USA","40.456154","-80.01184"
"https://www.zillow.com/homedetails/127-Pearl-St-Pittsburgh-PA-15224/11520579_zpid/","","","356500","373600","1898","64200","05/24/2022","1750","sqft","203.71","1328.58","sqft","268.33","3","2","","Aaron Garland","No","No","","127 Pearl St","Pittsburgh","15224","PA","USA","40.464867","-79.94801"
"https://www.zillow.com/homedetails/617-Vermont-Ave-Pittsburgh-PA-15234/11396689_zpid/","","","356000","373100","1734","155700","05/20/2022","1512","sqft","235.45","5723.78","sqft","62.2","3","2","","Melissa Palmer","No","No","","617 Vermont Ave","Pittsburgh","15234","PA","USA","40.364403","-80.03905"
"https://www.zillow.com/homedetails/1251-Glencoe-Ave-Pittsburgh-PA-15205/11460224_zpid/","","","365000","382500","2466","266900","05/20/2022","1984","sqft","183.97","0.38","acres","948791.27","3","3","","Heath Luckenbill","No","No","","1251 Glencoe Ave","Pittsburgh","15205","PA","USA","40.410847","-80.05403"
"https://www.zillow.com/homedetails/1207-Holy-Cross-Dr-Monroeville-PA-15146/11628102_zpid/","","","355000","326000","2264","149900","05/19/2022","2150","sqft","165.12","9544","sqft","37.2","4","4","","CHRISTOPHER CARR","No","No","","1207 Holy Cross Dr","Monroeville","15146","PA","USA","40.415985","-79.75097"
"https://www.zillow.com/homedetails/420-Maplevale-Dr-Pittsburgh-PA-15236/11546426_zpid/","","","365000","382600","2355","164700","05/18/2022","1824","sqft","200.11","9509.15","sqft","38.38","4","4","","Richard Creo","No","No","","420 Maplevale Dr","Pittsburgh","15236","PA","USA","40.321068","-79.96016"
"https://www.zillow.com/homedetails/404-Kramers-Ln-Oakdale-PA-15071/59855538_zpid/","","","358000","375200","2387","168100","05/18/2022","2312","sqft","154.84","2.5","acres","143200","4","3","","Mark Handlovitch","No","No","","404 Kramers Ln","Oakdale","15071","PA","USA","40.37519","-80.14275"
"https://www.zillow.com/homedetails/318-Moosehead-Dr-Imperial-PA-15126/59851371_zpid/","","","362500","379800","2666","218400","05/17/2022","2252","sqft","160.97","8729.42","sqft","41.53","3","3","","Shari Braithwaite","No","No","","318 Moosehead Dr","Imperial","15126","PA","USA","40.451332","-80.22401"
"https://www.zillow.com/homedetails/119-Lee-Rd-Pittsburgh-PA-15237/11485060_zpid/","","","365600","383200","1999","169300","05/16/2022","1944","sqft","188.07","0.41","acres","891707.32","4","3","","Mike Schroeder","No","No","","119 Lee Rd","Pittsburgh","15237","PA","USA","40.53897","-79.996765"
"https://www.zillow.com/homedetails/2377-Rexford-Dr-Pittsburgh-PA-15241/11510596_zpid/","","","360000","377300","2696","240200","05/16/2022","2160","sqft","166.67","0.3","acres","1201602.14","4","3","","Lisa Davis","No","No","","2377 Rexford Dr","Pittsburgh","15241","PA","USA","40.333485","-80.09238"
"https://www.zillow.com/homedetails/2900-Fernwald-Rd-Pittsburgh-PA-15217/11636704_zpid/","","","365000","382600","2205","164300","05/16/2022","","","","","","","3","2","","Dana Block","No","No","","2900 Fernwald Rd","Pittsburgh","15217","PA","USA","40.424377","-79.91733"
"https://www.zillow.com/homedetails/1910-Ardmore-Blvd-Pittsburgh-PA-15221/11419621_zpid/","","","360000","377300","2355","135500","05/10/2022","2218","sqft","162.31","7501.03","sqft","47.99","5","3","","Donna Tidwell","No","No","","1910 Ardmore Blvd","Pittsburgh","15221","PA","USA","40.423935","-79.85884"
"https://www.zillow.com/homedetails/4223-Bruce-St-Pittsburgh-PA-15201/11513704_zpid/","","","360000","377300","2284","148100","05/09/2022","2125","sqft","169.41","4224","sqft","85.23","4","2","","","No","No","","4223 Bruce St","Pittsburgh","15201","PA","USA","40.468803","-79.956696"
"https://www.zillow.com/homedetails/228-Williamsburg-Dr-Elizabeth-PA-15037/87986351_zpid/","","","360000","377300","2400","199700","05/09/2022","","","","0.37","acres","972972.97","4","3","","Adam Slivka","No","No","","228 Williamsburg Dr","Elizabeth","15037","PA","USA","40.27308","-79.81491"
