Property URL,MLS ID,Number of days on Zillow,Property price (USD),Zestimate (USD),Rent zestimate (USD per month),Tax assessed value (USD),Sold date (MM/DD/YYYY),Living area,Living area unit,Price per living area unit (USD),Lot/land area,Lot/land area unit,Price per lot/land area unit (USD),Bedrooms,Bathrooms,Broker name,Broker agent,Is owner occupied,Property owned by Zillow,Property unit number,Street address,City,Zip,State,Country,Latitude,Longitude
"https://www.zillow.com/homedetails/213-Alpine-Ave-Pittsburgh-PA-15212/11387902_zpid/","","","470000","438300","2764","3400","10/17/2023","2245","sqft","209.35","2583.11","sqft","181.95","3","4","","Brian Teyssier","No","No","","213 Alpine Ave","Pittsburgh","15212","PA","USA","40.458225","-80.010216"
"https://www.zillow.com/homedetails/513-Woodland-Rd-Pittsburgh-PA-15237/11484618_zpid/","","","455000","455000","2788","262400","10/17/2023","2795","sqft","162.79","0.29","acres","1574394.46","5","3","","Lisa Wilson","No","No","","513 Woodland Rd","Pittsburgh","15237","PA","USA","40.53973","-80.00393"
"https://www.zillow.com/homedetails/508-Hogan-Dr-Monroeville-PA-15146/337926763_zpid/","","","465000","465000","2807","262800","10/16/2023","1736","sqft","267.86","0.32","acres","1454943.68","3","2","","Emily Wilhelm","No","No","","508 Hogan Dr","Monroeville","15146","PA","USA","40.45688","-79.781044"
"https://www.zillow.com/homedetails/305-Broadway-Dr-Pittsburgh-PA-15236/11507552_zpid/","","","475000","474300","2876","150000","10/12/2023","2326","sqft","204.21","1.15","acres","413763.07","3","4","","Melissa Steffey","No","No","","305 Broadway Dr","Pittsburgh","15236","PA","USA","40.333622","-79.96629"
"https://www.zillow.com/homedetails/2167-Meadowmont-Dr-Pittsburgh-PA-15241/11472647_zpid/","","","465000","465000","2999","264300","10/10/2023","2552","sqft","182.21","0.3","acres","1552069.43","5","3","","Barbara Baker","No","No","","2167 Meadowmont Dr","Pittsburgh","15241","PA","USA","40.343494","-80.09184"
"https://www.zillow.com/homedetails/4426-Yorktown-Dr-S-Mc-Donald-PA-15057/2056552043_zpid/","","","475000","","2370","","10/05/2023","2496","sqft","190.3","0.27","acres","1746965.8","4","3","","Jennifer Crouse","No","No","","4426 Yorktown Dr S","Mc Donald","15057","PA","USA","",""
"https://www.zillow.com/homedetails/861-Foxland-Dr-Pittsburgh-PA-15243/11312788_zpid/","","","462000","462000","2805","229300","10/02/2023","","","","8938.51","sqft","51.69","4","3","","Karin Smith","No","No","","861 Foxland Dr","Pittsburgh","15243","PA","USA","40.380756","-80.06547"
"https://www.zillow.com/homedetails/3632-Northfield-Dr-Gibsonia-PA-15044/11317296_zpid/","","","470000","470000","2429","194500","09/29/2023","2201","sqft","213.54","1.03","acres","456310.68","4","3","","Ashley Schultz","No","No","","3632 Northfield Dr","Gibsonia","15044","PA","USA","40.625523","-79.97427"
"https://www.zillow.com/homedetails/1608-Branning-Rd-Pittsburgh-PA-15235/11454075_zpid/","","","457500","457500","2884","302200","09/29/2023","4950","sqft","92.42","0.35","acres","1291278.58","5","5","","Samer Abdelahad","No","No","","1608 Branning Rd","Pittsburgh","15235","PA","USA","40.440723","-79.84287"
"https://www.zillow.com/homedetails/145-Retriever-Ln-Clairton-PA-15025/121887692_zpid/","","","460000","460000","2996","264100","09/26/2023","2360","sqft","194.92","0.38","acres","1203243.53","4","4","","Nick Bova","No","No","","145 Retriever Ln","Clairton","15025","PA","USA","40.315796","-79.975525"
"https://www.zillow.com/homedetails/2604-Rossmoor-Dr-Pittsburgh-PA-15241/164477587_zpid/","","","480000","480000","2946","271400","09/26/2023","","","","0.3","acres","1600000","3","3","","Kathleen Mathison","No","No","","2604 Rossmoor Dr","Pittsburgh","15241","PA","USA","40.31067","-80.08155"
"https://www.zillow.com/homedetails/2471-Broadlawn-Dr-Pittsburgh-PA-15241/11549173_zpid/","","","465000","465000","2804","189300","09/25/2023","1818","sqft","255.78","0.31","acres","1500484.03","4","3","","Eric Perrell","No","No","","2471 Broadlawn Dr","Pittsburgh","15241","PA","USA","40.32431","-80.08024"
"https://www.zillow.com/homedetails/1255-Lamson-Cir-Pittsburgh-PA-15241/11434021_zpid/","","","455000","454900","2921","235400","09/22/2023","2440","sqft","186.48","0.31","acres","1468215.55","4","3","","Wendy Weaver","No","No","","1255 Lamson Cir","Pittsburgh","15241","PA","USA","40.348946","-80.09468"
"https://www.zillow.com/homedetails/1113-Woodhill-Dr-Gibsonia-PA-15044/11317960_zpid/","","","467000","466500","2816","232200","09/20/2023","2323","sqft","201.03","1.35","acres","345669.87","4","4","","Marcia Shipley","No","No","","1113 Woodhill Dr","Gibsonia","15044","PA","USA","40.625187","-79.92768"
"https://www.zillow.com/homedetails/178-Broadstone-Dr-Mars-PA-16046/113585473_zpid/","","","458400","458500","2570","25370","09/19/2023","1944","sqft","235.8","10062.36","sqft","45.56","4","3","","Toni Orrico","No","No","","178 Broadstone Dr","Mars","16046","PA","USA","40.67343","-80.04641"
"https://www.zillow.com/homedetails/37-Equestrian-Dr-Imperial-PA-15126/306759611_zpid/","","","474990","474900","2807","3400","09/19/2023","2277","sqft","208.6","10802.88","sqft","43.97","4","3","","Brittany Davis","No","No","","37 Equestrian Dr","Imperial","15126","PA","USA","40.487877","-80.31606"
"https://www.zillow.com/homedetails/708-S-Trenton-Ave-Pittsburgh-PA-15221/11342173_zpid/","","","468500","468500","2825","127800","09/18/2023","2398","sqft","195.37","2879.32","sqft","162.71","3","2","","Sara Leitera","No","No","","708 S Trenton Ave","Pittsburgh","15221","PA","USA","40.438484","-79.89253"
"https://www.zillow.com/homedetails/10029-Oakridge-Dr-Wexford-PA-15090/11257887_zpid/","","","475000","474900","2861","369000","09/15/2023","2291","sqft","207.33","0.4","acres","1201315.12","4","3","","Cathy Wanserski","No","No","","10029 Oakridge Dr","Wexford","15090","PA","USA","40.59668","-80.0535"
"https://www.zillow.com/homedetails/10565-Kummer-Rd-Wexford-PA-15090/11298025_zpid/","","","475000","474900","2874","249700","09/15/2023","2112","sqft","224.91","1","acres","475000","4","4","","Cassandra Werner","No","No","","10565 Kummer Rd","Wexford","15090","PA","USA","40.61233","-80.03038"
"https://www.zillow.com/homedetails/106-Lexington-Ave-Pittsburgh-PA-15215/11336560_zpid/","","","460000","459900","1783","240000","09/15/2023","1762","sqft","261.07","7405.2","sqft","62.12","3","2","","Jane Herrmann","No","No","","106 Lexington Ave","Pittsburgh","15215","PA","USA","40.488506","-79.89813"
"https://www.zillow.com/homedetails/3017-Brereton-St-Pittsburgh-PA-15219/11400477_zpid/","","","475000","474900","2864","81200","09/15/2023","2000","sqft","237.5","3001.28","sqft","158.27","4","4","","Lindsay Grice","No","No","","3017 Brereton St","Pittsburgh","15219","PA","USA","40.456818","-79.969444"
"https://www.zillow.com/homedetails/303-Battery-Dr-N-Mc-Donald-PA-15057/59857574_zpid/","","","460000","459900","2666","200600","09/15/2023","","","","0.27","acres","1735194.27","4","3","","Jennifer Crouse","No","No","","303 Battery Dr N","Mc Donald","15057","PA","USA","40.37827","-80.16436"
"https://www.zillow.com/homedetails/1647-Pinehurst-Ct-Pittsburgh-PA-15237/11588898_zpid/","","","479900","479800","2880","215400","09/14/2023","1984","sqft","241.89","0.52","acres","916189.39","3","3","","Gayle Blonar","No","No","","1647 Pinehurst Ct","Pittsburgh","15237","PA","USA","40.564682","-80.08102"
"https://www.zillow.com/homedetails/150-Woodhaven-Dr-Pittsburgh-PA-15228/11397742_zpid/","","","455000","455000","1866","222300","09/13/2023","","","","0.32","acres","1400862.07","3","2","","Luanne Ryan","No","No","","150 Woodhaven Dr","Pittsburgh","15228","PA","USA","40.36432","-80.05444"
"https://www.zillow.com/homedetails/526-S-Lang-Ave-Pittsburgh-PA-15208/11288156_zpid/","","","470000","469900","2834","150000","09/11/2023","2462","sqft","190.9","3301.85","sqft","142.34","6","2","","Eileen Doheny","No","No","","526 S Lang Ave","Pittsburgh","15208","PA","USA","40.44568","-79.90659"
"https://www.zillow.com/homedetails/5590-Pocusset-St-Pittsburgh-PA-15217/11635352_zpid/","","","465000","464900","2804","269500","09/11/2023","3003","sqft","154.85","6542.71","sqft","71.07","6","4","","Sherri Mayer","No","No","","5590 Pocusset St","Pittsburgh","15217","PA","USA","40.42901","-79.92757"
"https://www.zillow.com/homedetails/826-Wainwright-Dr-Pittsburgh-PA-15228/11397028_zpid/","","","465210","465000","2798","180000","09/08/2023","2084","sqft","223.23","8559.54","sqft","54.35","4","3","","Judi Agostinelli","No","No","","826 Wainwright Dr","Pittsburgh","15228","PA","USA","40.36037","-80.03779"
"https://www.zillow.com/homedetails/3407-Ward-St-Pittsburgh-PA-15213/11413509_zpid/","","","455000","454900","2214","103000","09/08/2023","1892","sqft","240.49","3179.88","sqft","143.09","5","4","","Vicky Chang","No","No","","3407 Ward St","Pittsburgh","15213","PA","USA","40.434982","-79.95474"
"https://www.zillow.com/homedetails/472-Arden-Rd-Pittsburgh-PA-15216/11658849_zpid/","","","470000","469100","2850","213600","09/06/2023","2105","sqft","223.28","4791.6","sqft","98.09","4","3","","John Geisler","No","No","","472 Arden Rd","Pittsburgh","15216","PA","USA","40.388206","-80.05524"
"https://www.zillow.com/homedetails/8087-Oxbridge-Dr-Pittsburgh-PA-15237/11559191_zpid/","","","460000","459900","2999","250000","09/01/2023","2330","sqft","197.42","0.3","acres","1553004.73","4","3","","Marianne Hall","No","No","","8087 Oxbridge Dr","Pittsburgh","15237","PA","USA","40.55568","-80.00663"
"https://www.zillow.com/homedetails/1036-Granite-Dr-Mc-Donald-PA-15057/164423275_zpid/","","","470000","469800","2861","301900","09/01/2023","2608","sqft","180.21","0.33","acres","1441275.68","5","4","","Raymond Carnevali","No","No","","1036 Granite Dr","Mc Donald","15057","PA","USA","40.37898","-80.19866"
"https://www.zillow.com/homedetails/4674-Peoples-Rd-Pittsburgh-PA-15237/11371061_zpid/","","","461000","460900","2655","182300","08/30/2023","","","","4.21","acres","109501.19","5","4","","Kristi Stebler","No","No","","4674 Peoples Rd","Pittsburgh","15237","PA","USA","40.504993","-79.991646"
"https://www.zillow.com/homedetails/104-Springhouse-Dr-Clairton-PA-15025/11605429_zpid/","","","465000","464900","2804","258300","08/30/2023","2237","sqft","207.87","0.3","acres","1550000","4","3","","Tracy Khalil","No","No","","104 Springhouse Dr","Clairton","15025","PA","USA","40.299","-79.95995"
"https://www.zillow.com/homedetails/2583-Giant-Oaks-Dr-Pittsburgh-PA-15241/11551422_zpid/","","","475000","475200","2865","246100","08/25/2023","2366","sqft","200.76","0.33","acres","1425998.2","4","4","","Valerie Rose","No","No","","2583 Giant Oaks Dr","Pittsburgh","15241","PA","USA","40.31986","-80.091"
"https://www.zillow.com/homedetails/3004-Shawnee-Ct-Gibsonia-PA-15044/11276343_zpid/","","","465000","465300","2804","255600","08/24/2023","2926","sqft","158.92","0.28","acres","1687227.87","4","4","","Linda Boettcher","No","No","","3004 Shawnee Ct","Gibsonia","15044","PA","USA","40.60426","-79.93505"
"https://www.zillow.com/homedetails/714-Savannah-Ave-Pittsburgh-PA-15221/11342310_zpid/","","","464000","463700","2570","73400","08/24/2023","2420","sqft","191.74","3118.9","sqft","148.77","4","3","","Leesa Belt-Haglund","No","No","","714 Savannah Ave","Pittsburgh","15221","PA","USA","40.438286","-79.89494"
"https://www.zillow.com/homedetails/52-Trotter-Cir-Sewickley-PA-15143/11616056_zpid/","","","470000","470100","2835","300000","08/24/2023","2616","sqft","179.66","0.4","acres","1172362.19","4","4","","Pascale Beaudin","No","No","","52 Trotter Cir","Sewickley","15143","PA","USA","40.57644","-80.12924"
"https://www.zillow.com/homedetails/116-Walnut-Dr-Mc-Kees-Rocks-PA-15136/104363052_zpid/","","","459800","459900","2671","231600","08/23/2023","","","","0.45","acres","1025652.46","4","3","","Angie Xu","No","No","","116 Walnut Dr","Mc Kees Rocks","15136","PA","USA","40.446175","-80.13423"
"https://www.zillow.com/homedetails/1067-Granite-Dr-Mc-Donald-PA-15057/164654436_zpid/","","","476000","476100","2871","283700","08/23/2023","2448","sqft","194.44","0.34","acres","1400411.89","4","3","","Jennifer Crouse","No","No","","1067 Granite Dr","Mc Donald","15057","PA","USA","40.375496","-80.19792"
"https://www.zillow.com/homedetails/10067-Oakridge-Dr-Wexford-PA-15090/11257975_zpid/","","","475000","475100","2865","234100","08/22/2023","2484","sqft","191.22","0.51","acres","923405.91","4","3","","Alex Giannetti","No","No","","10067 Oakridge Dr","Wexford","15090","PA","USA","40.5945","-80.050186"
"https://www.zillow.com/homedetails/240-39th-St-Pittsburgh-PA-15201/11513817_zpid/","","","475000","475400","2865","109900","08/15/2023","2126","sqft","223.42","3301.85","sqft","143.86","3","2","","Carlie Donahue","No","No","","240 39th St","Pittsburgh","15201","PA","USA","40.466312","-79.96265"
"https://www.zillow.com/homedetails/311-Compass-Ct-Mc-Donald-PA-15057/104361178_zpid/","","","472000","471100","2848","276500","08/11/2023","2824","sqft","167.14","0.63","acres","743541.27","4","4","","Elaine Goldblum","No","No","","311 Compass Ct","Mc Donald","15057","PA","USA","40.40319","-80.25519"
"https://www.zillow.com/homedetails/235-Woodhaven-Dr-Pittsburgh-PA-15228/11397975_zpid/","","","468500","468500","2827","206300","08/10/2023","1698","sqft","275.91","7562.02","sqft","61.95","3","3","","Cindy McVerry","No","No","","235 Woodhaven Dr","Pittsburgh","15228","PA","USA","40.361366","-80.054924"
"https://www.zillow.com/homedetails/526-Leland-Dr-Pittsburgh-PA-15236/11468643_zpid/","","","475000","474900","2866","252000","08/10/2023","2562","sqft","185.4","0.25","acres","1870078.74","5","4","","Michele Ferris","No","No","","526 Leland Dr","Pittsburgh","15236","PA","USA","40.3401","-79.971954"
"https://www.zillow.com/homedetails/621-Manilla-St-Pittsburgh-PA-15219/11659642_zpid/","","","470000","470000","2836","186800","08/10/2023","","","","4042.37","sqft","116.27","3","3","","Georgie Smigel","No","No","","621 Manilla St","Pittsburgh","15219","PA","USA","40.444096","-79.98596"
"https://www.zillow.com/homedetails/203-Victoria-Dr-Pittsburgh-PA-15239/337926389_zpid/","","","460000","460000","1610","1200","08/10/2023","2448","sqft","187.91","0.35","acres","1325648.41","4","3","","Catherine Campbell","No","No","","203 Victoria Dr","Pittsburgh","15239","PA","USA","40.475796","-79.72961"
"https://www.zillow.com/homedetails/4930-Meadow-Crest-Dr-Allison-Park-PA-15101/11277040_zpid/","","","460000","459800","2996","217600","08/07/2023","2320","sqft","198.28","0.28","acres","1669800","4","2.5","","","No","No","","4930 Meadow Crest Dr","Allison Park","15101","PA","USA","40.601086","-79.92018"
"https://www.zillow.com/homedetails/323-Blum-Ave-Wexford-PA-15090/11258352_zpid/","","","459000","458900","2795","222100","08/04/2023","2220","sqft","206.76","0.35","acres","1296610.17","4","4","","Sue Malagise","No","No","","323 Blum Ave","Wexford","15090","PA","USA","40.592876","-80.03473"
"https://www.zillow.com/homedetails/451-Orchard-Ave-Bellevue-PA-15202/11325827_zpid/","","","460000","426200","1984","85000","08/03/2023","3996","sqft","115.12","7501.03","sqft","61.32","4","4","","Michael Netzel","No","No","","451 Orchard Ave","Bellevue","15202","PA","USA","40.498318","-80.05233"
"https://www.zillow.com/homedetails/143-Dana-Dr-Sewickley-PA-15143/333136128_zpid/","","","465000","464500","2806","284900","08/03/2023","2324","sqft","200.09","3092.76","sqft","150.35","3","3","","Nia Condrey","No","No","","143 Dana Dr","Sewickley","15143","PA","USA","40.565727","-80.109024"
"https://www.zillow.com/homedetails/6649-Wilkins-Ave-Pittsburgh-PA-15217/11287883_zpid/","","","455000","454400","1814","182200","07/31/2023","1518","sqft","299.74","6499.15","sqft","70.01","4","1","","Sara Augustine","No","No","","6649 Wilkins Ave","Pittsburgh","15217","PA","USA","40.446457","-79.91464"
"https://www.zillow.com/homedetails/229-Foxburg-Dr-Pittsburgh-PA-15205/46327021_zpid/","","","470000","469400","2837","215000","07/28/2023","","","","","","","4","3","","Joy Hill","No","No","","229 Foxburg Dr","Pittsburgh","15205","PA","USA","40.437557","-80.10827"
"https://www.zillow.com/homedetails/458-Emerald-Dr-Allison-Park-PA-15101/59837770_zpid/","","","458458","457900","1999","189400","07/28/2023","2080","sqft","220.41","10454.4","sqft","43.85","4","3","","Beth Danchek","No","No","","458 Emerald Dr","Allison Park","15101","PA","USA","40.542618","-79.94873"
"https://www.zillow.com/homedetails/143-Melinda-Ct-Sewickley-PA-15143/333136202_zpid/","","","456404","","2258","600","07/28/2023","","","","4049","sqft","112.72","","","","","No","No","","143 Melinda Ct","Sewickley","15143","PA","USA","40.564495","-80.11105"
"https://www.zillow.com/homedetails/201-W-Hutchinson-Ave-Pittsburgh-PA-15218/11343280_zpid/","","","469000","468900","2826","275000","07/25/2023","2630","sqft","178.33","5924.16","sqft","79.17","4","3","","","No","No","","201 W Hutchinson Ave","Pittsburgh","15218","PA","USA","40.434296","-79.89"
"https://www.zillow.com/homedetails/9463-Viewcrest-Dr-Allison-Park-PA-15101/11618716_zpid/","","","467500","466900","2822","212000","07/24/2023","2276","sqft","205.4","0.82","acres","571376.19","4","3","","Erin Amelio","No","No","","9463 Viewcrest Dr","Allison Park","15101","PA","USA","40.577637","-79.99451"
"https://www.zillow.com/homedetails/113-Laurelwood-Dr-Pittsburgh-PA-15237/11559573_zpid/","","","455000","454500","2800","222000","07/21/2023","2235","sqft","203.58","0.35","acres","1290780.14","4","3","","Deborah Reddick","No","No","","113 Laurelwood Dr","Pittsburgh","15237","PA","USA","40.551544","-80.00321"
"https://www.zillow.com/homedetails/4404-Yorktown-Dr-Mc-Donald-PA-15057/306759928_zpid/","","","455000","454600","2637","342400","07/19/2023","2144","sqft","212.22","0.42","acres","1084530.78","3","2.5","","","No","No","","4404 Yorktown Dr","Mc Donald","15057","PA","USA","40.366447","-80.18773"
"https://www.zillow.com/homedetails/5540-Glass-Rd-Pittsburgh-PA-15205/11364785_zpid/","","","465000","466000","2809","163100","07/18/2023","","","","0.59","acres","791220.01","3","4","","Sarah Adams","No","No","","5540 Glass Rd","Pittsburgh","15205","PA","USA","40.43975","-80.12702"
"https://www.zillow.com/homedetails/1070-Apple-Hill-Ln-Allison-Park-PA-15101/11618556_zpid/","","","460727","461800","2783","223900","07/17/2023","2303","sqft","200.06","0.27","acres","1717208.35","4","3","","Betsy Wotherspoon","No","No","","1070 Apple Hill Ln","Allison Park","15101","PA","USA","40.577408","-80.00883"
"https://www.zillow.com/homedetails/1227-Windermere-Dr-Pittsburgh-PA-15218/11290150_zpid/","","","470000","471200","2820","185000","07/14/2023","1712","sqft","274.53","5998.21","sqft","78.36","4","2","","Andrew Albright","No","No","","1227 Windermere Dr","Pittsburgh","15218","PA","USA","40.423103","-79.90214"
"https://www.zillow.com/homedetails/1530-Garfield-Ave-Pittsburgh-PA-15212/11387656_zpid/","","","474750","476000","2848","268350","07/14/2023","2075","sqft","228.8","1568.16","sqft","302.74","3","3","","Oran Daly","No","No","","1530 Garfield Ave","Pittsburgh","15212","PA","USA","40.458298","-80.01227"
"https://www.zillow.com/homedetails/471-Manordale-Rd-Pittsburgh-PA-15241/11433416_zpid/","","","455900","457100","2937","265000","07/14/2023","2324","sqft","196.17","0.31","acres","1454690.49","4","4","","Ritu Vaidya","No","No","","471 Manordale Rd","Pittsburgh","15241","PA","USA","40.352406","-80.067314"
"https://www.zillow.com/homedetails/4404-Yorktown-Dr-S-Mc-Donald-PA-15057/2057605349_zpid/","","","455000","","2437","","07/14/2023","2144","sqft","212.22","0.42","acres","1084624.55","3","3","","Sara Minshull","No","No","","4404 Yorktown Dr S","Mc Donald","15057","PA","USA","",""
"https://www.zillow.com/homedetails/1025-Milton-St-Pittsburgh-PA-15218/11343585_zpid/","","","475000","476300","2850","216700","07/12/2023","1532","sqft","310.05","3959.6","sqft","119.96","3","3","","Krystina Krysiak","No","No","","1025 Milton St","Pittsburgh","15218","PA","USA","40.433014","-79.89514"
"https://www.zillow.com/homedetails/7534-Kensington-St-Pittsburgh-PA-15221/11341695_zpid/","","","468000","469000","2808","276000","07/07/2023","1994","sqft","234.7","2613.6","sqft","179.06","4","2","","Molly Howard","No","No","","7534 Kensington St","Pittsburgh","15221","PA","USA","40.442177","-79.898094"
"https://www.zillow.com/homedetails/231-Seegar-Rd-Pittsburgh-PA-15241/11433411_zpid/","","","466590","467600","2794","217000","07/07/2023","1708","sqft","273.18","0.8","acres","583237.5","3","3","","Marlene McNaughton","No","No","","231 Seegar Rd","Pittsburgh","15241","PA","USA","40.351982","-80.07356"
"https://www.zillow.com/homedetails/3825-Mintwood-St-Pittsburgh-PA-15201/11514531_zpid/","","","469000","470000","2814","66800","07/07/2023","","","","2099.59","sqft","223.38","2","4","","Sarah Madia","No","No","","3825 Mintwood St","Pittsburgh","15201","PA","USA","40.46408","-79.9603"
"https://www.zillow.com/homedetails/5577-Hampton-St-Pittsburgh-PA-15206/11620266_zpid/","","","474400","475500","2847","143500","07/07/2023","4591","sqft","103.33","0.31","acres","1530322.58","6","4","","Madalyn Gryger","No","No","","5577 Hampton St","Pittsburgh","15206","PA","USA","40.475758","-79.92479"
"https://www.zillow.com/homedetails/319-37th-St-Pittsburgh-PA-15201/11514403_zpid/","","","455000","446400","2100","41000","07/06/2023","","","","1197.9","sqft","379.83","3","2","","Sarah Madia","No","No","","319 37th St","Pittsburgh","15201","PA","USA","40.463818","-79.96209"
"https://www.zillow.com/homedetails/5731-Hobart-St-Pittsburgh-PA-15217/11632002_zpid/","","","455051","456100","2600","227800","07/05/2023","1921","sqft","236.88","4569.44","sqft","99.59","4","3","","Ann Greathouse","No","No","","5731 Hobart St","Pittsburgh","15217","PA","USA","40.43358","-79.92395"
"https://www.zillow.com/homedetails/626-Hemlock-Rd-Coraopolis-PA-15108/59846244_zpid/","","","460845","462000","2766","255000","07/03/2023","2398","sqft","192.18","0.41","acres","1126760.39","3","3","","Barbara Baker","No","No","","626 Hemlock Rd","Coraopolis","15108","PA","USA","40.45986","-80.21145"
"https://www.zillow.com/homedetails/109-Parkview-Dr-Pittsburgh-PA-15239/333135993_zpid/","","","466375","","1488","2600","07/03/2023","","","","0.67","acres","694136.57","","","","","No","No","","109 Parkview Dr","Pittsburgh","15239","PA","USA","40.47661","-79.73257"
"https://www.zillow.com/homedetails/29-Carleton-Dr-Pittsburgh-PA-15243/11360090_zpid/","","","455000","456300","2400","215200","06/30/2023","1976","sqft","230.26","0.33","acres","1376701.97","4","3","","Jennifer Crouse","No","No","","29 Carleton Dr","Pittsburgh","15243","PA","USA","40.373844","-80.07906"
"https://www.zillow.com/homedetails/1208-Loraine-St-Pittsburgh-PA-15212/11388769_zpid/","","","455000","456400","1884","102700","06/28/2023","1550","sqft","293.55","1546.38","sqft","294.24","3","3","","Paola Andrae","No","No","","1208 Loraine St","Pittsburgh","15212","PA","USA","40.456364","-80.00532"
"https://www.zillow.com/homedetails/210-Navajo-Rd-Pittsburgh-PA-15241/11472211_zpid/","","","475000","476600","2876","209200","06/27/2023","2450","sqft","193.88","0.52","acres","921972.05","4","4","","Daniel Demers","No","No","","210 Navajo Rd","Pittsburgh","15241","PA","USA","40.33618","-80.0571"
"https://www.zillow.com/homedetails/1125-Savannah-Ave-Pittsburgh-PA-15218/11343646_zpid/","","","465500","467400","2820","282300","06/23/2023","1362","sqft","341.78","3720.02","sqft","125.13","3","2","","Michael Reed","No","No","","1125 Savannah Ave","Pittsburgh","15218","PA","USA","40.432983","-79.89125"
"https://www.zillow.com/homedetails/15-New-Brighton-Rd-Pittsburgh-PA-15202/11405538_zpid/","","","472000","473900","2834","233700","06/23/2023","","","","0.42","acres","1128107.07","3","3","","Shane Hinderliter","No","No","","15 New Brighton Rd","Pittsburgh","15202","PA","USA","40.51361","-80.07271"
"https://www.zillow.com/homedetails/2576-Matterhorn-Dr-Wexford-PA-15090/11297474_zpid/","","","465000","467000","2792","253800","06/21/2023","2306","sqft","201.65","0.49","acres","939583.75","4","4","","Sarah McGonagle","No","No","","2576 Matterhorn Dr","Wexford","15090","PA","USA","40.611195","-80.06935"
"https://www.zillow.com/homedetails/543-Hickory-Grade-Rd-Bridgeville-PA-15017/59858222_zpid/","","","478000","480200","2871","268200","06/20/2023","2463","sqft","194.07","0.55","acres","864376.13","4","3","","Jennifer Crouse","No","No","","543 Hickory Grade Rd","Bridgeville","15017","PA","USA","40.345863","-80.14678"
"https://www.zillow.com/homedetails/929-Meadow-Crest-Dr-Pittsburgh-PA-15237/11557528_zpid/","","","465000","467500","2794","220000","06/15/2023","","","","0.25","acres","1860000","4","3","","Tamara Groden","No","No","","929 Meadow Crest Dr","Pittsburgh","15237","PA","USA","40.55595","-80.062874"
"https://www.zillow.com/homedetails/222-Larue-Dr-Coraopolis-PA-15108/11552895_zpid/","","","460000","462600","2791","177400","06/14/2023","2246","sqft","204.81","0.5","acres","920000","3","4","","Cindy Rebeck","No","No","","222 Larue Dr","Coraopolis","15108","PA","USA","40.52008","-80.200294"
"https://www.zillow.com/homedetails/4014-Fieldcrest-Dr-Bridgeville-PA-15017/123703810_zpid/","","","464000","466700","2816","320000","06/13/2023","","","","5580.04","sqft","83.15","4","4","","Christopher Johnson","No","No","","4014 Fieldcrest Dr","Bridgeville","15017","PA","USA","40.32388","-80.141396"
"https://www.zillow.com/homedetails/2351-Berkshire-Dr-Pittsburgh-PA-15241/11549440_zpid/","","","470000","473000","2854","340400","06/09/2023","2348","sqft","200.17","0.3","acres","1566666.67","4","3","","Michael Reed","No","No","","2351 Berkshire Dr","Pittsburgh","15241","PA","USA","40.323635","-80.07613"
"https://www.zillow.com/homedetails/805-Frickwood-Dr-South-Park-PA-15129/337926946_zpid/","","","475000","478100","2885","2100","06/09/2023","2387","sqft","198.99","10018.8","sqft","47.41","4","3","","Brittany Newman","No","No","","805 Frickwood Dr","South Park","15129","PA","USA","40.28122","-79.97412"
"https://www.zillow.com/homedetails/Bower-Hill-Rd-Bridgeville-PA-15017/246261944_zpid/","","","470000","","1385","7200","06/07/2023","","","","0.47","acres","1007688.14","","","","","No","No","","Bower Hill Rd","Bridgeville","15017","PA","USA","40.35991","-80.11672"
"https://www.zillow.com/homedetails/5-Queens-Ct-Pittsburgh-PA-15238/11444364_zpid/","","","470000","473300","2856","263800","06/06/2023","2204","sqft","213.25","6385.9","sqft","73.6","4","4","","MaryAnn Bacharach","No","No","","5 Queens Ct","Pittsburgh","15238","PA","USA","40.529083","-79.91759"
"https://www.zillow.com/homedetails/516-Lurry-St-Bridgeville-PA-15017/11400301_zpid/","","","470000","473400","2856","345400","06/05/2023","3331","sqft","141.1","0.4","acres","1178240.16","4","5","","Kelly Hessert","No","No","","516 Lurry St","Bridgeville","15017","PA","USA","40.360214","-80.11639"
"https://www.zillow.com/homedetails/112-Tiffany-Ridge-Dr-Coraopolis-PA-15108/11517527_zpid/","","","455000","458500","2749","323800","06/02/2023","2488","sqft","182.88","0.47","acres","959915.61","4","3","","Robin Ross","No","No","","112 Tiffany Ridge Dr","Coraopolis","15108","PA","USA","40.519","-80.18598"
"https://www.zillow.com/homedetails/409-Colt-Cir-Clinton-PA-15026/164242231_zpid/","","","460000","463500","2794","284700","06/02/2023","2720","sqft","169.12","7466.18","sqft","61.61","4","4","","Dawn Foster","No","No","","409 Colt Cir","Clinton","15026","PA","USA","40.482204","-80.31287"
"https://www.zillow.com/homedetails/110-Lee-Ann-Ct-Pittsburgh-PA-15239/164536352_zpid/","","","460000","463500","2797","239100","06/02/2023","2292","sqft","200.7","0.58","acres","793377.03","4","4","","Shane Smith","No","No","","110 Lee Ann Ct","Pittsburgh","15239","PA","USA","40.50139","-79.744774"
"https://www.zillow.com/homedetails/5168-Prince-Phillip-Ct-Gibsonia-PA-15044/11299378_zpid/","","","469900","473600","2858","242700","06/01/2023","2404","sqft","195.47","0.61","acres","774007.58","4","3","","Beth Danchek","No","No","","5168 Prince Phillip Ct","Gibsonia","15044","PA","USA","40.609856","-79.9218"
"https://www.zillow.com/homedetails/2368-Rexford-Dr-Pittsburgh-PA-15241/11510501_zpid/","","","474000","478000","2885","228000","05/30/2023","2420","sqft","195.87","0.4","acres","1190356.6","4","4","","Long Pham","No","No","","2368 Rexford Dr","Pittsburgh","15241","PA","USA","40.33406","-80.09296"
"https://www.zillow.com/homedetails/4136-Lee-Manor-Dr-Allison-Park-PA-15101/11592908_zpid/","","","475000","479000","2891","229200","05/30/2023","2863","sqft","165.91","0.5","acres","944709.63","4","4","","Michael Netzel","No","No","","4136 Lee Manor Dr","Allison Park","15101","PA","USA","40.568157","-79.94672"
"https://www.zillow.com/homedetails/139-Sheridan-Ave-Pittsburgh-PA-15202/11326266_zpid/","","","460000","464400","2803","135200","05/26/2023","3003","sqft","153.18","10415.2","sqft","44.17","4","3","","Jonathan Calhoun","No","No","","139 Sheridan Ave","Pittsburgh","15202","PA","USA","40.49214","-80.05813"
"https://www.zillow.com/homedetails/819-Frickwood-Dr-South-Park-PA-15129/337926948_zpid/","","","470000","474600","2864","1900","05/25/2023","2091","sqft","224.77","9583.2","sqft","49.04","4","3","","Brittany Newman","No","No","","819 Frickwood Dr","South Park","15129","PA","USA","40.281506","-79.97441"
"https://www.zillow.com/homedetails/363-Cobblestone-Cir-Mc-Kees-Rocks-PA-15136/11365459_zpid/","","","462700","467500","2821","261100","05/23/2023","2428","sqft","190.57","0.61","acres","758524.59","4","4","","Christian Wilhelm","No","No","","363 Cobblestone Cir","Mc Kees Rocks","15136","PA","USA","40.469303","-80.13012"
"https://www.zillow.com/homedetails/823-Ponderosa-Dr-Imperial-PA-15126/59846526_zpid/","","","480000","485000","2927","238300","05/23/2023","","","","","","","4","4","","Georgann Koumaros","No","No","","823 Ponderosa Dr","Imperial","15126","PA","USA","40.462555","-80.24535"
"https://www.zillow.com/homedetails/220-Andrew-Dr-Clairton-PA-15025/164666228_zpid/","","","470000","475000","2866","8000","05/22/2023","","","","0.73","acres","640763.46","4","3","","Ralph Harvey","No","No","","220 Andrew Dr","Clairton","15025","PA","USA","40.29692","-79.92369"
"https://www.zillow.com/homedetails/3060-Annandale-Dr-Presto-PA-15142/59844644_zpid/","","","455000","460300","2722","310400","05/19/2023","","","","0.7","acres","650000","2","3","","Rose Tewell","No","No","","3060 Annandale Dr","Presto","15142","PA","USA","40.391846","-80.12977"
"https://www.zillow.com/homedetails/801-Frickwood-Dr-South-Park-PA-15129/337926945_zpid/","","","463990","469400","2833","1900","05/19/2023","2421","sqft","191.65","9975.24","sqft","46.51","4","3","","Brittany Newman","No","No","","801 Frickwood Dr","South Park","15129","PA","USA","40.281067","-79.97404"
"https://www.zillow.com/homedetails/885-Bideford-Dr-South-Park-PA-15129/337926972_zpid/","","","466000","","1474","2100","05/18/2023","3080","sqft","151.3","10555","sqft","44.15","4","2.5","","","No","No","","885 Bideford Dr","South Park","15129","PA","USA","40.27922","-79.97074"
"https://www.zillow.com/homedetails/345-Roosevelt-Rd-Pittsburgh-PA-15237/11404914_zpid/","","","473000","479400","2894","225900","05/12/2023","1350","sqft","350.37","1.72","acres","275000","3","3","","Lorraine Easton","No","No","","345 Roosevelt Rd","Pittsburgh","15237","PA","USA","40.516693","-80.09859"
"https://www.zillow.com/homedetails/10011-Pine-Ridge-Dr-Wexford-PA-15090/11258237_zpid/","","","461006","467300","2820","212800","05/12/2023","2237","sqft","206.08","0.27","acres","1713140.1","4","3","","Monice Ming Tong","No","No","","10011 Pine Ridge Dr","Wexford","15090","PA","USA","40.59484","-80.03383"
"https://www.zillow.com/homedetails/523-S-Lang-Ave-Pittsburgh-PA-15208/11288167_zpid/","","","476000","482500","2912","142900","05/12/2023","1860","sqft","255.91","2500.34","sqft","190.37","5","2","","Bridget Kelly","No","No","","523 S Lang Ave","Pittsburgh","15208","PA","USA","40.44552","-79.906075"
"https://www.zillow.com/homedetails/285-Park-Entrance-Dr-Pittsburgh-PA-15228/11358839_zpid/","","","480000","486500","2936","244100","05/12/2023","2047","sqft","234.49","9234.72","sqft","51.98","4","2","","Arlene Steiner","No","No","","285 Park Entrance Dr","Pittsburgh","15228","PA","USA","40.368587","-80.04397"
"https://www.zillow.com/homedetails/93-Cowan-Rd-Carnegie-PA-15106/59844411_zpid/","","","472501","478900","2891","211600","05/12/2023","2341","sqft","201.84","0.79","acres","600229.93","4","3","","Barbara Baker","No","No","","93 Cowan Rd","Carnegie","15106","PA","USA","40.425407","-80.14812"
"https://www.zillow.com/homedetails/422-3rd-St-Oakmont-PA-15139/11447589_zpid/","","","462000","468500","2828","137900","05/10/2023","1626","sqft","284.13","4791.6","sqft","96.42","4","3","","Ken Surdick","No","No","","422 3rd St","Oakmont","15139","PA","USA","40.517063","-79.84424"
"https://www.zillow.com/homedetails/1337-Kirsopp-Ave-Pittsburgh-PA-15220/116179312_zpid/","","","455000","461400","2785","256300","05/10/2023","","","","3011.05","sqft","151.11","4","5","","Jackie Horvath","No","No","","1337 Kirsopp Ave","Pittsburgh","15220","PA","USA","40.41312","-80.041626"
"https://www.zillow.com/homedetails/4153-Mount-Royal-Blvd-Allison-Park-PA-15101/11591836_zpid/","","","470000","476800","2877","237000","05/09/2023","2582","sqft","182.03","1.87","acres","251336.9","3","4","","Brandon Berkavich","No","No","","4153 Mount Royal Blvd","Allison Park","15101","PA","USA","40.568443","-79.96596"
"https://www.zillow.com/homedetails/120-Hunters-Run-Dr-Coraopolis-PA-15108/55348865_zpid/","","","479900","486800","2938","227300","05/09/2023","2174","sqft","220.75","0.32","acres","1495015.58","4","4","","Dan Geller","No","No","","120 Hunters Run Dr","Coraopolis","15108","PA","USA","40.481663","-80.178375"
"https://www.zillow.com/homedetails/1615-Williamsburg-Cir-Pittsburgh-PA-15241/11581600_zpid/","","","474900","481900","2909","303400","05/08/2023","","","","0.68","acres","698382.35","4","4","","Reed Pirain","No","No","","1615 Williamsburg Cir","Pittsburgh","15241","PA","USA","40.309452","-80.09199"
"https://www.zillow.com/homedetails/100-Red-Pine-Dr-Coraopolis-PA-15108/333136283_zpid/","","","470000","477300","2881","323000","05/05/2023","2370","sqft","198.31","0.28","acres","1687612.21","4","4","","Joi Edmonds","No","No","","100 Red Pine Dr","Coraopolis","15108","PA","USA","40.493526","-80.10706"
"https://www.zillow.com/homedetails/8317-Van-Buren-Dr-Pittsburgh-PA-15237/11557455_zpid/","","","455000","462400","2791","169600","05/03/2023","1692","sqft","268.91","0.7","acres","650000","4","2","","Cynthia Harnish","No","No","","8317 Van Buren Dr","Pittsburgh","15237","PA","USA","40.558598","-80.05249"
"https://www.zillow.com/homedetails/505-Lloyd-St-Pittsburgh-PA-15208/11288140_zpid/","","","465000","472600","2853","142000","05/02/2023","1402","sqft","331.67","2975.15","sqft","156.29","3","2","","MaryAnn Bacharach","No","No","","505 Lloyd St","Pittsburgh","15208","PA","USA","40.446377","-79.90716"
"https://www.zillow.com/homedetails/332-Elysian-St-Pittsburgh-PA-15206/11286968_zpid/","","","464900","472700","2853","191400","05/01/2023","2152","sqft","216.03","3924.76","sqft","118.45","5","3","","Jeannine Mullen","No","No","","332 Elysian St","Pittsburgh","15206","PA","USA","40.45079","-79.91382"
"https://www.zillow.com/homedetails/2225-Country-Club-Dr-Pittsburgh-PA-15241/11510456_zpid/","","","465000","472800","2854","336900","05/01/2023","2799","sqft","166.13","10162.55","sqft","45.76","4","3","","Cindy McVerry","No","No","","2225 Country Club Dr","Pittsburgh","15241","PA","USA","40.32734","-80.068085"
"https://www.zillow.com/homedetails/6430-Jackson-St-Pittsburgh-PA-15206/11284157_zpid/","","","475000","483500","2918","199200","04/28/2023","1400","sqft","339.29","5998.21","sqft","79.19","2","2","","Maureen Chiafullo-Haid","No","No","","6430 Jackson St","Pittsburgh","15206","PA","USA","40.47082","-79.91237"
"https://www.zillow.com/homedetails/2149-Clairmont-Dr-Pittsburgh-PA-15241/11472652_zpid/","","","465000","473300","2857","269700","04/28/2023","2653","sqft","175.27","0.32","acres","1446345.26","4","3","","Lindsey Callender","No","No","","2149 Clairmont Dr","Pittsburgh","15241","PA","USA","40.344616","-80.09263"
"https://www.zillow.com/homedetails/2184-Clairmont-Dr-Pittsburgh-PA-15241/11472686_zpid/","","","455000","463100","2795","265300","04/28/2023","2296","sqft","198.17","0.31","acres","1471539.46","5","4","","Barbara Baker","No","No","","2184 Clairmont Dr","Pittsburgh","15241","PA","USA","40.343575","-80.09041"
"https://www.zillow.com/homedetails/3440-Brookdale-Dr-Pittsburgh-PA-15241/11509781_zpid/","","","465000","473300","2857","268700","04/28/2023","2642","sqft","176","0.42","acres","1107142.86","5","3","","John Geisler","No","No","","3440 Brookdale Dr","Pittsburgh","15241","PA","USA","40.332695","-80.06549"
"https://www.zillow.com/homedetails/114-Cimarron-Dr-Coraopolis-PA-15108/104363381_zpid/","","","470000","479100","2892","270600","04/25/2023","2533","sqft","185.55","0.27","acres","1763602.25","4","3","","Mike Hornung","No","No","","114 Cimarron Dr","Coraopolis","15108","PA","USA","40.5378","-80.26099"
"https://www.zillow.com/homedetails/313-Main-St-Pittsburgh-PA-15201/11513520_zpid/","","","475000","484800","2926","171000","04/21/2023","2961","sqft","160.42","1999.4","sqft","237.57","5","4","","Emily Fraser","No","No","","313 Main St","Pittsburgh","15201","PA","USA","40.467426","-79.95724"
"https://www.zillow.com/homedetails/118-Windgate-Dr-Wexford-PA-15090/59847127_zpid/","","","456500","465200","2812","221100","04/21/2023","1746","sqft","261.45","0.46","acres","994336.75","3","3","","Angela Leslie","No","No","","118 Windgate Dr","Wexford","15090","PA","USA","40.618183","-80.07481"
"https://www.zillow.com/homedetails/1321-Reddour-St-Pittsburgh-PA-15212/11388604_zpid/","","","470000","","2841","148200","04/18/2023","2121","sqft","221.59","1842.59","sqft","255.08","4","3","","Heather Edmondson","No","No","","1321 Reddour St","Pittsburgh","15212","PA","USA","40.457005","-80.00836"
"https://www.zillow.com/homedetails/104-Steiner-Dr-Pittsburgh-PA-15236/52560895_zpid/","","","465000","475100","2868","260700","04/18/2023","2712","sqft","171.46","0.4","acres","1151071.21","4","2.5","","","No","No","","104 Steiner Dr","Pittsburgh","15236","PA","USA","40.32561","-79.95206"
"https://www.zillow.com/homedetails/121-Cardinal-Cir-Pittsburgh-PA-15237/61261626_zpid/","","","472023","483000","2915","350000","04/14/2023","2620","sqft","180.16","0.5","acres","944046","4","4","","Wayne Carson","No","No","","121 Cardinal Cir","Pittsburgh","15237","PA","USA","40.546413","-80.097694"
"https://www.zillow.com/homedetails/418-Delaware-Ave-Oakmont-PA-15139/11447637_zpid/","","","477000","488600","2950","139600","04/11/2023","2164","sqft","220.43","5749.92","sqft","82.96","3","3","","Lori Hummel","No","No","","418 Delaware Ave","Oakmont","15139","PA","USA","40.517162","-79.839935"
"https://www.zillow.com/homedetails/1411-Elm-Dr-Monongahela-PA-15063/11374592_zpid/","","","455000","442900","2981","191500","03/31/2023","2560","sqft","177.73","11.23","acres","40516.47","4","4","","Lisa Dovichin","No","No","","1411 Elm Dr","Monongahela","15063","PA","USA","40.206123","-79.90957"
"https://www.zillow.com/homedetails/1378-Langport-Dr-Pittsburgh-PA-15241/11473113_zpid/","","","472000","484300","2931","268300","03/31/2023","2995","sqft","157.6","0.45","acres","1038503.85","4","4","","Sandra Goldstein","No","No","","1378 Langport Dr","Pittsburgh","15241","PA","USA","40.344784","-80.10605"
"https://www.zillow.com/homedetails/312-Fox-Meadows-Ct-Glenshaw-PA-15116/87989721_zpid/","","","467000","480100","2908","255000","03/24/2023","2552","sqft","182.99","0.28","acres","1679856.12","4","4","","Libby Krepps","No","No","","312 Fox Meadows Ct","Glenshaw","15116","PA","USA","40.551853","-79.98448"
"https://www.zillow.com/homedetails/1121-Farragut-St-Pittsburgh-PA-15206/11621010_zpid/","","","470000","483400","2927","190000","03/23/2023","1975","sqft","237.97","4491.04","sqft","104.65","4","2","","Pia Colucci","No","No","","1121 Farragut St","Pittsburgh","15206","PA","USA","40.473965","-79.91791"
"https://www.zillow.com/homedetails/1238-Lancaster-Ave-Pittsburgh-PA-15218/11343887_zpid/","","","455000","468500","2838","229800","03/20/2023","1580","sqft","287.97","4199.18","sqft","108.35","3","1","","Amy Marks","No","No","","1238 Lancaster Ave","Pittsburgh","15218","PA","USA","40.429","-79.89675"
"https://www.zillow.com/homedetails/113-Briar-Meadows-Dr-Pittsburgh-PA-15216/11573967_zpid/","","","460000","474200","2872","314700","03/17/2023","2208","sqft","208.33","0.27","acres","1688073.39","4","4","","Barbara Baker","No","No","","113 Briar Meadows Dr","Pittsburgh","15216","PA","USA","40.399323","-80.05333"
"https://www.zillow.com/homedetails/621-12th-St-Oakmont-PA-15139/11489025_zpid/","","","475000","490900","2974","170000","03/10/2023","2240","sqft","212.05","6734.38","sqft","70.53","4","4","","Lori Hummel","No","No","","621 12th St","Oakmont","15139","PA","USA","40.518784","-79.8298"
"https://www.zillow.com/homedetails/1010-Peak-Dr-South-Park-PA-15129/2059252782_zpid/","","","481055","","1500","","03/10/2023","3625","sqft","132.7","0.37","acres","1300148.65","4","4","","David Bruckner","No","No","","1010 Peak Dr","South Park","15129","PA","USA","",""
"https://www.zillow.com/homedetails/404-Freedom-Dr-Gibsonia-PA-15044/338888285_zpid/","","","477796","","1817","300","03/06/2023","","","","2251","sqft","212.26","","","","","No","No","","404 Freedom Dr","Gibsonia","15044","PA","USA","40.65551","-79.978905"
"https://www.zillow.com/homedetails/211-Dana-Dr-Sewickley-PA-15143/333136168_zpid/","","","469320","","2081","800","03/02/2023","","","","4701","sqft","99.83","","","","","No","No","","211 Dana Dr","Sewickley","15143","PA","USA","40.56544","-80.10478"
"https://www.zillow.com/homedetails/1461-Bristol-Dr-South-Park-PA-15129/11637503_zpid/","","","455000","472000","2860","224700","02/28/2023","","","","","","","5","4","","Sara Abraham-Hofmann","No","No","","1461 Bristol Dr","South Park","15129","PA","USA","40.294067","-79.97834"
"https://www.zillow.com/homedetails/340-Indian-Ridge-Dr-Coraopolis-PA-15108/11478659_zpid/","","","455000","472900","2865","245000","02/23/2023","2281","sqft","199.47","1.87","acres","243185.46","4","4","","Robin Ross","No","No","","340 Indian Ridge Dr","Coraopolis","15108","PA","USA","40.514748","-80.17992"
"https://www.zillow.com/homedetails/1-Schoolhouse-Ln-Pittsburgh-PA-15232/11529352_zpid/","","","482500","501500","3038","200000","02/23/2023","1504","sqft","320.81","1289.38","sqft","374.21","2","3","","Bennett Blaxter-Kotkiewicz","No","No","","1 Schoolhouse Ln","Pittsburgh","15232","PA","USA","40.44867","-79.93509"
"https://www.zillow.com/homedetails/1463-Bretton-Way-Pittsburgh-PA-15237/11559428_zpid/","","","470000","489600","2966","282400","02/17/2023","2666","sqft","176.29","1280.66","sqft","367","4","3","","Robert Strohm","No","No","","1463 Bretton Way","Pittsburgh","15237","PA","USA","40.554867","-80.00378"
"https://www.zillow.com/homedetails/114-Gateway-Dr-Pittsburgh-PA-15237/306759463_zpid/","","","480000","500200","3030","357800","02/16/2023","2214","sqft","216.8","","","","3","2","","Erin Cucarese","No","No","","114 Gateway Dr","Pittsburgh","15237","PA","USA","40.536697","-80.09467"
"https://www.zillow.com/homedetails/5016-Cypress-St-Pittsburgh-PA-15224/11524637_zpid/","","","480000","500400","3032","218900","02/15/2023","2630","sqft","182.51","3210.37","sqft","149.52","6","2","","Ean DiSilvio","No","No","","5016 Cypress St","Pittsburgh","15224","PA","USA","40.4577","-79.945656"
"https://www.zillow.com/homedetails/1041-Millennium-Dr-Bethel-Park-PA-15102/164636569_zpid/","","","477500","497800","3026","394000","02/07/2023","2956","sqft","161.54","0.44","acres","1093928.98","4","4","","Lori Bost","No","No","","1041 Millennium Dr","Bethel Park","15102","PA","USA","40.345177","-80.01939"
"https://www.zillow.com/homedetails/1445-W-North-Ave-Pittsburgh-PA-15233/11611641_zpid/","","","473000","499700","3024","322000","01/30/2023","2402","sqft","196.92","1833.88","sqft","257.92","3","3","","Heather Edmondson","No","No","","1445 W North Ave","Pittsburgh","15233","PA","USA","40.451744","-80.02726"
"https://www.zillow.com/homedetails/6071-Liberty-Blvd-Gibsonia-PA-15044/338888268_zpid/","","","480899","","1817","300","01/30/2023","","","","2015","sqft","238.66","","","","","No","No","","6071 Liberty Blvd","Gibsonia","15044","PA","USA","40.655228","-79.97829"
"https://www.zillow.com/homedetails/721-Marigold-Ct-Bridgeville-PA-15017/92379388_zpid/","","","482000","504500","3070","354000","01/21/2023","2388","sqft","201.84","0.34","acres","1410181.39","4","3","","Ralph Harvey","No","No","","721 Marigold Ct","Bridgeville","15017","PA","USA","40.382977","-80.10222"
"https://www.zillow.com/homedetails/113-Hill-Place-Dr-Mc-Donald-PA-15057/164712623_zpid/","","","467387","489300","2977","333600","01/20/2023","2864","sqft","163.19","8563.9","sqft","54.58","3","3","","Harry Kuruce","No","No","","113 Hill Place Dr","Mc Donald","15057","PA","USA","40.393566","-80.207634"
"https://www.zillow.com/homedetails/102-Cimarron-Dr-Coraopolis-PA-15108/119345565_zpid/","","","482000","506600","3086","362300","01/03/2023","3113","sqft","154.83","0.26","acres","1853133.41","4","4","","Bonnie Loya","No","No","","102 Cimarron Dr","Coraopolis","15108","PA","USA","40.53827","-80.2628"
"https://www.zillow.com/homedetails/513-Hillcrest-Pl-Pittsburgh-PA-15216/11658655_zpid/","","","455000","478200","2913","341000","12/30/2022","","","","5662.8","sqft","80.35","4","4","","Barbara Fisher","No","No","","513 Hillcrest Pl","Pittsburgh","15216","PA","USA","40.39171","-80.05074"
"https://www.zillow.com/homedetails/1024-Davis-Ave-Pittsburgh-PA-15212/11270149_zpid/","","","454900","478100","2913","224200","12/29/2022","","","","10105.92","sqft","45.01","4","2","","Sharon Reese","No","No","","1024 Davis Ave","Pittsburgh","15212","PA","USA","40.48195","-80.03056"
"https://www.zillow.com/homedetails/1298-Pinewood-Dr-Pittsburgh-PA-15243/11361275_zpid/","","","480000","504900","3076","214200","12/22/2022","2472","sqft","194.17","10454.4","sqft","45.91","5","4","","Margaret Harkins","No","No","","1298 Pinewood Dr","Pittsburgh","15243","PA","USA","40.365463","-80.068115"
"https://www.zillow.com/homedetails/116-Eton-Dr-Pittsburgh-PA-15215/11336138_zpid/","","","471000","495600","3019","358100","12/20/2022","2624","sqft","179.5","0.53","acres","885338.35","4","4","","Gina Gruden","No","No","","116 Eton Dr","Pittsburgh","15215","PA","USA","40.496906","-79.88405"
"https://www.zillow.com/homedetails/155-Hickory-Heights-Dr-Bridgeville-PA-15017/59857541_zpid/","","","460000","484000","2949","276000","12/20/2022","2400","sqft","191.67","0.29","acres","1612337.89","4","3","","Joann Robb","No","No","","155 Hickory Heights Dr","Bridgeville","15017","PA","USA","40.34309","-80.14232"
"https://www.zillow.com/homedetails/10580-Landau-Dr-Wexford-PA-15090/11297784_zpid/","","","475000","499800","3045","289500","12/19/2022","2574","sqft","184.54","1.01","acres","471698.11","3","3","","Julia Snider","No","No","","10580 Landau Dr","Wexford","15090","PA","USA","40.613163","-80.039566"
"https://www.zillow.com/homedetails/305-Blackstone-Rd-Coraopolis-PA-15108/11517335_zpid/","","","459900","484100","2950","239100","12/16/2022","","","","0.95","acres","484105.26","4","3","","Gina Cuccaro","No","No","","305 Blackstone Rd","Coraopolis","15108","PA","USA","40.495903","-80.19384"
"https://www.zillow.com/homedetails/324-Cloverdale-Dr-Wexford-PA-15090/59853525_zpid/","","","480000","505300","3079","299000","12/16/2022","","","","0.4","acres","1188118.81","4","3","","Angie Popa","No","No","","324 Cloverdale Dr","Wexford","15090","PA","USA","40.644245","-80.0623"
"https://www.zillow.com/homedetails/2560-Brandt-School-Rd-Wexford-PA-15090/2115397347_zpid/","","","470000","416600","1364","","12/16/2022","1100","sqft","427.27","","","","","","","","No","No","","2560 Brandt School Rd","Wexford","15090","PA","USA","40.61099","-80.088745"
"https://www.zillow.com/homedetails/18-Oakglen-Dr-Oakmont-PA-15139/11446872_zpid/","","","465000","489500","2983","300300","12/15/2022","1888","sqft","246.29","0.44","acres","1051798.24","3","3","","Lisa Lobaugh","No","No","","18 Oakglen Dr","Oakmont","15139","PA","USA","40.527687","-79.83577"
"https://www.zillow.com/homedetails/1904-Penhurst-Mnr-Allison-Park-PA-15101/11527036_zpid/","","","480000","505500","3080","271400","12/12/2022","2132","sqft","225.14","0.61","acres","782013.69","4","4","","Alyssa Olenych","No","No","","1904 Penhurst Mnr","Allison Park","15101","PA","USA","40.545784","-79.947975"
"https://www.zillow.com/homedetails/524-Douglas-Dr-Wexford-PA-15090/242630918_zpid/","","","465000","490400","2988","283100","12/09/2022","1908","sqft","243.71","0.3","acres","1576271.19","3","2","","Sandra Smith","No","No","","524 Douglas Dr","Wexford","15090","PA","USA","40.641785","-80.020485"
"https://www.zillow.com/homedetails/3927-Ash-Dr-Allison-Park-PA-15101/11593122_zpid/","","","457500","482200","2938","291700","12/06/2022","2432","sqft","188.12","0.54","acres","847236.63","4","3","","","No","No","","3927 Ash Dr","Allison Park","15101","PA","USA","40.56081","-79.94836"
"https://www.zillow.com/homedetails/2643-Quail-Hill-Dr-Pittsburgh-PA-15241/11581361_zpid/","","","458200","534400","3262","300900","12/05/2022","2352","sqft","194.81","0.38","acres","1209609.29","3","3","","Jim Dolanch","No","No","","2643 Quail Hill Dr","Pittsburgh","15241","PA","USA","40.31379","-80.095406"
"https://www.zillow.com/homedetails/119-Walkers-Ridge-Rd-Presto-PA-15142/87994391_zpid/","","","480000","506200","3084","301400","12/01/2022","2488","sqft","192.93","0.6","acres","796151.93","4","3","","Joann Robb","No","No","","119 Walkers Ridge Rd","Presto","15142","PA","USA","40.391285","-80.13528"
"https://www.zillow.com/homedetails/11-Elm-Ln-Leetsdale-PA-15056/11587382_zpid/","","","457000","","2600","290000","11/29/2022","2455","sqft","186.15","9243.43","sqft","49.44","4","3","","Amanda Salem","No","No","","11 Elm Ln","Leetsdale","15056","PA","USA","40.562958","-80.2011"
"https://www.zillow.com/homedetails/1668-Heritage-Dr-Pittsburgh-PA-15237/116179270_zpid/","","","475000","501000","3052","276600","11/29/2022","2020","sqft","235.15","0.39","acres","1204505.76","4","2.5","","","No","No","","1668 Heritage Dr","Pittsburgh","15237","PA","USA","40.541557","-80.07578"
"https://www.zillow.com/homedetails/189-Mohawk-Dr-Pittsburgh-PA-15228/11398287_zpid/","","","482500","509000","3100","370000","11/23/2022","2122","sqft","227.38","0.25","acres","1907114.62","5","3","","Karen Marshall","No","No","","189 Mohawk Dr","Pittsburgh","15228","PA","USA","40.359463","-80.05109"
"https://www.zillow.com/homedetails/5880-State-Rd-Gibsonia-PA-15044/11370330_zpid/","","","460000","485300","2956","318400","11/22/2022","1798","sqft","255.84","1.12","acres","410715.97","3","1","","","No","No","","5880 State Rd","Gibsonia","15044","PA","USA","40.663227","-79.96404"
"https://www.zillow.com/homedetails/622-Karrastyn-Ct-Gibsonia-PA-15044/59853395_zpid/","","","480000","546400","3346","297000","11/22/2022","2501","sqft","191.92","0.8","acres","600000","4","4","","Angie Flowers","No","No","","622 Karrastyn Ct","Gibsonia","15044","PA","USA","40.625847","-80.00014"
"https://www.zillow.com/homedetails/169-Anita-Ave-Pittsburgh-PA-15217/11289914_zpid/","","","480000","506600","3085","213300","11/17/2022","","","","5227.2","sqft","91.83","3","3","","Matthew Gable","No","No","","169 Anita Ave","Pittsburgh","15217","PA","USA","40.42473","-79.914635"
"https://www.zillow.com/homedetails/5743-Woodmont-St-Pittsburgh-PA-15217/11630775_zpid/","","","460000","485500","2956","279500","11/17/2022","2900","sqft","158.62","4599.94","sqft","100","6","3","","Dan Haeck","No","No","","5743 Woodmont St","Pittsburgh","15217","PA","USA","40.44232","-79.92403"
"https://www.zillow.com/homedetails/58-Hawthorne-Ave-Pittsburgh-PA-15205/11583309_zpid/","","","460000","485500","2956","284800","11/16/2022","3606","sqft","127.57","7501.03","sqft","61.32","6","3","","DJ Fairley","No","No","","58 Hawthorne Ave","Pittsburgh","15205","PA","USA","40.430073","-80.07216"
"https://www.zillow.com/homedetails/2324-Walruth-Ln-Sewickley-PA-15143/11616299_zpid/","","","455000","480200","2924","327800","11/16/2022","","","","2","acres","227500","4","3","","Pat Mrkonja","No","No","","2324 Walruth Ln","Sewickley","15143","PA","USA","40.57771","-80.083855"
"https://www.zillow.com/homedetails/1538-Monterey-St-Pittsburgh-PA-15212/11387693_zpid/","","","480000","516200","3122","167500","11/15/2022","2160","sqft","222.22","1224.04","sqft","392.15","4","2","","Heather Edmondson","No","No","","1538 Monterey St","Pittsburgh","15212","PA","USA","40.4582","-80.01367"
"https://www.zillow.com/homedetails/29-Elmhurst-Rd-Pittsburgh-PA-15220/11460390_zpid/","","","462000","532100","3230","276100","11/15/2022","2698","sqft","171.24","0.64","acres","721875","3","4","","Marilyn Mielnicki","No","No","","29 Elmhurst Rd","Pittsburgh","15220","PA","USA","40.408566","-80.053566"
"https://www.zillow.com/homedetails/412-Eastern-Ave-Pittsburgh-PA-15215/11335295_zpid/","","","469000","495200","3014","257200","11/10/2022","2053","sqft","228.45","1533.31","sqft","305.87","4","2","","Vicki Gerasole","No","No","","412 Eastern Ave","Pittsburgh","15215","PA","USA","40.49288","-79.901726"
"https://www.zillow.com/homedetails/419-Beech-Dr-Mc-Kees-Rocks-PA-15136/164301606_zpid/","","","475000","501600","3053","294000","11/07/2022","2288","sqft","207.6","0.35","acres","1362593.23","4","3","","Dora Rudick","No","No","","419 Beech Dr","Mc Kees Rocks","15136","PA","USA","40.44679","-80.127686"
"https://www.zillow.com/homedetails/1213-Trailside-Dr-Oakdale-PA-15071/333136621_zpid/","","","457425","483000","2940","336800","11/07/2022","2338","sqft","195.65","10372","sqft","44.1","4","2.5","","","No","No","","1213 Trailside Dr","Oakdale","15071","PA","USA","40.40642","-80.15761"
"https://www.zillow.com/homedetails/Ewing-Rd-Carnegie-PA-15106/164568813_zpid/","","","480000","","2239","110000","11/04/2022","","","","35.32","acres","13588.34","","","","","No","No","","Ewing Rd","Carnegie","15106","PA","USA","40.40908","-80.11756"
"https://www.zillow.com/homedetails/7A-Highlandview-Rd-Carnegie-PA-15106/164608377_zpid/","","","465000","491200","2988","180000","11/02/2022","2552","sqft","182.21","1.56","acres","297694.04","4","2.5","","","No","No","","7A Highlandview Rd","Carnegie","15106","PA","USA","40.39914","-80.136314"
"https://www.zillow.com/homedetails/1223-Veto-St-Pittsburgh-PA-15212/11388521_zpid/","","","455000","437500","1688","123900","11/01/2022","2080","sqft","218.75","1000","sqft","455","4","4","","Jackie Horvath","No","No","","1223 Veto St","Pittsburgh","15212","PA","USA","40.456165","-80.00966"
"https://www.zillow.com/homedetails/5835-Longview-Cir-Bridgeville-PA-15017/87988750_zpid/","","","459409","485300","2953","301900","11/01/2022","","","","0.38","acres","1208652.99","4","4","","Barbara Baker","No","No","","5835 Longview Cir","Bridgeville","15017","PA","USA","40.3472","-80.134834"
"https://www.zillow.com/homedetails/1223-Veto-Central-Pittsburgh-PA-15212/2061619006_zpid/","","","455000","","1402","","11/01/2022","","","","","","","","","","","No","No","","1223 Veto Central","Pittsburgh","15212","PA","USA","",""
"https://www.zillow.com/homedetails/6037-Liberty-Blvd-Gibsonia-PA-15044/2062551715_zpid/","","","479000","506000","3078","","10/31/2022","1807","sqft","265.08","","","","2","2","","","No","No","","6037 Liberty Blvd","Gibsonia","15044","PA","USA","",""
"https://www.zillow.com/homedetails/2595-Matterhorn-Dr-Wexford-PA-15090/11297480_zpid/","","","470000","496500","3019","265200","10/28/2022","2488","sqft","188.91","0.5","acres","936441.52","4","3","","Kim Esposito","No","No","","2595 Matterhorn Dr","Wexford","15090","PA","USA","40.612267","-80.070366"
"https://www.zillow.com/homedetails/5847-Northumberland-St-Pittsburgh-PA-15217/11630784_zpid/","","","475000","501800","3052","239500","10/28/2022","2204","sqft","215.52","4125.13","sqft","115.15","5","3","","Michael DiFiore","No","No","","5847 Northumberland St","Pittsburgh","15217","PA","USA","40.44194","-79.9216"
"https://www.zillow.com/homedetails/7-7A-Highlandview-Rd-Carnegie-PA-15106/2061580006_zpid/","","","465000","","2437","","10/28/2022","2552","sqft","182.21","1.56","acres","297695.26","4","3","","Karen Marshall","No","No","","7-7A Highlandview Rd","Carnegie","15106","PA","USA","",""
"https://www.zillow.com/homedetails/1648-Holly-Hill-Dr-Bethel-Park-PA-15102/248643148_zpid/","","","465000","491200","2988","297900","10/27/2022","2321","sqft","200.34","10768.03","sqft","43.18","4","3","","Lisa Carper","No","No","","1648 Holly Hill Dr","Bethel Park","15102","PA","USA","40.317993","-80.02505"
"https://www.zillow.com/homedetails/252-Alpine-Ave-Pittsburgh-PA-15212/11387876_zpid/","","","475000","591700","3571","295800","10/26/2022","1956","sqft","242.84","971.39","sqft","488.99","3","3","","Christa Ross","No","No","","252 Alpine Ave","Pittsburgh","15212","PA","USA","40.45819","-80.01165"
"https://www.zillow.com/homedetails/5112-Bronwyn-Ct-Gibsonia-PA-15044/11299350_zpid/","","","467500","493900","3002","246000","10/21/2022","2152","sqft","217.24","0.37","acres","1263513.51","4","4","","Vince Schmidt","No","No","","5112 Bronwyn Ct","Gibsonia","15044","PA","USA","40.609688","-79.92521"
"https://www.zillow.com/homedetails/1628-Aster-Ln-Crescent-PA-15046/67338681_zpid/","","","460000","485700","2954","213000","10/21/2022","2392","sqft","192.31","0.44","acres","1045454.55","4","4","","Dante Egizio","No","No","","1628 Aster Ln","Crescent","15046","PA","USA","40.546555","-80.22654"
"https://www.zillow.com/homedetails/6042-Liberty-Blvd-Gibsonia-PA-15044/338888291_zpid/","","","473560","499900","3041","341600","10/21/2022","2224","sqft","212.93","2000","sqft","236.78","3","3","","","No","No","","6042 Liberty Blvd","Gibsonia","15044","PA","USA","40.65706","-79.9787"
"https://www.zillow.com/homedetails/1308-Chartwell-Dr-Pittsburgh-PA-15241/11434155_zpid/","","","458000","483600","2941","250300","10/19/2022","","","","0.5","acres","916733.39","4","3","","Wendy Vespa","No","No","","1308 Chartwell Dr","Pittsburgh","15241","PA","USA","40.34652","-80.09117"
"https://www.zillow.com/homedetails/421-Lenox-Ct-Gibsonia-PA-15044/11350068_zpid/","","","475000","1161700","7355","657100","10/14/2022","","","","1.78","acres","266853.93","4","5","","Anthony Leone","No","No","","421 Lenox Ct","Gibsonia","15044","PA","USA","40.647152","-79.95038"
"https://www.zillow.com/homedetails/5845-Northumberland-St-Pittsburgh-PA-15217/11630785_zpid/","","","466000","492000","2991","229000","10/14/2022","1900","sqft","245.26","4029.3","sqft","115.65","5","2","","Michael DiFiore","No","No","","5845 Northumberland St","Pittsburgh","15217","PA","USA","40.441925","-79.921684"
"https://www.zillow.com/homedetails/2706-Bethel-Crest-Dr-Bethel-Park-PA-15102/2062922443_zpid/","","","465000","","3045","","10/14/2022","2564","sqft","181.36","0.41","acres","1134184.44","4","3","","","No","No","","2706 Bethel Crest Dr","Bethel Park","15102","PA","USA","40.33252","-80.038"
"https://www.zillow.com/homedetails/6035-Liberty-Blvd-Gibsonia-PA-15044/337927199_zpid/","","","469661","495800","3015","333800","10/14/2022","2905","sqft","161.67","2035","sqft","230.79","3","3","","","No","No","","6035 Liberty Blvd","Gibsonia","15044","PA","USA","40.657513","-79.978134"
"https://www.zillow.com/homedetails/2409-Mill-Grove-Rd-Pittsburgh-PA-15241/11510237_zpid/","","","475000","501400","3048","273000","10/11/2022","2494","sqft","190.46","0.38","acres","1265991.47","4","4","","Rich Dallas","No","No","","2409 Mill Grove Rd","Pittsburgh","15241","PA","USA","40.334347","-80.0815"
"https://www.zillow.com/homedetails/511-Lockhart-St-Pittsburgh-PA-15212/11640297_zpid/","","","460000","485400","2951","158800","10/07/2022","2367","sqft","194.34","2178","sqft","211.2","4","4","","Jared Bozza","No","No","","511 Lockhart St","Pittsburgh","15212","PA","USA","40.452312","-79.99957"
"https://www.zillow.com/homedetails/185-Washington-St-Wexford-PA-15090/59853573_zpid/","","","475000","502800","3047","273200","10/04/2022","2730","sqft","173.99","0.29","acres","1660839.16","4","3","","Alyssa Policella","No","No","","185 Washington St","Wexford","15090","PA","USA","40.64343","-80.064514"
"https://www.zillow.com/homedetails/812-Hillcrest-Cir-Wexford-PA-15090/59847496_zpid/","","","460000","486700","2950","222100","09/30/2022","2380","sqft","193.28","0.32","acres","1431238.33","4","3","","Jennifer Palermo","No","No","","812 Hillcrest Cir","Wexford","15090","PA","USA","40.62149","-80.08432"
"https://www.zillow.com/homedetails/5409-Hamilton-Rd-Gibsonia-PA-15044/11317464_zpid/","","","470000","497300","3013","305000","09/29/2022","3114","sqft","150.93","0.98","acres","478371.5","4","4","","Dan Haeck","No","No","","5409 Hamilton Rd","Gibsonia","15044","PA","USA","40.626247","-79.96597"
"https://www.zillow.com/homedetails/103-Imperial-Dr-Valencia-PA-16059/2064161928_zpid/","","","475784","","1595","","09/28/2022","","","","0.35","acres","1359382.86","3","2","","Tricia Brennan","No","No","","103 Imperial Dr","Valencia","16059","PA","USA","",""
"https://www.zillow.com/homedetails/1530-Butler-Plank-Rd-Glenshaw-PA-15116/11443491_zpid/","","","470000","497200","3013","198800","09/27/2022","2543","sqft","184.82","1.68","acres","279761.9","5","3","","Karren Stonehouse","No","No","","1530 Butler Plank Rd","Glenshaw","15116","PA","USA","40.529846","-79.95919"
"https://www.zillow.com/homedetails/1205-Pennsylvania-Ave-Oakmont-PA-15139/11489059_zpid/","","","459000","485500","2942","223900","09/27/2022","1960","sqft","234.18","0.26","acres","1761996.16","5","4","","Timothy Favo","No","No","","1205 Pennsylvania Ave","Oakmont","15139","PA","USA","40.520588","-79.828964"
"https://www.zillow.com/homedetails/1545-Field-Club-Dr-Pittsburgh-PA-15237/11588918_zpid/","","","474900","502300","3044","223600","09/26/2022","2494","sqft","190.42","0.47","acres","1007424.69","4","3","","Cherie Altsman","No","No","","1545 Field Club Dr","Pittsburgh","15237","PA","USA","40.567223","-80.07527"
"https://www.zillow.com/homedetails/6-Equestrian-Dr-Imperial-PA-15126/306759652_zpid/","","","460484","487100","2951","307500","09/26/2022","2440","sqft","188.72","0.36","acres","1289947.46","4","3","","","No","No","","6 Equestrian Dr","Imperial","15126","PA","USA","40.487106","-80.312035"
"https://www.zillow.com/homedetails/16-S-Cowan-Rd-Carnegie-PA-15106/116179216_zpid/","","","482000","509200","3086","245200","09/15/2022","","","","1.58","acres","304350.57","4","3","","Lauren Coulter","No","No","","16 S Cowan Rd","Carnegie","15106","PA","USA","40.41896","-80.151405"
"https://www.zillow.com/homedetails/175-Vernon-Dr-Pittsburgh-PA-15228/11359549_zpid/","","","482000","666700","4063","279700","09/09/2022","","","","0.3","acres","1606666.67","4","5","","Mary Hagan","No","No","","175 Vernon Dr","Pittsburgh","15228","PA","USA","40.370483","-80.05671"
"https://www.zillow.com/homedetails/603-N-Taylor-Ave-Pittsburgh-PA-15212/11388328_zpid/","","","475000","501500","3039","230000","09/09/2022","2398","sqft","198.08","1241.46","sqft","382.61","3","3","","John Augustine","No","No","","603 N Taylor Ave","Pittsburgh","15212","PA","USA","40.456097","-80.01341"
"https://www.zillow.com/homedetails/2120-Chris-Dr-South-Park-PA-15129/11606451_zpid/","","","460000","512700","3114","307000","09/09/2022","3098","sqft","148.48","1.8","acres","255555.56","4","4","","Angie Flowers","No","No","","2120 Chris Dr","South Park","15129","PA","USA","40.303894","-79.98814"
"https://www.zillow.com/homedetails/460-Highview-Rd-Wexford-PA-15090/11257987_zpid/","","","465000","490800","2974","230300","09/08/2022","2378","sqft","195.54","0.83","acres","562954","4","3","","Mindy Pry","No","No","","460 Highview Rd","Wexford","15090","PA","USA","40.592068","-80.063"
"https://www.zillow.com/homedetails/754-Marigold-Ct-Bridgeville-PA-15017/116178836_zpid/","","","465000","490900","2974","262800","09/08/2022","2422","sqft","191.99","8132.65","sqft","57.18","4","4","","Barbara Baker","No","No","","754 Marigold Ct","Bridgeville","15017","PA","USA","40.383976","-80.10237"
"https://www.zillow.com/homedetails/857-E-Hutchinson-Ave-Pittsburgh-PA-15218/11343445_zpid/","","","465000","490800","2974","117800","09/07/2022","","","","5283.83","sqft","88","4","4","","Cameron Logan","No","No","","857 E Hutchinson Ave","Pittsburgh","15218","PA","USA","40.43563","-79.8835"
"https://www.zillow.com/homedetails/502-Hogan-Dr-Monroeville-PA-15146/337926757_zpid/","","","461490","486800","2950","205600","09/01/2022","1176","sqft","392.42","10753","sqft","42.92","3","2","","","No","No","","502 Hogan Dr","Monroeville","15146","PA","USA","40.457077","-79.7801"
"https://www.zillow.com/homedetails/230-Carnegie-Pl-Pittsburgh-PA-15208/11288248_zpid/","","","470000","495900","3004","212000","08/31/2022","1916","sqft","245.3","4120.78","sqft","114.06","4","2","","Helen Sosso","No","No","","230 Carnegie Pl","Pittsburgh","15208","PA","USA","40.446526","-79.89957"
"https://www.zillow.com/homedetails/518-Greendale-Ave-Pittsburgh-PA-15218/11343706_zpid/","","","482000","508600","3080","59800","08/31/2022","2160","sqft","223.15","4950","sqft","97.37","4","5","","","No","No","","518 Greendale Ave","Pittsburgh","15218","PA","USA","40.4315","-79.889915"
"https://www.zillow.com/homedetails/1702-Saw-Grass-Ct-Pittsburgh-PA-15237/11588801_zpid/","","","475000","501200","3036","294100","08/31/2022","2719","sqft","174.7","0.72","acres","658807.21","4","3","","Jane Bloch","No","No","","1702 Saw Grass Ct","Pittsburgh","15237","PA","USA","40.569283","-80.07966"
"https://www.zillow.com/homedetails/409-Tyburn-Dr-Wexford-PA-15090/59847692_zpid/","","","472875","498800","3021","242500","08/26/2022","","","","0.33","acres","1450536.81","4","3","","Patti Lynch","No","No","","409 Tyburn Dr","Wexford","15090","PA","USA","40.64261","-80.10639"
"https://www.zillow.com/homedetails/427-Duquesne-Dr-Pittsburgh-PA-15243/11312981_zpid/","","","472000","497800","3014","215800","08/24/2022","","","","6534","sqft","72.24","4","2","","Marilyn Spirer","No","No","","427 Duquesne Dr","Pittsburgh","15243","PA","USA","40.38175","-80.05585"
"https://www.zillow.com/homedetails/1937-Lammerton-Dr-Allison-Park-PA-15101/11591478_zpid/","","","479900","506000","3064","246500","08/22/2022","2772","sqft","173.12","0.36","acres","1333055.56","5","3","","Michael Marsh","No","No","","1937 Lammerton Dr","Allison Park","15101","PA","USA","40.56131","-79.99001"
"https://www.zillow.com/homedetails/5016-Grove-Ct-Clairton-PA-15025/72261312_zpid/","","","460000","485000","2936","250600","08/19/2022","1994","sqft","230.69","0.34","acres","1345816.27","4","4","","Sally Morrison","No","No","","5016 Grove Ct","Clairton","15025","PA","USA","40.311443","-79.9651"
"https://www.zillow.com/homedetails/28-Equestrian-Dr-Imperial-PA-15126/306759596_zpid/","","","464191","","1407","4200","08/19/2022","","","","0.29","acres","1624500.68","","","","","No","No","","28 Equestrian Dr","Imperial","15126","PA","USA","40.488686","-80.31434"
"https://www.zillow.com/homedetails/176-Boxfield-Rd-Pittsburgh-PA-15241/11433670_zpid/","","","475000","500700","3032","262800","08/18/2022","2374","sqft","200.08","0.3","acres","1585517.24","4","2.5","","","No","No","","176 Boxfield Rd","Pittsburgh","15241","PA","USA","40.34807","-80.06812"
"https://www.zillow.com/homedetails/2291-Sidgefield-Ln-Pittsburgh-PA-15241/11473001_zpid/","","","480000","505900","3063","304500","08/16/2022","2528","sqft","189.87","10367.28","sqft","46.3","4","3","","Katherine Kernan","No","No","","2291 Sidgefield Ln","Pittsburgh","15241","PA","USA","40.33857","-80.085594"
"https://www.zillow.com/homedetails/2-Trotter-Ln-Clinton-PA-15026/164242217_zpid/","","","470000","500200","3031","348500","08/16/2022","2868","sqft","163.88","10454.4","sqft","44.96","4","3","","Monica Sample","No","No","","2 Trotter Ln","Clinton","15026","PA","USA","40.483635","-80.31572"
"https://www.zillow.com/homedetails/11-Camden-Dr-Pittsburgh-PA-15215/11373848_zpid/","","","469000","494300","2992","234000","08/15/2022","2792","sqft","167.98","0.74","acres","632672.33","5","4","","Alice Donovan","No","No","","11 Camden Dr","Pittsburgh","15215","PA","USA","40.505848","-79.92182"
"https://www.zillow.com/homedetails/1812-Tyburn-Ln-Pittsburgh-PA-15241/11433354_zpid/","","","476000","477700","2857","340000","08/12/2022","2340","sqft","203.42","0.32","acres","1507760.53","4","4","","Amanda Walton","No","No","","1812 Tyburn Ln","Pittsburgh","15241","PA","USA","40.350925","-80.07568"
"https://www.zillow.com/homedetails/619-Beverly-Rd-Pittsburgh-PA-15243/11659184_zpid/","","","468000","493100","2985","259700","08/12/2022","","","","6098.4","sqft","76.74","4","4","","Barbara Fisher","No","No","","619 Beverly Rd","Pittsburgh","15243","PA","USA","40.38669","-80.05537"
"https://www.zillow.com/homedetails/544-Douglas-Dr-Wexford-PA-15090/242630509_zpid/","","","475000","500000","3030","278000","08/12/2022","1529","sqft","310.66","7082.86","sqft","67.06","2","2","","Daniel Demers","No","No","","544 Douglas Dr","Wexford","15090","PA","USA","40.64129","-80.01866"
"https://www.zillow.com/homedetails/117-Hunters-Run-Dr-Coraopolis-PA-15108/55794938_zpid/","","","465000","489900","2965","269600","08/11/2022","2750","sqft","169.09","0.68","acres","688888.89","4","4","","Gina Cuccaro","No","No","","117 Hunters Run Dr","Coraopolis","15108","PA","USA","40.48174","-80.17974"
"https://www.zillow.com/homedetails/5215-Celia-Pl-Pittsburgh-PA-15224/11524971_zpid/","","","470000","495200","2997","164700","08/10/2022","1618","sqft","290.48","4146.91","sqft","113.34","3","2","","Sean Kelly","No","No","","5215 Celia Pl","Pittsburgh","15224","PA","USA","40.458233","-79.9402"
"https://www.zillow.com/homedetails/258-Field-Club-Cir-Mc-Kees-Rocks-PA-15136/58770920_zpid/","","","457000","481400","2913","334700","08/08/2022","2508","sqft","182.22","0.34","acres","1364179.1","3","4","","Robin Ross","No","No","","258 Field Club Cir","Mc Kees Rocks","15136","PA","USA","40.47109","-80.12276"
"https://www.zillow.com/homedetails/257-Sunrise-Dr-Carnegie-PA-15106/164568806_zpid/","","","479000","504000","3054","315600","08/08/2022","2772","sqft","172.8","8019.4","sqft","59.73","4","3","","Melinda Lynch","No","No","","257 Sunrise Dr","Carnegie","15106","PA","USA","40.41198","-80.10326"
"https://www.zillow.com/homedetails/21-Colonial-Dr-McKeesport-PA-15135/11632422_zpid/","","","455000","479200","2900","226800","08/05/2022","4349","sqft","104.62","0.34","acres","1346552.23","4","4","","Keith Soles","No","No","","21 Colonial Dr","McKeesport","15135","PA","USA","40.29063","-79.807884"
"https://www.zillow.com/homedetails/5463-Wilkins-Ave-Pittsburgh-PA-15217/11629350_zpid/","","","468975","493800","2988","314600","08/02/2022","1852","sqft","253.23","4948.42","sqft","94.77","4","2","","Monice Ming Tong","No","No","","5463 Wilkins Ave","Pittsburgh","15217","PA","USA","40.44583","-79.93109"
"https://www.zillow.com/homedetails/821-Mifflin-Ave-Pittsburgh-PA-15221/11342628_zpid/","","","480000","505400","3057","184000","08/01/2022","2500","sqft","192","2600.53","sqft","184.58","4","2","","Renee Flaherty","No","No","","821 Mifflin Ave","Pittsburgh","15221","PA","USA","40.43715","-79.89269"
"https://www.zillow.com/homedetails/100-Douglas-Dr-Pittsburgh-PA-15215/11411527_zpid/","","","457000","480900","2910","282500","07/28/2022","1599","sqft","285.8","0.6","acres","760357.51","3","2.5","","","No","No","","100 Douglas Dr","Pittsburgh","15215","PA","USA","40.517246","-79.924164"
"https://www.zillow.com/homedetails/3795-Coventry-Ct-Allison-Park-PA-15101/11559896_zpid/","","","455100","477600","2891","216300","07/28/2022","","","","0.53","acres","858679.25","4","3","","Gloria Carroll","No","No","","3795 Coventry Ct","Allison Park","15101","PA","USA","40.555187","-79.98857"
"https://www.zillow.com/homedetails/1466-Bretton-Way-Pittsburgh-PA-15237/11559427_zpid/","","","480000","505100","3056","294900","07/25/2022","","","","1.81","acres","264535.68","4","4","","Stephanie Kerchner","No","No","","1466 Bretton Way","Pittsburgh","15237","PA","USA","40.55491","-80.00279"
"https://www.zillow.com/homedetails/5125-Forest-Ridge-Dr-Mc-Donald-PA-15057/64658168_zpid/","","","460000","484100","2929","239900","07/25/2022","2068","sqft","222.44","0.35","acres","1314285.71","4","3","","Reed Pirain","No","No","","5125 Forest Ridge Dr","Mc Donald","15057","PA","USA","40.364204","-80.17166"
"https://www.zillow.com/homedetails/100-Douglas-Dr-O-Pittsburgh-PA-15215/2062944798_zpid/","","","457000","","1631","","07/25/2022","","","","0.6","acres","761666.67","4","3","","Edward Moan","No","No","# O","100 Douglas Dr #O","Pittsburgh","15215","PA","USA","",""
"https://www.zillow.com/homedetails/113-Kenney-Dr-Sewickley-PA-15143/11614669_zpid/","","","477000","501800","3036","227800","07/22/2022","","","","9792.29","sqft","48.71","4","4","","Jill Stehnach","No","No","","113 Kenney Dr","Sewickley","15143","PA","USA","40.57119","-80.20357"
"https://www.zillow.com/homedetails/4361-Mount-Royal-Blvd-Allison-Park-PA-15101/11621142_zpid/","","","480000","505000","3055","278600","07/22/2022","1980","sqft","242.42","0.59","acres","813559.32","4","4","","Gail Scott","No","No","","4361 Mount Royal Blvd","Allison Park","15101","PA","USA","40.57708","-79.96104"
"https://www.zillow.com/homedetails/124-Horseshoe-Dr-Oakdale-PA-15071/337926784_zpid/","","","462520","486000","2944","270200","07/22/2022","2137","sqft","216.43","8495","sqft","54.45","4","2.5","","","No","No","","124 Horseshoe Dr","Oakdale","15071","PA","USA","40.43167","-80.23883"
"https://www.zillow.com/homedetails/708-Culloden-Ct-Coraopolis-PA-15108/164712711_zpid/","","","465000","488600","2960","264200","07/21/2022","2393","sqft","194.32","9374.11","sqft","49.6","4","4","","Zhra Alizada Laurell","No","No","","708 Culloden Ct","Coraopolis","15108","PA","USA","40.525616","-80.23714"
"https://www.zillow.com/homedetails/516-Douglas-Dr-Wexford-PA-15090/242631083_zpid/","","","470000","493800","2991","288900","07/20/2022","","","","0.29","acres","1620689.66","3","2","","Sandra Smith","No","No","","516 Douglas Dr","Wexford","15090","PA","USA","40.641228","-80.021065"
"https://www.zillow.com/homedetails/1053-High-Meadows-Dr-Gibsonia-PA-15044/11317804_zpid/","","","460750","484500","2932","215000","07/15/2022","2385","sqft","193.19","0.72","acres","639930.56","4","4","","Joy Foust","No","No","","1053 High Meadows Dr","Gibsonia","15044","PA","USA","40.62182","-79.9371"
"https://www.zillow.com/homedetails/2000-Sterling-Dr-Mc-Donald-PA-15057/87801914_zpid/","","","480000","504700","3054","311100","07/15/2022","2780","sqft","172.66","0.35","acres","1359003.4","5","5","","Karen Marshall","No","No","","2000 Sterling Dr","Mc Donald","15057","PA","USA","40.364716","-80.1825"
"https://www.zillow.com/homedetails/220-Macduff-Ct-Gibsonia-PA-15044/87989528_zpid/","","","465000","488900","2958","242400","07/15/2022","","","","9509.15","sqft","48.9","4","4","","Ceanne Oliver","No","No","","220 Macduff Ct","Gibsonia","15044","PA","USA","40.617844","-79.956245"
"https://www.zillow.com/homedetails/105-Crimson-Dr-Pittsburgh-PA-15237/61279370_zpid/","","","465000","494800","2958","292200","07/14/2022","2558","sqft","181.78","0.26","acres","1788461.54","4","3","","John Wills","No","No","","105 Crimson Dr","Pittsburgh","15237","PA","USA","40.547684","-80.09977"
"https://www.zillow.com/homedetails/212-Oble-Cir-Valencia-PA-16059/2067520012_zpid/","","","468126","","1595","","07/14/2022","","","","","","","4","3","","Tricia Brennan","No","No","","212 Oble Cir","Valencia","16059","PA","USA","",""
"https://www.zillow.com/homedetails/4667-Hidden-Pond-Dr-Allison-Park-PA-15101/11259251_zpid/","","","475000","499400","3021","257000","07/13/2022","2216","sqft","214.35","0.29","acres","1665497.9","4","3","","Paula Bennett","No","No","","4667 Hidden Pond Dr","Allison Park","15101","PA","USA","40.5905","-79.94039"
"https://www.zillow.com/homedetails/3806-Hill-Rd-Allison-Park-PA-15101/87994181_zpid/","","","475000","499400","3021","370100","07/13/2022","2528","sqft","187.9","1.1","acres","432088.71","4","3.5","","","No","No","","3806 Hill Rd","Allison Park","15101","PA","USA","40.55444","-79.940186"
"https://www.zillow.com/homedetails/403-West-St-Pittsburgh-PA-15221/11342298_zpid/","","","465000","488800","2957","301700","07/12/2022","","","","3959.6","sqft","117.44","4","2","","Michael Toretti","No","No","","403 West St","Pittsburgh","15221","PA","USA","40.440434","-79.89155"
"https://www.zillow.com/homedetails/5111-Keystone-St-Pittsburgh-PA-15201/11612716_zpid/","","","460000","483600","2926","42100","07/12/2022","","","","1960.2","sqft","234.67","3","3","","Adam Longshore","No","No","","5111 Keystone St","Pittsburgh","15201","PA","USA","40.47774","-79.9541"
"https://www.zillow.com/homedetails/43-Mount-Lebanon-Blvd-Pittsburgh-PA-15228/11396648_zpid/","","","482500","507100","3068","315000","07/08/2022","3108","sqft","155.24","10058","sqft","47.97","4","5","","Barbara Baker","No","No","","43 Mount Lebanon Blvd","Pittsburgh","15228","PA","USA","40.363987","-80.04527"
"https://www.zillow.com/homedetails/1441-Browning-Rd-Pittsburgh-PA-15206/11282583_zpid/","","","455800","479000","2898","249800","07/07/2022","2264","sqft","201.33","4284","sqft","106.4","3","3","","","No","No","","1441 Browning Rd","Pittsburgh","15206","PA","USA","40.477333","-79.91603"
"https://www.zillow.com/homedetails/2036-Karen-Dr-Pittsburgh-PA-15237/11521462_zpid/","","","470000","493800","2988","265000","07/06/2022","2344","sqft","200.51","1.11","acres","422284.56","4","2.5","","","No","No","","2036 Karen Dr","Pittsburgh","15237","PA","USA","40.544647","-80.0693"
"https://www.zillow.com/homedetails/1881-Tilton-Dr-Pittsburgh-PA-15241/11433618_zpid/","","","456500","479600","2902","267300","07/05/2022","","","","0.39","acres","1170512.82","4","4","","Barbara Fisher","No","No","","1881 Tilton Dr","Pittsburgh","15241","PA","USA","40.346962","-80.08125"
"https://www.zillow.com/homedetails/9044-Highland-Rd-Pittsburgh-PA-15237/11617822_zpid/","","","467547","491200","2972","288600","07/05/2022","2820","sqft","165.8","0.31","acres","1503366.56","5","4","","Darnell Gatewood","No","No","","9044 Highland Rd","Pittsburgh","15237","PA","USA","40.571083","-80.04919"
"https://www.zillow.com/homedetails/1138-Middle-Rd-Glenshaw-PA-15116/11444213_zpid/","","","470000","493700","2987","165600","07/02/2022","","","","0.32","acres","1470128.25","4","3","","Sonya Clemente","No","No","","1138 Middle Rd","Glenshaw","15116","PA","USA","40.525684","-79.94071"
"https://www.zillow.com/homedetails/116-Douglas-Dr-Pittsburgh-PA-15215/11411643_zpid/","","","475000","498900","3018","205300","07/01/2022","","","","0.64","acres","737234.21","5","4","","Kelsey Friday","No","No","","116 Douglas Dr","Pittsburgh","15215","PA","USA","40.51454","-79.92438"
"https://www.zillow.com/homedetails/714-Lee-Avenue-Ext-Pittsburgh-PA-15237/164671639_zpid/","","","470000","493100","2987","236700","07/01/2022","2172","sqft","216.39","5000.69","sqft","93.99","3","3","","Robin Taylor","No","No","","714 Lee Avenue Ext","Pittsburgh","15237","PA","USA","40.551697","-80.04688"
"https://www.zillow.com/homedetails/513-Hill-St-Sewickley-PA-15143/11519260_zpid/","","","465000","488400","2955","290400","06/30/2022","1887","sqft","246.42","4007.52","sqft","116.03","4","2","","Linda Taylor","No","No","","513 Hill St","Sewickley","15143","PA","USA","40.541355","-80.177574"
"https://www.zillow.com/homedetails/8008-Saddlewood-Dr-Bridgeville-PA-15017/59858101_zpid/","","","460108","483200","2924","293000","06/30/2022","2298","sqft","200.22","0.3","acres","1533693.33","4","4","","Jennifer Crouse","No","No","","8008 Saddlewood Dr","Bridgeville","15017","PA","USA","40.32191","-80.139"
"https://www.zillow.com/homedetails/501-Fairacre-Ct-Presto-PA-15142/87987959_zpid/","","","475000","498900","3018","293000","06/30/2022","2570","sqft","184.82","3049.2","sqft","155.78","3","4","","Laure Schneider","No","No","","501 Fairacre Ct","Presto","15142","PA","USA","40.38893","-80.13864"
"https://www.zillow.com/homedetails/330-Ranchero-Dr-Coraopolis-PA-15108/125935649_zpid/","","","455000","477300","2891","290800","06/30/2022","","","","0.29","acres","1568965.52","4","3","","Lei Li","No","No","","330 Ranchero Dr","Coraopolis","15108","PA","USA","40.535515","-80.26346"
"https://www.zillow.com/homedetails/1259-Trailside-Dr-Oakdale-PA-15071/333136579_zpid/","","","473855","497100","3011","392100","06/30/2022","3476","sqft","136.32","0.27","acres","1783558.61","4","3.5","","","No","No","","1259 Trailside Dr","Oakdale","15071","PA","USA","40.40667","-80.160255"
"https://www.zillow.com/homedetails/6922-Meade-St-Pittsburgh-PA-15208/11287220_zpid/","","","458700","481700","2915","119400","06/29/2022","1668","sqft","275","5819.62","sqft","78.82","4","2","","Alisha Schweiger","No","No","","6922 Meade St","Pittsburgh","15208","PA","USA","40.45192","-79.90679"
"https://www.zillow.com/homedetails/108-Camberwell-Dr-Pittsburgh-PA-15238/11414114_zpid/","","","464000","487300","2948","278800","06/29/2022","1817","sqft","255.37","0.33","acres","1413772.09","3","3","","Heather Ruthrauff","No","No","","108 Camberwell Dr","Pittsburgh","15238","PA","USA","40.510056","-79.856766"
"https://www.zillow.com/homedetails/103-Steiner-Dr-Pittsburgh-PA-15236/11546231_zpid/","","","475000","498800","3018","336100","06/29/2022","2760","sqft","172.1","0.41","acres","1167937.05","4","4","","Sandra Rodeheaver","No","No","","103 Steiner Dr","Pittsburgh","15236","PA","USA","40.325153","-79.952225"
"https://www.zillow.com/homedetails/187-45th-St-Pittsburgh-PA-15201/11613505_zpid/","","","465000","488300","2955","72000","06/29/2022","2112","sqft","220.17","1999.4","sqft","232.57","3","2","","Justin Riapos","No","No","","187 45th St","Pittsburgh","15201","PA","USA","40.472595","-79.95968"
"https://www.zillow.com/homedetails/4443-Yorktown-Dr-Mc-Donald-PA-15057/337926708_zpid/","","","463935","488500","2959","311800","06/29/2022","1823","sqft","254.49","0.44","acres","1052006.8","4","3","","David Bruckner","No","No","","4443 Yorktown Dr","Mc Donald","15057","PA","USA","40.36552","-80.19096"
"https://www.zillow.com/homedetails/1000-Grandview-Ave-McKnight-PA-15237/11484017_zpid/","","","475000","306300","1999","162200","06/28/2022","1100","sqft","431.82","0.3","acres","1595912.07","3","2","","","No","No","","1000 Grandview Ave","Mcknight","15237","PA","USA","40.53709","-80.03082"
"https://www.zillow.com/homedetails/148-Horseshoe-Dr-Oakdale-PA-15071/337926797_zpid/","","","463900","486600","2948","274300","06/28/2022","2564","sqft","180.93","9464","sqft","49.02","3","3","","","No","No","","148 Horseshoe Dr","Oakdale","15071","PA","USA","40.43114","-80.2411"
"https://www.zillow.com/homedetails/1259-Windermere-Dr-Pittsburgh-PA-15218/11290144_zpid/","","","480500","504500","3053","288000","06/27/2022","2700","sqft","177.96","6503.51","sqft","73.88","3","3","","Jennifer Stein","No","No","","1259 Windermere Dr","Pittsburgh","15218","PA","USA","40.422695","-79.90121"
"https://www.zillow.com/homedetails/701-Thornwick-Dr-Pittsburgh-PA-15243/11398721_zpid/","","","480100","504100","3050","264800","06/27/2022","2352","sqft","204.12","0.32","acres","1500781.49","4","3","","Wendy Weaver","No","No","","701 Thornwick Dr","Pittsburgh","15243","PA","USA","40.36071","-80.07514"
"https://www.zillow.com/homedetails/2012-Hastings-Cres-Bridgeville-PA-15017/333136764_zpid/","","","471200","494300","2994","356900","06/27/2022","3223","sqft","146.2","","","","4","3","","Thomas Despard","No","No","","2012 Hastings Cres","Bridgeville","15017","PA","USA","40.32832","-80.104004"
"https://www.zillow.com/homedetails/6059-Liberty-Blvd-Gibsonia-PA-15044/337927060_zpid/","","","476191","499400","3026","366600","06/24/2022","2051","sqft","232.18","2359","sqft","201.86","2","2","","","No","No","","6059 Liberty Blvd","Gibsonia","15044","PA","USA","40.656013","-79.97802"
"https://www.zillow.com/homedetails/2817-Broadway-Ave-Pittsburgh-PA-15216/11571314_zpid/","","","472500","496000","3002","261500","06/23/2022","","","","6098.4","sqft","77.48","4","5","","Robert Dini","No","No","","2817 Broadway Ave","Pittsburgh","15216","PA","USA","40.398277","-80.03445"
"https://www.zillow.com/homedetails/7723-Edgerton-Ave-Pittsburgh-PA-15221/11341841_zpid/","","","475000","498600","3018","265000","06/21/2022","1999","sqft","237.62","3001.28","sqft","158.27","5","2","","Lillian Denhardt","No","No","","7723 Edgerton Ave","Pittsburgh","15221","PA","USA","40.44269","-79.89457"
"https://www.zillow.com/homedetails/9913-Belton-Cir-Wexford-PA-15090/11258366_zpid/","","","465000","487900","2953","275800","06/16/2022","2144","sqft","216.88","0.55","acres","851024.89","3","3","","Theodora Malobicky","No","No","","9913 Belton Cir","Wexford","15090","PA","USA","40.5926","-80.033295"
"https://www.zillow.com/homedetails/5239-Stanton-Ave-Pittsburgh-PA-15201/11615386_zpid/","","","475000","498400","3016","178400","06/15/2022","2052","sqft","231.48","2178","sqft","218.09","3","3","","Donna Howland Klein","No","No","","5239 Stanton Ave","Pittsburgh","15201","PA","USA","40.478336","-79.9494"
"https://www.zillow.com/homedetails/315-N-Beatty-St-Pittsburgh-PA-15206/11623570_zpid/","","","470000","493100","2985","298500","06/15/2022","2631","sqft","178.64","3358.48","sqft","139.94","5","4","","Leah George","No","No","","315 N Beatty St","Pittsburgh","15206","PA","USA","40.46476","-79.92552"
"https://www.zillow.com/homedetails/133-Freedom-Ln-Sewickley-PA-15143/164712190_zpid/","","","475000","490200","2969","330700","06/15/2022","","","","","","","3","3","","Mark Ratti","No","No","","133 Freedom Ln","Sewickley","15143","PA","USA","40.539772","-80.11755"
"https://www.zillow.com/homedetails/623-E-End-Ave-Pittsburgh-PA-15221/11342094_zpid/","","","480000","503600","3048","197300","06/14/2022","1817","sqft","264.17","2639.74","sqft","181.84","4","3","","Denise Serbin","No","No","","623 E End Ave","Pittsburgh","15221","PA","USA","40.439312","-79.895966"
"https://www.zillow.com/homedetails/1932-Mount-Royal-Blvd-Glenshaw-PA-15116/11486332_zpid/","","","457500","480000","2906","316000","06/14/2022","2401","sqft","190.55","10018.8","sqft","45.66","5","4","","Ally Mahon","No","No","","1932 Mount Royal Blvd","Glenshaw","15116","PA","USA","40.532513","-79.96754"
"https://www.zillow.com/homedetails/1565-Lenora-Dr-Pittsburgh-PA-15237/11643183_zpid/","","","469000","492000","2979","267900","06/14/2022","","","","0.46","acres","1021341.46","5","4","","Kim Esposito","No","No","","1565 Lenora Dr","Pittsburgh","15237","PA","USA","40.580727","-80.077156"
"https://www.zillow.com/homedetails/1908-Markley-Dr-Sewickley-PA-15143/55348864_zpid/","","","482000","505700","3061","255900","06/14/2022","2148","sqft","224.39","8276.4","sqft","58.24","4","3","","Linda Taylor","No","No","","1908 Markley Dr","Sewickley","15143","PA","USA","40.59347","-80.10579"
"https://www.zillow.com/homedetails/8185-Thompson-Run-Rd-Pittsburgh-PA-15237/11559440_zpid/","","","475000","498300","3016","258100","06/13/2022","","","","0.37","acres","1283783.78","4","4","","Sam Pace","No","No","","8185 Thompson Run Rd","Pittsburgh","15237","PA","USA","40.554127","-80.00011"
"https://www.zillow.com/homedetails/100-Liberty-Ct-Coraopolis-PA-15108/11256529_zpid/","","","475000","498500","3025","261200","06/10/2022","2429","sqft","195.55","0.57","acres","826086.96","4","4","","Pam Firth","No","No","","100 Liberty Ct","Coraopolis","15108","PA","USA","40.53372","-80.268845"
"https://www.zillow.com/homedetails/427-Longridge-Dr-Pittsburgh-PA-15243/11313051_zpid/","","","479450","502900","3044","204000","06/10/2022","","","","6751.8","sqft","71.01","3","3","","Nancy McKenna","No","No","","427 Longridge Dr","Pittsburgh","15243","PA","USA","40.381336","-80.056885"
"https://www.zillow.com/homedetails/7076-Leechburg-Rd-New-Kensington-PA-15068/11624237_zpid/","","","480340","503800","3050","208200","06/10/2022","2920","sqft","164.5","1.04","acres","460890.42","4","3","","Maureen Ruefle","No","No","","7076 Leechburg Rd","New Kensington","15068","PA","USA","40.520874","-79.76184"
"https://www.zillow.com/homedetails/111-Horseshoe-Dr-Oakdale-PA-15071/337926789_zpid/","","","476175","499200","3024","312900","06/10/2022","2728","sqft","174.55","8064","sqft","59.05","4","2.5","","","No","No","","111 Horseshoe Dr","Oakdale","15071","PA","USA","40.431416","-80.238014"
"https://www.zillow.com/homedetails/6326-Glenview-Pl-Pittsburgh-PA-15206/11284302_zpid/","","","460000","482400","2921","112300","06/09/2022","1611","sqft","285.54","4434.41","sqft","103.73","3","2","","Justin Cummings","No","No","","6326 Glenview Pl","Pittsburgh","15206","PA","USA","40.469334","-79.91551"
"https://www.zillow.com/homedetails/526-Avery-St-Pittsburgh-PA-15212/11389062_zpid/","","","475000","498200","3016","158000","06/09/2022","1806","sqft","263.01","1537.67","sqft","308.91","3","2","","Richard Abbott","No","No","","526 Avery St","Pittsburgh","15212","PA","USA","40.453224","-79.99954"
"https://www.zillow.com/homedetails/2633-Cedarvue-Dr-Pittsburgh-PA-15241/11581384_zpid/","","","475000","498200","3016","284100","06/09/2022","1968","sqft","241.36","0.31","acres","1532666.67","3","3","","","No","No","","2633 Cedarvue Dr","Pittsburgh","15241","PA","USA","40.31358","-80.09265"
"https://www.zillow.com/homedetails/706-Rockwood-Dr-Gibsonia-PA-15044/11329836_zpid/","","","462500","485000","2936","201200","06/06/2022","2500","sqft","185","0.46","acres","1007405.79","4","4","","Michelle Mattioli","No","No","","706 Rockwood Dr","Gibsonia","15044","PA","USA","40.63176","-79.94242"
"https://www.zillow.com/homedetails/616-Inglefield-Dr-Pittsburgh-PA-15236/11546232_zpid/","","","480000","503300","3047","249500","06/06/2022","","","","0.29","acres","1655172.41","5","5","","Melissa Shipley","No","No","","616 Inglefield Dr","Pittsburgh","15236","PA","USA","40.3259","-79.95253"
"https://www.zillow.com/homedetails/2597-Monterey-Dr-Pittsburgh-PA-15241/11580981_zpid/","","","465000","487600","2952","248000","06/06/2022","2337","sqft","198.97","0.33","acres","1425505.82","4","3","","Wendy Vespa","No","No","","2597 Monterey Dr","Pittsburgh","15241","PA","USA","40.309494","-80.07913"
"https://www.zillow.com/homedetails/2542-Secretariat-Dr-Wexford-PA-15090/11273940_zpid/","","","455000","479900","2876","234900","06/03/2022","","","","1.99","acres","228643.22","3","3","","Betsy Wotherspoon","No","No","","2542 Secretariat Dr","Wexford","15090","PA","USA","40.602627","-80.08666"
"https://www.zillow.com/homedetails/2120-Ridge-Dr-Mars-PA-16046/59846869_zpid/","","","460000","482200","2920","246800","06/02/2022","","","","1.07","acres","431115.28","4","3","","Linda Honeywill","No","No","","2120 Ridge Dr","Mars","16046","PA","USA","40.670692","-80.08131"
"https://www.zillow.com/homedetails/219-Horse-Shoe-Dr-Clinton-PA-15026/164712988_zpid/","","","460000","482100","2920","290100","05/31/2022","2680","sqft","171.64","0.27","acres","1711946.41","4","3","","Dawn Foster","No","No","","219 Horse Shoe Dr","Clinton","15026","PA","USA","40.481457","-80.31677"
"https://www.zillow.com/homedetails/5231-Holmes-St-Pittsburgh-PA-15201/11612419_zpid/","","","455000","476900","2888","42900","05/27/2022","","","","2099.59","sqft","216.71","3","4","","Sarah Adams","No","No","","5231 Holmes St","Pittsburgh","15201","PA","USA","40.47969","-79.95174"
"https://www.zillow.com/homedetails/119-Steiner-Dr-Pittsburgh-PA-15236/87990942_zpid/","","","480000","503100","3047","295000","05/27/2022","2565","sqft","187.13","0.3","acres","1600000","4","4","","Bette Zrimsek","No","No","","119 Steiner Dr","Pittsburgh","15236","PA","USA","40.324703","-79.951416"
"https://www.zillow.com/homedetails/320-Maple-Ln-Sewickley-PA-15143/11518653_zpid/","","","460694","482800","2924","266100","05/26/2022","2181","sqft","211.23","10018.8","sqft","45.98","3","3","","Susan Reuter","No","No","","320 Maple Ln","Sewickley","15143","PA","USA","40.55009","-80.19459"
"https://www.zillow.com/homedetails/184-Darlene-Dr-Coraopolis-PA-15108/59852002_zpid/","","","457500","479500","2904","248000","05/26/2022","2648","sqft","172.77","0.33","acres","1373873.87","4","4","","Linda Diffendal","No","No","","184 Darlene Dr","Coraopolis","15108","PA","USA","40.453014","-80.220215"
"https://www.zillow.com/homedetails/1321-Francis-Way-Oakdale-PA-15071/333136583_zpid/","","","480955","504000","3053","378400","05/26/2022","2914","sqft","165.05","8011","sqft","60.04","4","2.5","","","No","No","","1321 Francis Way","Oakdale","15071","PA","USA","40.406925","-80.159996"
"https://www.zillow.com/homedetails/3164-Babcock-Blvd-Pittsburgh-PA-15237/11442148_zpid/","","","470000","430800","1725","179200","05/25/2022","","","","0.91","acres","517678.16","3","5","","Kate Gordon","No","No","","3164 Babcock Blvd","Pittsburgh","15237","PA","USA","40.522686","-80.01438"
"https://www.zillow.com/homedetails/614-Ravencrest-Rd-Pittsburgh-PA-15215/11411671_zpid/","","","472500","495200","3000","265000","05/24/2022","","","","0.5","acres","945000","4","3","","Chris McCarthy","No","No","","614 Ravencrest Rd","Pittsburgh","15215","PA","USA","40.515472","-79.91696"
"https://www.zillow.com/homedetails/206-Phillips-Dr-Pittsburgh-PA-15241/11432938_zpid/","","","475000","497800","3015","284100","05/23/2022","2809","sqft","169.1","10650.42","sqft","44.6","5","4","","Melissa Woods","No","No","","206 Phillips Dr","Pittsburgh","15241","PA","USA","40.349506","-80.055786"
"https://www.zillow.com/homedetails/5168-Broad-St-Pittsburgh-PA-15224/11520188_zpid/","","","465000","487300","2952","156600","05/23/2022","1536","sqft","302.73","2347.88","sqft","198.05","4","3","","Leah George","No","No","","5168 Broad St","Pittsburgh","15224","PA","USA","40.46596","-79.940285"
"https://www.zillow.com/homedetails/715-52nd-St-Pittsburgh-PA-15201/11612958_zpid/","","","475000","497800","3015","338000","05/23/2022","2500","sqft","190","871.2","sqft","545.22","3","3","","Kelly Kuzemchak","No","No","","715 52nd St","Pittsburgh","15201","PA","USA","40.478058","-79.95082"
"https://www.zillow.com/homedetails/1308-Francis-Way-Oakdale-PA-15071/333136593_zpid/","","","461600","483800","2930","353200","05/23/2022","2600","sqft","177.54","9292","sqft","49.68","4","3","","","No","No","","1308 Francis Way","Oakdale","15071","PA","USA","40.40718","-80.15871"
"https://www.zillow.com/homedetails/1209-Spring-Garden-Ave-Pittsburgh-PA-15212/11394846_zpid/","","","475000","497800","3015","17900","05/20/2022","2642","sqft","179.79","2448.07","sqft","194.03","4","3","","Heather Edmondson","No","No","","1209 Spring Garden Ave","Pittsburgh","15212","PA","USA","40.460014","-79.99118"
"https://www.zillow.com/homedetails/4554-Brandywine-Ct-Mc-Donald-PA-15057/306759947_zpid/","","","479900","503000","3047","370400","05/20/2022","2568","sqft","186.88","0.25","acres","1904906.51","4","2.5","","","No","No","","4554 Brandywine Ct","Mc Donald","15057","PA","USA","40.36611","-80.18899"
"https://www.zillow.com/homedetails/2933-Pinnacle-Dr-Mc-Donald-PA-15057/242630933_zpid/","","","466000","483900","2885","311700","05/19/2022","2408","sqft","193.52","8999.5","sqft","51.78","4","3","","Michael Reed","No","No","","2933 Pinnacle Dr","Mc Donald","15057","PA","USA","40.353294","-80.15658"
"https://www.zillow.com/homedetails/104-Lori-Rd-Gibsonia-PA-15044/64492874_zpid/","","","475000","497900","3015","259800","05/16/2022","2600","sqft","182.69","0.41","acres","1158536.59","4","3","","Dustin Hook","No","No","","104 Lori Rd","Gibsonia","15044","PA","USA","40.62584","-79.926056"
"https://www.zillow.com/homedetails/115-Morrison-Dr-Pittsburgh-PA-15216/11571085_zpid/","","","460000","482100","2921","209900","05/13/2022","2359","sqft","195","8757","sqft","52.53","4","3","","","No","No","","115 Morrison Dr","Pittsburgh","15216","PA","USA","40.397297","-80.04851"
"https://www.zillow.com/homedetails/543-Twele-Rd-Greenock-PA-15047/87993599_zpid/","","","470000","492600","2984","280600","05/13/2022","3432","sqft","136.95","1","acres","467987.65","4","4","","Tammy Ulm","No","No","","543 Twele Rd","Greenock","15047","PA","USA","40.309998","-79.79473"
"https://www.zillow.com/homedetails/100-Halsey-Ct-Pittsburgh-PA-15228/11397255_zpid/","","","474900","497800","3015","248400","05/12/2022","2352","sqft","201.91","10454.4","sqft","45.43","4","3","","Julie Hirshman","No","No","","100 Halsey Ct","Pittsburgh","15228","PA","USA","40.3582","-80.03805"
"https://www.zillow.com/homedetails/8255-Van-Buren-Dr-Pittsburgh-PA-15237/11557451_zpid/","","","478000","501000","3035","204100","05/12/2022","3221","sqft","148.4","0.27","acres","1778935.62","4","4","","CHRISTOPHER CARR","No","No","","8255 Van Buren Dr","Pittsburgh","15237","PA","USA","40.557587","-80.0524"
"https://www.zillow.com/homedetails/15-Colony-Oaks-Dr-Pittsburgh-PA-15209/11410428_zpid/","","","455000","476900","2889","210500","05/11/2022","2148","sqft","211.82","","","","4","4","","Linda Miller","No","No","","15 Colony Oaks Dr","Pittsburgh","15209","PA","USA","40.51171","-79.979805"
"https://www.zillow.com/homedetails/114-Horseshoe-Dr-Oakdale-PA-15071/338888126_zpid/","","","462085","484300","2934","297300","05/11/2022","2352","sqft","196.46","0.36","acres","1280352.56","4","2.5","","","No","No","","114 Horseshoe Dr","Oakdale","15071","PA","USA","40.431774","-80.23782"
"https://www.zillow.com/homedetails/2521-Country-Side-Ln-Wexford-PA-15090/11274236_zpid/","","","455000","476900","2889","305000","05/10/2022","","","","0.62","acres","733870.97","4","3","","Judi Sahayda","No","No","","2521 Country Side Ln","Wexford","15090","PA","USA","40.603226","-80.082375"
"https://www.zillow.com/homedetails/220-Williamsburg-Dr-Elizabeth-PA-15037/123703900_zpid/","","","465000","487400","2952","235100","05/10/2022","2920","sqft","159.25","0.56","acres","827844.04","4","3","","Tina Groce","No","No","","220 Williamsburg Dr","Elizabeth","15037","PA","USA","40.27184","-79.81524"
"https://www.zillow.com/homedetails/1114-Fedorek-Dr-South-Park-PA-15129/87989927_zpid/","","","482400","505600","3063","326900","05/09/2022","","","","","","","4","4","","Jeff Earley","No","No","","1114 Fedorek Dr","South Park","15129","PA","USA","40.29608","-79.97634"
"https://www.zillow.com/homedetails/2033-Pinnacle-Way-South-Park-PA-15129/2059154702_zpid/","","","464935","","1464","","05/09/2022","2492","sqft","186.57","","","","3","3","","David Bruckner","No","No","","2033 Pinnacle Way","South Park","15129","PA","USA","",""
"https://www.zillow.com/homedetails/525-Guyasuta-Rd-Pittsburgh-PA-15215/11334646_zpid/","","","475000","497900","3016","291500","05/06/2022","2853","sqft","166.49","1.17","acres","407235.94","4","3","","Eileen Lusk","No","No","","525 Guyasuta Rd","Pittsburgh","15215","PA","USA","40.499493","-79.90507"
"https://www.zillow.com/homedetails/1013-Augusta-Way-Pittsburgh-PA-15236/11428884_zpid/","","","475000","483600","2927","259300","05/06/2022","2174","sqft","218.49","9090.97","sqft","52.25","4","4","","Valerie Rose","No","No","","1013 Augusta Way","Pittsburgh","15236","PA","USA","40.3466","-79.97929"
"https://www.zillow.com/homedetails/403-Kingsbrook-Dr-Mc-Donald-PA-15057/59858108_zpid/","","","460000","482200","2921","219300","05/03/2022","","","","0.43","acres","1069767.44","4","3","","Mary Eve Kearns","No","No","","403 Kingsbrook Dr","Mc Donald","15057","PA","USA","40.371044","-80.14886"
"https://www.zillow.com/homedetails/1317-Francis-Way-Oakdale-PA-15071/333136585_zpid/","","","476970","500000","3029","413700","05/03/2022","3116","sqft","153.07","0.31","acres","1549930.12","4","3.5","","","No","No","","1317 Francis Way","Oakdale","15071","PA","USA","40.406696","-80.159584"
