Property URL,MLS ID,Number of days on Zillow,Property price (USD),Zestimate (USD),Rent zestimate (USD per month),Tax assessed value (USD),Sold date (MM/DD/YYYY),Living area,Living area unit,Price per living area unit (USD),Lot/land area,Lot/land area unit,Price per lot/land area unit (USD),Bedrooms,Bathrooms,Broker name,Broker agent,Is owner occupied,Property owned by Zillow,Property unit number,Street address,City,Zip,State,Country,Latitude,Longitude
"https://www.zillow.com/homedetails/209-Onyx-Ave-Pittsburgh-PA-15210/11437142_zpid/","","","34000","","1394","35700","10/13/2023","1284","sqft","26.48","2748.64","sqft","12.37","3","2","","Kathy Armstrong","No","No","","209 Onyx Ave","Pittsburgh","15210","PA","USA","40.40811","-79.98928"
"https://www.zillow.com/homedetails/334-Elicker-Rd-Pittsburgh-PA-15239/11596835_zpid/","","","35000","35000","1396","96200","10/06/2023","","","","1.52","acres","23026.32","2","2","","Adriene Eggert","No","No","","334 Elicker Rd","Pittsburgh","15239","PA","USA","40.501812","-79.78076"
"https://www.zillow.com/homedetails/518-Glenn-St-Wilmerding-PA-15148/11537188_zpid/","","","35000","35000","981","11100","10/03/2023","1216","sqft","28.78","2861.89","sqft","12.23","2","1","","Jason Mazzei","No","No","","518 Glenn St","Wilmerding","15148","PA","USA","40.388584","-79.81033"
"https://www.zillow.com/homedetails/418-W-Carter-Dr-North-Versailles-PA-15137/11459006_zpid/","","","39000","","1300","42300","09/28/2023","1185","sqft","32.91","6481.73","sqft","6.02","3","1","","Amanda Gilson","No","No","","418 W Carter Dr","North Versailles","15137","PA","USA","40.38589","-79.84259"
"https://www.zillow.com/homedetails/803-11th-St-Mc-Kees-Rocks-PA-15136/11598603_zpid/","","","40000","40000","1083","29300","09/26/2023","1043","sqft","38.35","5201.06","sqft","7.69","2","1","","Christopher Schneider","No","No","","803 11th St","Mc Kees Rocks","15136","PA","USA","40.47542","-80.07697"
"https://www.zillow.com/homedetails/908-Liberty-St-Duquesne-PA-15110/11422722_zpid/","","","40000","40000","1234","33900","09/21/2023","1152","sqft","34.72","2657.16","sqft","15.05","2","3","","Michael Watson","No","No","","908 Liberty St","Duquesne","15110","PA","USA","40.38286","-79.858505"
"https://www.zillow.com/homedetails/5416-Elm-St-Bethel-Park-PA-15102/11547956_zpid/","","","36000","36000","1194","41500","09/21/2023","979","sqft","36.77","3049.2","sqft","11.81","2","1","","Robert Moncavage","No","No","","5416 Elm St","Bethel Park","15102","PA","USA","40.32349","-80.04019"
"https://www.zillow.com/homedetails/4412-Armorhill-Ave-Homestead-PA-15120/11640462_zpid/","","","40000","40000","1099","40300","09/20/2023","616","sqft","64.94","5000.69","sqft","8","2","1","","Yvette Carey","No","No","","4412 Armorhill Ave","Homestead","15120","PA","USA","40.39721","-79.919754"
"https://www.zillow.com/homedetails/2802-McDowell-St-Pittsburgh-PA-15212/11498406_zpid/","","","35000","35000","1150","34200","09/15/2023","","","","3920.4","sqft","8.93","3","1","","Lisa Schimizzi","No","No","","2802 McDowell St","Pittsburgh","15212","PA","USA","40.470715","-80.02654"
"https://www.zillow.com/homedetails/1806-Turkeyfoot-Rd-McKeesport-PA-15135/11604491_zpid/","","","35000","35000","1446","58000","09/08/2023","2083","sqft","16.8","0.26","acres","136452.24","3","2","","Luke Hudson","No","No","","1806 Turkeyfoot Rd","McKeesport","15135","PA","USA","40.302746","-79.82062"
"https://www.zillow.com/homedetails/1440-Mill-St-Pittsburgh-PA-15221/11378980_zpid/","","","34000","34000","1133","14500","09/07/2023","1044","sqft","32.57","1576.87","sqft","21.56","2","1","","Bianca Suggs","No","No","","1440 Mill St","Pittsburgh","15221","PA","USA","40.44648","-79.87845"
"https://www.zillow.com/homedetails/2530-Boyd-St-Monroeville-PA-15146/11536356_zpid/","","","35000","35000","1288","54000","09/01/2023","1560","sqft","22.44","2613.6","sqft","13.39","3","1","","Gary Craig","No","No","","2530 Boyd St","Monroeville","15146","PA","USA","40.402035","-79.80341"
"https://www.zillow.com/homedetails/129-Weber-Way-Pittsburgh-PA-15210/11308293_zpid/","","","35000","35000","1321","23000","08/31/2023","1014","sqft","34.52","5998.21","sqft","5.84","3","2","","Luke O'Brien","No","No","","129 Weber Way","Pittsburgh","15210","PA","USA","40.416317","-79.97932"
"https://www.zillow.com/homedetails/9-Sherman-Ave-Dravosburg-PA-15034/11426911_zpid/","","","39000","39000","1194","77500","08/31/2023","1554","sqft","25.1","3484.8","sqft","11.19","3","2","","Robert Moncavage","No","No","","9 Sherman Ave","Dravosburg","15034","PA","USA","40.349102","-79.88971"
"https://www.zillow.com/homedetails/1806-Powers-St-McKeesport-PA-15132/11463151_zpid/","","","36000","36000","898","20600","08/31/2023","1124","sqft","32.03","2874.96","sqft","12.52","2","1","","Cindy Schmidt","No","No","","1806 Powers St","McKeesport","15132","PA","USA","40.3401","-79.84353"
"https://www.zillow.com/homedetails/718-Archer-St-McKeesport-PA-15132/11465154_zpid/","","","35000","35000","1147","53400","08/30/2023","1438","sqft","24.34","5501.63","sqft","6.36","3","1","","Jason Dalbey","No","No","","718 Archer St","McKeesport","15132","PA","USA","40.34479","-79.87885"
"https://www.zillow.com/homedetails/800-Mill-St-Tarentum-PA-15084/11279744_zpid/","","","39900","39900","900","32100","08/24/2023","1256","sqft","31.77","1981.98","sqft","20.13","2","1","","Michael Kusenko","No","No","","800 Mill St","Tarentum","15084","PA","USA","40.602722","-79.758286"
"https://www.zillow.com/homedetails/3211-Central-Ave-Pittsburgh-PA-15212/11606019_zpid/","","","40000","40000","1025","37000","08/17/2023","870","sqft","45.98","2957.72","sqft","13.52","2","1","","Stefania James","No","No","","3211 Central Ave","Pittsburgh","15212","PA","USA","40.475117","-80.02803"
"https://www.zillow.com/homedetails/814-1st-St-Verona-PA-15147/11448297_zpid/","","","35000","","1449","43900","08/15/2023","1950","sqft","17.95","2500","sqft","14","3","1","","","No","No","","814 1st St","Verona","15147","PA","USA","40.50694","-79.83935"
"https://www.zillow.com/homedetails/317-James-St-Verona-PA-15147/11448814_zpid/","","","40000","","1346","26200","08/14/2023","2052","sqft","19.49","1870","sqft","21.39","3","1","","","No","No","","317 James St","Verona","15147","PA","USA","40.503834","-79.84375"
"https://www.zillow.com/homedetails/1311-Franklin-Ave-Pittsburgh-PA-15221/11380536_zpid/","","","37000","37000","1314","20800","08/11/2023","1364","sqft","27.13","2879.32","sqft","12.85","4","1","","Angie Xu","No","No","","1311 Franklin Ave","Pittsburgh","15221","PA","USA","40.43858","-79.87286"
"https://www.zillow.com/homedetails/243-W-8th-Ave-Tarentum-PA-15084/11279984_zpid/","","","35000","","1200","29300","08/10/2023","1008","sqft","34.72","2200","sqft","15.91","3","1","","","No","No","","243 W 8th Ave","Tarentum","15084","PA","USA","40.600086","-79.762695"
"https://www.zillow.com/homedetails/611-Bayard-St-Elizabeth-PA-15037/304678840_zpid/","","","35000","","1028","43700","08/10/2023","2516","sqft","13.91","3000","sqft","11.67","2","2","","","No","No","","611 Bayard St","Elizabeth","15037","PA","USA","40.269337","-79.886955"
"https://www.zillow.com/homedetails/1227-Benton-Ave-Pittsburgh-PA-15212/11268952_zpid/","","","36000","99600","1489","60800","08/09/2023","2013","sqft","17.88","3563","sqft","10.1","4","1","","","No","No","","1227 Benton Ave","Pittsburgh","15212","PA","USA","40.48542","-80.03377"
"https://www.zillow.com/homedetails/216-Frank-St-Homestead-PA-15120/11347501_zpid/","","","40000","67900","1099","39800","08/09/2023","1200","sqft","33.33","","","","2","1","","","No","No","","216 Frank St","Homestead","15120","PA","USA","40.399757","-79.89236"
"https://www.zillow.com/homedetails/3312-5th-Ave-North-Versailles-PA-15137/11499597_zpid/","","","38000","38000","1099","36400","08/08/2023","777","sqft","48.91","0.38","acres","100198.55","2","1","","","No","No","","3312 5th Ave","North Versailles","15137","PA","USA","40.364143","-79.8234"
"https://www.zillow.com/homedetails/308-Marie-St-Glassport-PA-15045/11466383_zpid/","","","40000","76500","994","39500","08/04/2023","850","sqft","47.06","5500","sqft","7.27","2","1","","","No","No","","308 Marie St","Glassport","15045","PA","USA","40.33776","-79.88804"
"https://www.zillow.com/homedetails/3524-Cambria-St-Homestead-PA-15120/11295415_zpid/","","","40000","40000","1400","72200","08/03/2023","1648","sqft","24.27","6000","sqft","6.67","3","1","","","No","No","","3524 Cambria St","Homestead","15120","PA","USA","40.38584","-79.907585"
"https://www.zillow.com/homedetails/302-Monroeville-Ave-Turtle-Creek-PA-15145/11496395_zpid/","","","35000","35000","1310","14500","08/02/2023","2050","sqft","17.07","2099.59","sqft","16.67","3","1","","Jason Mazzei","No","No","","302 Monroeville Ave","Turtle Creek","15145","PA","USA","40.40628","-79.82224"
"https://www.zillow.com/homedetails/123-Fremont-St-Pittsburgh-PA-15210/11316583_zpid/","","","35000","27000","1164","24000","07/31/2023","974","sqft","35.93","2500.34","sqft","14","2","2","","Michael Pohlot","No","No","","123 Fremont St","Pittsburgh","15210","PA","USA","40.4167","-79.98378"
"https://www.zillow.com/homedetails/2018-Straubs-Ln-Pittsburgh-PA-15212/11512108_zpid/","","","39900","","1700","44600","07/31/2023","1572","sqft","25.38","2199.78","sqft","18.14","2","1","","Libby Sosinski","No","No","","2018 Straubs Ln","Pittsburgh","15212","PA","USA","40.468716","-79.98056"
"https://www.zillow.com/homedetails/612-Lillian-St-Pittsburgh-PA-15210/11316034_zpid/","","","37698","","1348","20600","07/28/2023","1512","sqft","24.93","2072","sqft","18.19","3","1","","","No","No","","612 Lillian St","Pittsburgh","15210","PA","USA","40.418488","-79.99679"
"https://www.zillow.com/homedetails/217-Wilbur-St-Pittsburgh-PA-15210/11437037_zpid/","","","36600","","1198","20000","07/28/2023","1228","sqft","29.8","1516","sqft","24.14","2","1","","","No","No","","217 Wilbur St","Pittsburgh","15210","PA","USA","40.407913","-79.993225"
"https://www.zillow.com/homedetails/16-Penelope-St-Pittsburgh-PA-15211/46327013_zpid/","","","36600","","1275","22000","07/28/2023","1122","sqft","32.62","3171","sqft","11.54","2","1","","","No","No","","16 Penelope St","Pittsburgh","15211","PA","USA","40.423","-80.01278"
"https://www.zillow.com/homedetails/Pine-Creek-Rd-Wexford-PA-15090/246259984_zpid/","","","35000","","2139","35900","07/28/2023","","","","0.5","acres","70423.58","","","","","No","No","","Pine Creek Rd","Wexford","15090","PA","USA","40.592197","-80.05616"
"https://www.zillow.com/homedetails/535-Ottillia-St-Pittsburgh-PA-15210/11435124_zpid/","","","40000","130900","1400","19700","07/26/2023","1160","sqft","34.48","2097","sqft","19.07","3","1","","","No","No","","535 Ottillia St","Pittsburgh","15210","PA","USA","40.410027","-79.981064"
"https://www.zillow.com/homedetails/2812-Jenny-Lind-St-McKeesport-PA-15132/11463201_zpid/","","","37588","","1085","19200","07/25/2023","1906","sqft","19.72","","","","5","1","","","No","No","","2812 Jenny Lind St","McKeesport","15132","PA","USA","40.338795","-79.84359"
"https://www.zillow.com/homedetails/500-Worthington-St-McKeesport-PA-15132/11542074_zpid/","","","36000","36000","895","34000","07/25/2023","1200","sqft","30","3132","sqft","11.49","2","1","","","No","No","","500 Worthington St","McKeesport","15132","PA","USA","40.317116","-79.83174"
"https://www.zillow.com/homedetails/Lampe-Way-Pittsburgh-PA-15220/164583018_zpid/","","","40000","","1357","34300","07/25/2023","","","","1.2","acres","33444.66","","","","","No","No","","Lampe Way","Pittsburgh","15220","PA","USA","40.429382","-80.040474"
"https://www.zillow.com/homedetails/422-Westinghouse-Ave-North-Versailles-PA-15137/11497998_zpid/","","","35000","35000","1297","23200","07/21/2023","1418","sqft","24.68","9970.88","sqft","3.51","3","2","","Liudmila Yakimova","No","No","","422 Westinghouse Ave","North Versailles","15137","PA","USA","40.368755","-79.82892"
"https://www.zillow.com/homedetails/1024-South-Ave-Pittsburgh-PA-15221/11380250_zpid/","","","39894","","3499","21800","07/19/2023","3037","sqft","13.14","4356","sqft","9.16","5","3.5","","","No","No","","1024 South Ave","Pittsburgh","15221","PA","USA","40.43979","-79.87935"
"https://www.zillow.com/homedetails/McNees-Ln-Imperial-PA-15126/164480244_zpid/","","","35000","","1794","34900","07/19/2023","","","","1.5","acres","23402.1","","","","","No","No","","McNees Ln","Imperial","15126","PA","USA","40.450523","-80.22611"
"https://www.zillow.com/homedetails/Butternut-Dr-McDonald-PA-15057/164668217_zpid/","","","40000","","1798","17800","07/19/2023","","","","4.44","acres","9006.98","","","","","No","No","","Butternut Dr","Mcdonald","15057","PA","USA","40.391666","-80.21728"
"https://www.zillow.com/homedetails/4-Riverside-Ct-Pittsburgh-PA-15238/11414904_zpid/","","","35000","","1134","18000","07/17/2023","980","sqft","35.71","1751.11","sqft","19.99","2","1","","Denis Tague","No","No","","4 Riverside Ct","Pittsburgh","15238","PA","USA","40.489796","-79.86265"
"https://www.zillow.com/homedetails/25-Monongahela-Ave-Glassport-PA-15045/11504209_zpid/","","","35000","77800","995","40500","07/14/2023","781","sqft","44.81","5775","sqft","6.06","2","1","","","No","No","","25 Monongahela Ave","Glassport","15045","PA","USA","40.335224","-79.89044"
"https://www.zillow.com/homedetails/303-Elsdon-St-Pittsburgh-PA-15214/11505623_zpid/","","","40000","","1780","43700","07/14/2023","1892","sqft","21.14","4687.06","sqft","8.53","4","1","","Leslie Winters","No","No","","303 Elsdon St","Pittsburgh","15214","PA","USA","40.46681","-80.01349"
"https://www.zillow.com/homedetails/222-Pennsylvania-Ave-Clairton-PA-15025/11576351_zpid/","","","38000","38000","1089","35600","07/13/2023","960","sqft","39.58","5227.2","sqft","7.27","3","1","","Robert Moncavage","No","No","","222 Pennsylvania Ave","Clairton","15025","PA","USA","40.31018","-79.89419"
"https://www.zillow.com/homedetails/101-Lorish-Rd-Mc-Kees-Rocks-PA-15136/164571410_zpid/","","","35400","","1364","35400","07/13/2023","","","","0.37","acres","95227.81","","","","","No","No","","101 Lorish Rd","Mc Kees Rocks","15136","PA","USA","40.45148","-80.10888"
"https://www.zillow.com/homedetails/6-North-Ave-Pittsburgh-PA-15209/11611153_zpid/","","","35000","99100","1400","28700","07/12/2023","866","sqft","40.42","2100","sqft","16.67","2","1","","","No","No","","6 North Ave","Pittsburgh","15209","PA","USA","40.47934","-79.97599"
"https://www.zillow.com/homedetails/563-N-Richland-St-Pittsburgh-PA-15208/11340210_zpid/","","","35000","35000","1299","29700","07/10/2023","1520","sqft","23.03","2238.98","sqft","15.63","2","1","","Jennifer Faure","No","No","","563 N Richland St","Pittsburgh","15208","PA","USA","40.452892","-79.89319"
"https://www.zillow.com/homedetails/2923-Stafford-St-Pittsburgh-PA-15204/11483260_zpid/","","","35850","","1570","45800","07/10/2023","","","","740.52","sqft","48.41","2","1","","Mary Lou Einloth","No","No","","2923 Stafford St","Pittsburgh","15204","PA","USA","40.45643","-80.05051"
"https://www.zillow.com/homedetails/620-3rd-Ave-Tarentum-PA-15084/11281000_zpid/","","","38000","94000","1025","44200","07/07/2023","1509","sqft","25.18","3750","sqft","10.13","3","1","","","No","No","","620 3rd Ave","Tarentum","15084","PA","USA","40.60361","-79.74711"
"https://www.zillow.com/homedetails/221-E-Meyers-St-Pittsburgh-PA-15210/11556557_zpid/","","","35000","","1399","54000","07/05/2023","1894","sqft","18.48","6000","sqft","5.83","3","1","","","No","No","","221 E Meyers St","Pittsburgh","15210","PA","USA","40.400814","-79.98503"
"https://www.zillow.com/homedetails/199-Saint-Joseph-St-Pittsburgh-PA-15210/11434896_zpid/","","","35000","","1014","18500","06/30/2023","800","sqft","43.75","2650","sqft","13.21","2","1","","","No","No","","199 Saint Joseph St","Pittsburgh","15210","PA","USA","40.41322","-79.982735"
"https://www.zillow.com/homedetails/640-Morgan-St-Pittsburgh-PA-15219/11260366_zpid/","","","35000","35200","1910","57100","06/28/2023","2180","sqft","16.06","1650.92","sqft","21.2","6","2","","Paul Wang","No","No","","640 Morgan St","Pittsburgh","15219","PA","USA","40.45091","-79.96851"
"https://www.zillow.com/homedetails/8911-Upland-Ter-Pittsburgh-PA-15235/11377434_zpid/","","","38000","66300","1501","38000","06/28/2023","1517","sqft","25.05","3746","sqft","10.14","3","2","","","No","No","","8911 Upland Ter","Pittsburgh","15235","PA","USA","40.462128","-79.86904"
"https://www.zillow.com/homedetails/6462-Poketa-Rd-Verona-PA-15147/11490905_zpid/","","","40000","130200","1400","62500","06/27/2023","1280","sqft","31.25","10311","sqft","3.88","3","1","","","No","No","","6462 Poketa Rd","Verona","15147","PA","USA","40.488354","-79.82458"
"https://www.zillow.com/homedetails/305-E-9th-Ave-Tarentum-PA-15084/11279413_zpid/","","","35000","35200","1195","30900","06/26/2023","840","sqft","41.67","1516","sqft","23.09","3","2","","","No","No","","305 E 9th Ave","Tarentum","15084","PA","USA","40.604156","-79.75536"
"https://www.zillow.com/homedetails/435-Fairway-Dr-Pittsburgh-PA-15227/11305151_zpid/","","","40000","194200","1477","86200","06/22/2023","1680","sqft","23.81","7780","sqft","5.14","3","1","","","No","No","","435 Fairway Dr","Pittsburgh","15227","PA","USA","40.379005","-79.96634"
"https://www.zillow.com/homedetails/234-Bouquet-St-Homestead-PA-15120/11347909_zpid/","","","40000","","1505","80000","06/22/2023","1750","sqft","22.86","5832.68","sqft","6.86","3","2","","Missy Foltz","No","No","","234 Bouquet St","Homestead","15120","PA","USA","40.397446","-79.89085"
"https://www.zillow.com/homedetails/2807-Holbrook-St-Pittsburgh-PA-15212/11492820_zpid/","","","35000","","1249","29400","06/22/2023","1360","sqft","25.74","970","sqft","36.08","3","1","","","No","No","","2807 Holbrook St","Pittsburgh","15212","PA","USA","40.469006","-80.03522"
"https://www.zillow.com/homedetails/242-Nobles-Ln-Pittsburgh-PA-15210/11556052_zpid/","","","35425","","1200","35300","06/22/2023","1110","sqft","31.91","3916.04","sqft","9.05","2","1","","Shane Kunkle","No","No","","242 Nobles Ln","Pittsburgh","15210","PA","USA","40.40221","-79.99595"
"https://www.zillow.com/homedetails/117-W-14th-Ave-Homestead-PA-15120/11292984_zpid/","","","34001","","1352","24600","06/21/2023","1608","sqft","21.14","3049","sqft","11.15","3","1","","","No","No","","117 W 14th Ave","Homestead","15120","PA","USA","40.4023","-79.90827"
"https://www.zillow.com/homedetails/507-Ross-St-Wall-PA-15148/11572567_zpid/","","","35000","","1214","21900","06/21/2023","646","sqft","54.18","3000","sqft","11.67","3","1","","","No","No","","507 Ross St","Wall","15148","PA","USA","40.393623","-79.78519"
"https://www.zillow.com/homedetails/745-Macfarlane-Dr-Pittsburgh-PA-15235/11453614_zpid/","","","35000","","1300","64400","06/20/2023","923","sqft","37.92","8420.15","sqft","4.16","3","1","","Brian Niklaus","No","No","","745 Macfarlane Dr","Pittsburgh","15235","PA","USA","40.452816","-79.84292"
"https://www.zillow.com/homedetails/219-Indianola-Dr-Indianola-PA-15051/11593560_zpid/","","","39721","71700","850","50600","06/20/2023","740","sqft","53.68","9035","sqft","4.4","1","1","","","No","No","","219 Indianola Dr","Indianola","15051","PA","USA","40.56284","-79.85907"
"https://www.zillow.com/homedetails/40-Bismark-St-Pittsburgh-PA-15209/11272223_zpid/","","","40000","40200","1734","44900","06/19/2023","1633","sqft","24.49","3855.06","sqft","10.38","3","2","","Quentin J. McQuaid","No","No","","40 Bismark St","Pittsburgh","15209","PA","USA","40.483685","-79.97066"
"https://www.zillow.com/homedetails/317-Campbell-St-Mc-Kees-Rocks-PA-15136/11602937_zpid/","","","37500","37700","1214","37000","06/16/2023","1784","sqft","21.02","2500","sqft","15","3","1","","","No","No","","317 Campbell St","Mc Kees Rocks","15136","PA","USA","40.47414","-80.055435"
"https://www.zillow.com/homedetails/6-Oakland-St-Pittsburgh-PA-15223/11333087_zpid/","","","40000","40200","1214","43100","06/14/2023","560","sqft","71.43","2500","sqft","16","2","1","","","No","No","","6 Oakland St","Pittsburgh","15223","PA","USA","40.498028","-79.94701"
"https://www.zillow.com/homedetails/2916-Glen-Mawr-St-Pittsburgh-PA-15204/11483142_zpid/","","","40000","40200","1494","36200","06/13/2023","1773","sqft","22.56","2500","sqft","16","3","2","","","No","No","","2916 Glen Mawr St","Pittsburgh","15204","PA","USA","40.45516","-80.06673"
"https://www.zillow.com/homedetails/701-Monterey-St-McKeesport-PA-15132/11426293_zpid/","","","40000","99600","880","16300","06/12/2023","750","sqft","53.33","6459.95","sqft","6.19","2","1","","","No","No","","701 Monterey St","McKeesport","15132","PA","USA","40.346115","-79.87945"
"https://www.zillow.com/homedetails/411-Fairywood-St-Pittsburgh-PA-15205/11587912_zpid/","","","36000","","1628","39000","06/12/2023","1672","sqft","21.53","3001.28","sqft","11.99","4","2","","Yvette Carey","No","No","","411 Fairywood St","Pittsburgh","15205","PA","USA","40.447296","-80.080154"
"https://www.zillow.com/homedetails/1176-Woodbine-St-Pittsburgh-PA-15201/11615103_zpid/","","","38000","38200","1200","49300","06/12/2023","918","sqft","41.39","2712","sqft","14.01","2","1","","","No","No","","1176 Woodbine St","Pittsburgh","15201","PA","USA","40.479942","-79.94013"
"https://www.zillow.com/homedetails/804-1-2-Allegheny-River-Blvd-Oakmont-PA-15139/11446992_zpid/","","","40000","","1350","40000","06/09/2023","1270","sqft","31.5","2891","sqft","13.84","2","1","","","No","No","","804 1/2 Allegheny River Blvd","Oakmont","15139","PA","USA","40.524025","-79.84094"
"https://www.zillow.com/homedetails/706-Cypress-Aly-Glassport-PA-15045/11543636_zpid/","","","35000","35300","1099","27700","06/09/2023","1049","sqft","33.37","7200","sqft","4.86","3","1","","","No","No","","706 Cypress Aly","Glassport","15045","PA","USA","40.32393","-79.89045"
"https://www.zillow.com/homedetails/166-Ormsby-Ave-Pittsburgh-PA-15210/11436011_zpid/","","","40000","40300","1442","27600","06/07/2023","1360","sqft","29.41","2918.52","sqft","13.71","3","1","","Paul Wang","No","No","","166 Ormsby Ave","Pittsburgh","15210","PA","USA","40.412903","-79.98418"
"https://www.zillow.com/homedetails/417-Flowers-Ave-Pittsburgh-PA-15207/11549985_zpid/","","","37000","","1114","10200","06/06/2023","960","sqft","38.54","1600","sqft","23.13","2","1","","","No","No","","417 Flowers Ave","Pittsburgh","15207","PA","USA","40.41218","-79.93718"
"https://www.zillow.com/homedetails/717-Walbridge-St-Pittsburgh-PA-15220/11362551_zpid/","","","39250","99100","1379","25000","05/31/2023","1132","sqft","34.67","2100","sqft","18.69","3","1","","","No","No","","717 Walbridge St","Pittsburgh","15220","PA","USA","40.439228","-80.036804"
"https://www.zillow.com/homedetails/2126-Highland-Ave-McKeesport-PA-15132/11460789_zpid/","","","40000","40300","854","7600","05/31/2023","","","","2482.92","sqft","16.11","2","1","","Susan Kaczorek","No","No","","2126 Highland Ave","McKeesport","15132","PA","USA","40.338394","-79.850746"
"https://www.zillow.com/homedetails/413-Veronica-Dr-Pittsburgh-PA-15235/11452180_zpid/","","","40000","183000","1262","70200","05/30/2023","1096","sqft","36.5","5000.69","sqft","8","2","3","","","No","No","","413 Veronica Dr","Pittsburgh","15235","PA","USA","40.457096","-79.83835"
"https://www.zillow.com/homedetails/2714-Delaware-Ave-McKeesport-PA-15132/11499854_zpid/","","","40000","","998","28100","05/30/2023","","","","2820","sqft","14.18","2","1","","Kim Stotlemyer","No","No","","2714 Delaware Ave","McKeesport","15132","PA","USA","40.35678","-79.831825"
"https://www.zillow.com/homedetails/139-Glen-Caladh-St-Pittsburgh-PA-15207/11550073_zpid/","","","36600","","1114","11700","05/30/2023","984","sqft","37.2","958.32","sqft","38.19","2","1","","Darli Walker","No","No","","139 Glen Caladh St","Pittsburgh","15207","PA","USA","40.40956","-79.94268"
"https://www.zillow.com/homedetails/427-Marion-St-Creighton-PA-15030/11623867_zpid/","","","38000","38300","1164","35200","05/28/2023","1156","sqft","32.87","2500.34","sqft","15.2","2","2","","Dana Pietrzak","No","No","","427 Marion St","Creighton","15030","PA","USA","40.57411","-79.77865"
"https://www.zillow.com/homedetails/1018-Neel-St-Homestead-PA-15120/11292878_zpid/","","","40000","","1447","23300","05/26/2023","1312","sqft","30.49","1639","sqft","24.41","3","1","","","No","No","","1018 Neel St","Homestead","15120","PA","USA","40.4023","-79.91393"
"https://www.zillow.com/homedetails/4705-Lebanon-Church-Rd-West-Mifflin-PA-15122/11427417_zpid/","","","38000","147200","1026","55400","05/26/2023","852","sqft","44.6","9966","sqft","3.81","2","1","","","No","No","","4705 Lebanon Church Rd","West Mifflin","15122","PA","USA","40.353893","-79.901634"
"https://www.zillow.com/homedetails/724-East-St-Tarentum-PA-15084/11279770_zpid/","","","34900","","1182","48000","05/25/2023","1774","sqft","19.67","4146.91","sqft","8.42","3","1","","Nicole D Arduino","No","No","","724 East St","Tarentum","15084","PA","USA","40.60177","-79.75986"
"https://www.zillow.com/homedetails/721-Grant-Avenue-Ext-West-Mifflin-PA-15122/11389078_zpid/","","","40000","108700","1150","51200","05/23/2023","990","sqft","40.4","8687","sqft","4.6","2","1","","","No","No","","721 Grant Avenue Ext","West Mifflin","15122","PA","USA","40.372883","-79.86772"
"https://www.zillow.com/homedetails/3106-Versailles-Ave-McKeesport-PA-15132/11462021_zpid/","","","38500","","925","27300","05/22/2023","1412","sqft","27.27","3149.39","sqft","12.22","3","1","","Michael Pohlot","No","No","","3106 Versailles Ave","McKeesport","15132","PA","USA","40.344913","-79.84051"
"https://www.zillow.com/homedetails/1114-North-Ave-Pittsburgh-PA-15221/11379920_zpid/","","","40000","66300","1095","17500","05/19/2023","955","sqft","41.88","4340","sqft","9.22","2","1","","","No","No","","1114 North Ave","Pittsburgh","15221","PA","USA","40.442616","-79.876274"
"https://www.zillow.com/homedetails/869-6th-Ave-Brackenridge-PA-15014/11280405_zpid/","","","39000","39500","1247","53700","05/17/2023","888","sqft","43.92","7845","sqft","4.97","3","1","","","No","No","","869 6th Ave","Brackenridge","15014","PA","USA","40.60656","-79.74269"
"https://www.zillow.com/homedetails/624-Maryland-Ave-Glassport-PA-15045/11543494_zpid/","","","40000","40500","1200","31100","05/12/2023","1040","sqft","38.46","6000","sqft","6.67","3","1.5","","","No","No","","624 Maryland Ave","Glassport","15045","PA","USA","40.325092","-79.88651"
"https://www.zillow.com/homedetails/110-Hankey-Farms-Dr-Oakdale-PA-15071/59848915_zpid/","","","40000","","1877","120700","05/12/2023","1460","sqft","27.4","10065","sqft","3.97","3","1.5","","","No","No","","110 Hankey Farms Dr","Oakdale","15071","PA","USA","40.441334","-80.20065"
"https://www.zillow.com/homedetails/1409-Pillow-Ave-Harwick-PA-15049/87992929_zpid/","","","36900","37400","825","36900","05/12/2023","1184","sqft","31.17","6352","sqft","5.81","1","1","","","No","No","","1409 Pillow Ave","Harwick","15049","PA","USA","40.55377","-79.80533"
"https://www.zillow.com/homedetails/463-3rd-St-Clairton-PA-15025/11632977_zpid/","","","35525","36000","1213","34100","05/11/2023","1638","sqft","21.69","3400","sqft","10.45","4","1","","","No","No","","463 3rd St","Clairton","15025","PA","USA","40.295235","-79.88121"
"https://www.zillow.com/homedetails/114-W-11th-Ave-Homestead-PA-15120/11293050_zpid/","","","36000","","1440","16500","05/09/2023","933","sqft","38.59","3136.32","sqft","11.48","3","1","","Gary Craig","No","No","","114 W 11th Ave","Homestead","15120","PA","USA","40.403824","-79.91015"
"https://www.zillow.com/homedetails/1035-Sherman-Ave-Duquesne-PA-15110/11423767_zpid/","","","40000","40600","1394","39800","05/09/2023","2100","sqft","19.05","","","","3","2","","Tonya Washington","No","No","","1035 Sherman Ave","Duquesne","15110","PA","USA","40.369167","-79.855"
"https://www.zillow.com/homedetails/1049-Nelson-Ave-Brackenridge-PA-15014/11280873_zpid/","","","35000","94200","999","39400","05/08/2023","1200","sqft","29.17","2375","sqft","14.74","3","1","","","No","No","","1049 Nelson Ave","Brackenridge","15014","PA","USA","40.60486","-79.73702"
"https://www.zillow.com/homedetails/125-Dahlia-St-Homestead-PA-15120/11347213_zpid/","","","40000","102000","1113","24500","05/08/2023","764","sqft","52.36","4499","sqft","8.89","2","2","","","No","No","","125 Dahlia St","Homestead","15120","PA","USA","40.403336","-79.89279"
"https://www.zillow.com/homedetails/1532-Marie-St-Pittsburgh-PA-15221/11417451_zpid/","","","38000","93800","1117","26300","05/04/2023","988","sqft","38.46","3484.8","sqft","10.9","2","1","","","No","No","","1532 Marie St","Pittsburgh","15221","PA","USA","40.449036","-79.86295"
"https://www.zillow.com/homedetails/2216-Lutz-Ave-Pittsburgh-PA-15210/11647562_zpid/","","","34000","","1394","31000","05/03/2023","1178","sqft","28.86","3510.94","sqft","9.68","3","1","","Corey Diethorn","No","No","","2216 Lutz Ave","Pittsburgh","15210","PA","USA","40.390717","-79.985176"
"https://www.zillow.com/homedetails/3722-Burgettstown-Rd-Imperial-PA-15126/164210724_zpid/","","","35000","","1165","11000","05/02/2023","","","","2.02","acres","17326.77","","","","","No","No","","3722 Burgettstown Rd","Imperial","15126","PA","USA","40.465645","-80.28259"
"https://www.zillow.com/homedetails/1511-Laketon-Rd-Pittsburgh-PA-15221/11379103_zpid/","","","40000","","1167","29500","04/28/2023","800","sqft","50","0.33","acres","120992.14","2","1","","Libby Sosinski","No","No","","1511 Laketon Rd","Pittsburgh","15221","PA","USA","40.447773","-79.87132"
"https://www.zillow.com/homedetails/310-Campbell-St-Mc-Kees-Rocks-PA-15136/11602930_zpid/","","","39000","39700","1336","30000","04/28/2023","1188","sqft","32.83","2748.64","sqft","14.19","2","1","","Liz Merrell","No","No","","310 Campbell St","Mc Kees Rocks","15136","PA","USA","40.47371","-80.05542"
"https://www.zillow.com/homedetails/417-Colton-St-Pittsburgh-PA-15209/11272083_zpid/","","","36000","124100","1450","58600","04/26/2023","1071","sqft","33.61","4400","sqft","8.18","2","1","","","No","No","","417 Colton St","Pittsburgh","15209","PA","USA","40.483974","-79.97542"
"https://www.zillow.com/homedetails/118-Rochelle-St-Pittsburgh-PA-15210/11317047_zpid/","","","36000","","1414","12000","04/24/2023","1632","sqft","22.06","2500.34","sqft","14.4","4","2","","CHRISTOPHER CARR","No","No","","118 Rochelle St","Pittsburgh","15210","PA","USA","40.41494","-79.98904"
"https://www.zillow.com/homedetails/403-Woodward-Ave-Mc-Kees-Rocks-PA-15136/11594882_zpid/","","","35000","","1364","50400","04/21/2023","1280","sqft","27.34","2400.16","sqft","14.58","3","1","","Bob Stienstraw","No","No","","403 Woodward Ave","Mc Kees Rocks","15136","PA","USA","40.46918","-80.068016"
"https://www.zillow.com/homedetails/129-Zara-St-Pittsburgh-PA-15210/11317068_zpid/","","","40000","","1427","30600","04/20/2023","1744","sqft","22.94","2500.34","sqft","16","4","2","","Paul Wang","No","No","","129 Zara St","Pittsburgh","15210","PA","USA","40.416077","-79.989655"
"https://www.zillow.com/homedetails/3019-Vensel-Way-Pittsburgh-PA-15212/11606302_zpid/","","","35000","","1214","56300","04/20/2023","1888","sqft","18.54","2825","sqft","12.39","3","1","","","No","No","","3019 Vensel Way","Pittsburgh","15212","PA","USA","40.47247","-80.0291"
"https://www.zillow.com/homedetails/422-Mifflin-Rd-Pittsburgh-PA-15207/11640745_zpid/","","","35000","35700","1200","35000","04/20/2023","","","","2003.76","sqft","17.47","2","1","","Lisa Gasperoni","No","No","","422 Mifflin Rd","Pittsburgh","15207","PA","USA","40.38695","-79.932175"
"https://www.zillow.com/homedetails/42-Pine-St-Natrona-Heights-PA-15065/11302554_zpid/","","","40000","40900","1495","40500","04/19/2023","1776","sqft","22.52","2500.34","sqft","16","3","2","","Billie Jo Easterlin","No","No","","42 Pine St","Natrona Heights","15065","PA","USA","40.61091","-79.72393"
"https://www.zillow.com/homedetails/1006-Russellton-Rd-Cheswick-PA-15024/11563113_zpid/","","","40000","40900","1264","81500","04/19/2023","1503","sqft","26.61","5800","sqft","6.9","2","1","","","No","No","","1006 Russellton Rd","Cheswick","15024","PA","USA","40.557457","-79.819176"
"https://www.zillow.com/homedetails/242-Parkfield-St-Pittsburgh-PA-15210/11647177_zpid/","","","40000","40900","1200","44200","04/19/2023","1080","sqft","37.04","4186","sqft","9.56","2","1","","","No","No","","242 Parkfield St","Pittsburgh","15210","PA","USA","40.393654","-79.99098"
"https://www.zillow.com/homedetails/521-2nd-St-Pitcairn-PA-15140/11602281_zpid/","","","38200","39000","1250","44300","04/18/2023","1795","sqft","21.28","2500","sqft","15.28","4","1","","","No","No","","521 2nd St","Pitcairn","15140","PA","USA","40.402405","-79.77746"
"https://www.zillow.com/homedetails/1009-Kirkpatrick-Ave-Braddock-PA-15104/11422176_zpid/","","","35000","","1227","32500","04/05/2023","1992","sqft","17.57","3000","sqft","11.67","3","1","","","No","No","","1009 Kirkpatrick Ave","Braddock","15104","PA","USA","40.402466","-79.85976"
"https://www.zillow.com/homedetails/2824-Morlock-St-McKeesport-PA-15132/11463680_zpid/","","","40000","136700","1419","57700","04/05/2023","1294","sqft","30.91","4511","sqft","8.87","5","2","","","No","No","","2824 Morlock St","McKeesport","15132","PA","USA","40.33747","-79.84276"
"https://www.zillow.com/homedetails/1216-Morrow-St-Pittsburgh-PA-15221/11380978_zpid/","","","36000","37000","1300","45200","04/03/2023","1183","sqft","30.43","3001.28","sqft","11.99","3","1","","Douglas Brewster","No","No","","1216 Morrow St","Pittsburgh","15221","PA","USA","40.436333","-79.87523"
"https://www.zillow.com/homedetails/330-Erie-Ave-Glassport-PA-15045/11504492_zpid/","","","35000","36000","999","25900","03/31/2023","1016","sqft","34.45","5998","sqft","5.84","2","1","","","No","No","","330 Erie Ave","Glassport","15045","PA","USA","40.32965","-79.89068"
"https://www.zillow.com/homedetails/6427-Clifford-St-Pittsburgh-PA-15206/11284457_zpid/","","","40000","","1399","22000","03/28/2023","1320","sqft","30.3","2210","sqft","18.1","3","1","","","No","No","","6427 Clifford St","Pittsburgh","15206","PA","USA","40.469257","-79.90435"
"https://www.zillow.com/homedetails/36-W-Bellecrest-Ave-Pittsburgh-PA-15227/11304417_zpid/","","","35000","136800","1404","65200","03/28/2023","1056","sqft","33.14","2860","sqft","12.24","3","1","","","No","No","","36 W Bellecrest Ave","Pittsburgh","15227","PA","USA","40.379845","-79.977425"
"https://www.zillow.com/homedetails/2718-California-Ave-Pittsburgh-PA-15212/11492840_zpid/","","","36738","118800","1164","41400","03/28/2023","1056","sqft","34.79","2252","sqft","16.31","3","1","","","No","No","","2718 California Ave","Pittsburgh","15212","PA","USA","40.468624","-80.03508"
"https://www.zillow.com/homedetails/725-N-6th-St-Clairton-PA-15025/11576444_zpid/","","","35000","36000","1066","37300","03/28/2023","1040","sqft","33.65","5000","sqft","7","3","1","","","No","No","","725 N 6th St","Clairton","15025","PA","USA","40.30789","-79.89659"
"https://www.zillow.com/homedetails/1723-Eden-Park-Blvd-McKeesport-PA-15132/11501031_zpid/","","","35500","36600","895","16900","03/27/2023","782","sqft","45.4","2649","sqft","13.4","2","1","","","No","No","","1723 Eden Park Blvd","McKeesport","15132","PA","USA","40.346687","-79.83151"
"https://www.zillow.com/homedetails/403-Island-Ave-Mc-Kees-Rocks-PA-15136/11488085_zpid/","","","33100","","999","24800","03/24/2023","1348","sqft","24.55","2286.9","sqft","14.47","2","1","","Douglas Brewster","No","No","","403 Island Ave","Mc Kees Rocks","15136","PA","USA","40.469296","-80.060486"
"https://www.zillow.com/homedetails/706-Noblestown-Rd-Carnegie-PA-15106/11582999_zpid/","","","35000","36100","1450","33000","03/24/2023","1086","sqft","32.23","3070.98","sqft","11.4","3","1","","Fran Molinaro","No","No","","706 Noblestown Rd","Carnegie","15106","PA","USA","40.41567","-80.07023"
"https://www.zillow.com/homedetails/14-16-Ainsworth-St-Pittsburgh-PA-15220/2060307131_zpid/","","","33500","","1194","","03/24/2023","","","","5000","sqft","6.7","2","1","","Mary Lou Einloth","No","No","","14 & 16 Ainsworth St","Pittsburgh","15220","PA","USA","",""
"https://www.zillow.com/homedetails/6-Center-St-Natrona-Heights-PA-15065/11302080_zpid/","","","34000","35100","1099","20800","03/23/2023","1176","sqft","28.91","2740","sqft","12.41","3","1.5","","","No","No","","6 Center St","Natrona Heights","15065","PA","USA","40.614178","-79.721756"
"https://www.zillow.com/homedetails/21-Lacona-St-Pittsburgh-PA-15210/11437574_zpid/","","","38000","","1200","46100","03/23/2023","1226","sqft","31","2500","sqft","15.2","2","1","","","No","No","","21 Lacona St","Pittsburgh","15210","PA","USA","40.405113","-79.98441"
"https://www.zillow.com/homedetails/5702-Hilltop-Ave-Verona-PA-15147/11450039_zpid/","","","40000","149100","1549","68100","03/23/2023","1593","sqft","25.11","5288","sqft","7.56","3","1.5","","","No","No","","5702 Hilltop Ave","Verona","15147","PA","USA","40.48353","-79.83526"
"https://www.zillow.com/homedetails/124-Locarna-Way-Pittsburgh-PA-15201/11613456_zpid/","","","40000","208200","1400","57100","03/22/2023","1197","sqft","33.42","1056","sqft","37.88","2","1","","","No","No","","124 Locarna Way","Pittsburgh","15201","PA","USA","40.47365","-79.96191"
"https://www.zillow.com/homedetails/827-Holland-Ave-Pittsburgh-PA-15221/11380227_zpid/","","","40000","","1350","13000","03/20/2023","1910","sqft","20.94","3092","sqft","12.94","4","1","","","No","No","","827 Holland Ave","Pittsburgh","15221","PA","USA","40.43848","-79.882515"
"https://www.zillow.com/homedetails/19-N-4th-St-Duquesne-PA-15110/11423262_zpid/","","","34697","35800","1394","22100","03/20/2023","1820","sqft","19.06","3000","sqft","11.57","3","2","","","No","No","","19 N 4th St","Duquesne","15110","PA","USA","40.37315","-79.84991"
"https://www.zillow.com/homedetails/1512-Mifflin-St-Homestead-PA-15120/11293174_zpid/","","","38000","","1291","20500","03/16/2023","1496","sqft","25.4","1400","sqft","27.14","3","1","","","No","No","","1512 Mifflin St","Homestead","15120","PA","USA","40.403137","-79.903656"
"https://www.zillow.com/homedetails/317-Rustic-Ave-Pittsburgh-PA-15210/11437176_zpid/","","","40000","125200","1399","47800","03/16/2023","1232","sqft","32.47","4125","sqft","9.7","3","1","","","No","No","","317 Rustic Ave","Pittsburgh","15210","PA","USA","40.40797","-79.98734"
"https://www.zillow.com/homedetails/1113-Wool-St-Duquesne-PA-15110/11459843_zpid/","","","37000","","925","28000","03/16/2023","1612","sqft","22.95","3275","sqft","11.3","2","1","","Kim Stotlemyer","No","No","","1113 Wool St","Duquesne","15110","PA","USA","40.361584","-79.84922"
"https://www.zillow.com/homedetails/2525-Columbia-Ave-Pittsburgh-PA-15218/11382835_zpid/","","","40000","41200","1150","56800","03/15/2023","973","sqft","41.11","3850","sqft","10.39","2","1","","","No","No","","2525 Columbia Ave","Pittsburgh","15218","PA","USA","40.422726","-79.8754"
"https://www.zillow.com/homedetails/349-Washington-St-Springdale-PA-15144/11564602_zpid/","","","40000","187500","1442","90000","03/15/2023","1355","sqft","29.52","6000","sqft","6.67","3","2","","","No","No","","349 Washington St","Springdale","15144","PA","USA","40.54227","-79.79099"
"https://www.zillow.com/homedetails/1140-12th-St-Mc-Kees-Rocks-PA-15136/11598846_zpid/","","","38000","115400","1114","44100","03/15/2023","1100","sqft","34.55","2500","sqft","15.2","3","1","","","No","No","","1140 12th St","Mc Kees Rocks","15136","PA","USA","40.47313","-80.08044"
"https://www.zillow.com/homedetails/307-Bausman-St-Pittsburgh-PA-15210/11316916_zpid/","","","35000","31500","1180","23300","03/10/2023","1176","sqft","29.76","2500.34","sqft","14","2","1","","Ryan Shedlock","No","No","","307 Bausman St","Pittsburgh","15210","PA","USA","40.414482","-79.99339"
"https://www.zillow.com/homedetails/7302-Everton-St-Pittsburgh-PA-15206/11338389_zpid/","","","37000","","1450","50200","03/10/2023","950","sqft","38.95","4748.04","sqft","7.79","3","1","","Libby Sosinski","No","No","","7302 Everton St","Pittsburgh","15206","PA","USA","40.462578","-79.89172"
"https://www.zillow.com/homedetails/1316-Woodlawn-Ave-Pittsburgh-PA-15221/11380483_zpid/","","","35000","162600","1307","15000","03/10/2023","1368","sqft","25.58","2720","sqft","12.87","3","1","","Annamarie Crelli","No","No","","1316 Woodlawn Ave","Pittsburgh","15221","PA","USA","40.43899","-79.87284"
"https://www.zillow.com/homedetails/1437-Grandview-Ave-Braddock-PA-15104/11457609_zpid/","","","35000","89300","1200","33700","03/10/2023","1247","sqft","28.07","2581","sqft","13.56","2","1.5","","","No","No","","1437 Grandview Ave","Braddock","15104","PA","USA","40.404194","-79.84186"
"https://www.zillow.com/homedetails/1821-Westmont-Ave-Pittsburgh-PA-15210/11557225_zpid/","","","35000","","1300","57500","03/07/2023","1469","sqft","23.83","4351.64","sqft","8.04","3","1","","Thom McDonell","No","No","","1821 Westmont Ave","Pittsburgh","15210","PA","USA","40.396427","-79.98845"
"https://www.zillow.com/homedetails/7-Esther-St-Pittsburgh-PA-15227/164565543_zpid/","","","35000","","1257","2500","03/07/2023","","","","1800","sqft","19.44","","","","","No","No","","7 Esther St","Pittsburgh","15227","PA","USA","40.38181","-79.987495"
"https://www.zillow.com/homedetails/703-Camp-Horne-Rd-Pittsburgh-PA-15237/11439460_zpid/","","","35000","36300","1320","58700","03/06/2023","1144","sqft","30.59","0.76","acres","46236.43","2","1","","","No","No","","703 Camp Horne Rd","Pittsburgh","15237","PA","USA","40.521957","-80.075745"
"https://www.zillow.com/homedetails/115-Ingram-Ave-Pittsburgh-PA-15205/11584627_zpid/","","","33500","34800","1289","53000","03/02/2023","751","sqft","44.61","3188","sqft","10.51","2","1","","","No","No","","115 Ingram Ave","Pittsburgh","15205","PA","USA","40.442524","-80.07027"
"https://www.zillow.com/homedetails/2209-Wilson-Ave-Pittsburgh-PA-15214/11505597_zpid/","","","40000","","1862","39000","02/24/2023","2124","sqft","18.83","3001.28","sqft","13.33","5","2","","Karl Owens","No","No","","2209 Wilson Ave","Pittsburgh","15214","PA","USA","40.465065","-80.012955"
"https://www.zillow.com/homedetails/240-Aster-St-Pittsburgh-PA-15235/2060034242_zpid/","","","35000","","1366","","02/24/2023","13978","sqft","2.5","1.01","acres","34653.47","","1","","Staci Rullo","No","No","","240 Aster St","Pittsburgh","15235","PA","USA","",""
"https://www.zillow.com/homedetails/534-Lobinger-Ave-Braddock-PA-15104/11421582_zpid/","","","36000","37300","1294","19000","02/23/2023","1440","sqft","25","2761","sqft","13.04","3","1","","","No","No","","534 Lobinger Ave","Braddock","15104","PA","USA","40.407955","-79.864136"
"https://www.zillow.com/homedetails/110-James-Ave-North-Versailles-PA-15137/11538278_zpid/","","","40000","95100","925","46400","02/23/2023","725","sqft","55.17","4000","sqft","10","2","1","","","No","No","","110 James Ave","North Versailles","15137","PA","USA","40.378838","-79.80931"
"https://www.zillow.com/homedetails/706-East-Dr-Clairton-PA-15025/11634523_zpid/","","","40000","145000","964","24800","02/23/2023","888","sqft","45.05","5000.69","sqft","8","2","2","","Adam Gleve","No","No","","706 East Dr","Clairton","15025","PA","USA","40.289547","-79.88884"
"https://www.zillow.com/homedetails/1904-Saint-Paul-St-Pittsburgh-PA-15203/11307324_zpid/","","","35000","","900","81900","02/22/2023","1409","sqft","24.84","2416","sqft","14.49","1","1","","","No","No","","1904 Saint Paul St","Pittsburgh","15203","PA","USA","40.42166","-79.98114"
"https://www.zillow.com/homedetails/418-2nd-Ave-Tarentum-PA-15084/11279901_zpid/","","","39000","40500","1408","27900","02/21/2023","1858","sqft","20.99","8102.16","sqft","4.81","5","3","","Jason Mazzei","No","No","","418 2nd Ave","Tarentum","15084","PA","USA","40.601448","-79.75018"
"https://www.zillow.com/homedetails/2902-Holbrook-St-Pittsburgh-PA-15212/11492706_zpid/","","","35000","36300","896","34200","02/21/2023","725","sqft","48.28","2140","sqft","16.36","1","1","","","No","No","","2902 Holbrook St","Pittsburgh","15212","PA","USA","40.47022","-80.03571"
"https://www.zillow.com/homedetails/445-Wall-Ave-Wall-PA-15148/11572558_zpid/","","","35000","36300","1250","40300","02/21/2023","1656","sqft","21.14","2565","sqft","13.65","4","1","","","No","No","","445 Wall Ave","Wall","15148","PA","USA","40.39405","-79.78846"
"https://www.zillow.com/homedetails/1331-Nobles-Ln-Pittsburgh-PA-15210/11556419_zpid/","","","40000","41600","1599","49800","02/17/2023","","","","0.26","acres","152671.76","3","2","","Gia Albanowski","No","No","","1331 Nobles Ln","Pittsburgh","15210","PA","USA","40.400326","-79.99754"
"https://www.zillow.com/homedetails/119-Cross-St-Buena-Vista-PA-15018/11286689_zpid/","","","40000","41600","916","36900","02/16/2023","1615","sqft","24.77","0.25","acres","159385.29","2","","","","No","No","","119 Cross St","Buena Vista","15018","PA","USA","40.260384","-79.78997"
"https://www.zillow.com/homedetails/1815-Babcock-Blvd-Pittsburgh-PA-15209/11371175_zpid/","","","37000","38500","1400","47500","02/15/2023","","","","2918.52","sqft","12.68","2","1","","Brad Templeton","No","No","","1815 Babcock Blvd","Pittsburgh","15209","PA","USA","40.50153","-79.98388"
"https://www.zillow.com/homedetails/3119-Bergman-St-Pittsburgh-PA-15204/11483134_zpid/","","","38000","39500","1402","30000","02/15/2023","2100","sqft","18.1","3000","sqft","12.67","4","1.5","","","No","No","","3119 Bergman St","Pittsburgh","15204","PA","USA","40.45708","-80.0556"
"https://www.zillow.com/homedetails/194-Superior-Ave-Pittsburgh-PA-15202/11405163_zpid/","","","40000","41700","2070","154600","02/14/2023","2414","sqft","16.57","7325","sqft","5.46","3","2","","","No","No","","194 Superior Ave","Pittsburgh","15202","PA","USA","40.512943","-80.09671"
"https://www.zillow.com/homedetails/579-Negley-Ave-Turtle-Creek-PA-15145/11495338_zpid/","","","34000","35400","1327","24600","02/13/2023","1382","sqft","24.6","3001.28","sqft","11.33","3","1","","John Pavlik","No","No","","579 Negley Ave","Turtle Creek","15145","PA","USA","40.41343","-79.82705"
"https://www.zillow.com/homedetails/128-North-Ave-Millvale-PA-15209/11610778_zpid/","","","39407","41100","1357","25100","02/13/2023","1344","sqft","29.32","1332","sqft","29.58","2","1","","","No","No","","128 North Ave","Millvale","15209","PA","USA","40.480488","-79.97522"
"https://www.zillow.com/homedetails/1247-Chartiers-Ave-Pittsburgh-PA-15220/11366561_zpid/","","","33500","177000","1400","58200","02/10/2023","2014","sqft","16.63","0.25","acres","133359.87","4","2","","Libby Sosinski","No","No","","1247 Chartiers Ave","Pittsburgh","15220","PA","USA","40.446674","-80.04454"
"https://www.zillow.com/homedetails/832-Munn-St-Homestead-PA-15120/11346258_zpid/","","","35000","36500","1411","36900","02/08/2023","1458","sqft","24.01","8529.05","sqft","4.1","5","1","","Libby Sosinski","No","No","","832 Munn St","Homestead","15120","PA","USA","40.40821","-79.8971"
"https://www.zillow.com/homedetails/408-Hochberg-Rd-Pittsburgh-PA-15235/11415486_zpid/","","","38000","83300","1383","48300","02/08/2023","984","sqft","38.62","8333.03","sqft","4.56","3","1","","Libby Sosinski","No","No","","408 Hochberg Rd","Pittsburgh","15235","PA","USA","40.465996","-79.8622"
"https://www.zillow.com/homedetails/1109-Gary-Ave-Clairton-PA-15025/11633922_zpid/","","","40000","106200","1441","56800","02/07/2023","1614","sqft","24.78","4212.25","sqft","9.5","4","2","","Brian Thatcher","No","No","","1109 Gary Ave","Clairton","15025","PA","USA","40.291187","-79.897"
"https://www.zillow.com/homedetails/301-Flack-St-Pittsburgh-PA-15210/11309051_zpid/","","","36000","162300","1599","23200","02/06/2023","1408","sqft","25.57","8999.5","sqft","4","3","3","","","No","No","","301 Flack St","Pittsburgh","15210","PA","USA","40.414497","-79.970505"
"https://www.zillow.com/homedetails/427-Dickson-Ave-Pittsburgh-PA-15202/11367826_zpid/","","","40000","216200","1250","133700","02/06/2023","1408","sqft","28.41","2147","sqft","18.63","3","1","","","No","No","","427 Dickson Ave","Pittsburgh","15202","PA","USA","40.509815","-80.081505"
"https://www.zillow.com/homedetails/3007-Jenny-Lind-St-McKeesport-PA-15132/11463114_zpid/","","","40000","85400","1308","35500","02/02/2023","1456","sqft","27.47","2875","sqft","13.91","4","1","","","No","No","","3007 Jenny Lind St","McKeesport","15132","PA","USA","40.33931","-79.84182"
"https://www.zillow.com/homedetails/1405-Harlow-St-Pittsburgh-PA-15204/11592448_zpid/","","","37474","185500","1664","91400","02/02/2023","1438","sqft","26.06","6473","sqft","5.79","3","1.5","","","No","No","","1405 Harlow St","Pittsburgh","15204","PA","USA","40.459484","-80.07165"
"https://www.zillow.com/homedetails/2744-Shelly-St-Pittsburgh-PA-15203/11307727_zpid/","","","35000","174300","1599","71900","02/01/2023","1125","sqft","31.11","2640","sqft","13.26","3","2","","","No","No","","2744 Shelly St","Pittsburgh","15203","PA","USA","40.42189","-79.967636"
"https://www.zillow.com/homedetails/134-Climax-St-Pittsburgh-PA-15210/11324040_zpid/","","","33560","","1575","29700","01/31/2023","1937","sqft","17.33","2556.97","sqft","13.12","3","1","","Libby Sosinski","No","No","","134 Climax St","Pittsburgh","15210","PA","USA","40.41918","-80.00436"
"https://www.zillow.com/homedetails/209-Copeland-St-Mc-Kees-Rocks-PA-15136/11594534_zpid/","","","38000","93400","1069","35000","01/31/2023","1360","sqft","27.94","","","","3","1","","","No","No","","209 Copeland St","Mc Kees Rocks","15136","PA","USA","40.46796","-80.07464"
"https://www.zillow.com/homedetails/150-Iron-Bridge-Ln-Tarentum-PA-15084/11319457_zpid/","","","35000","","1294","43100","01/30/2023","1399","sqft","25.02","0.69","acres","50990.68","2","2","","Michael Kusenko","No","No","","150 Iron Bridge Ln","Tarentum","15084","PA","USA","40.624386","-79.763916"
"https://www.zillow.com/homedetails/614-Hawkins-Ave-Braddock-PA-15104/11421896_zpid/","","","34000","35200","971","12000","01/27/2023","869","sqft","39.13","860","sqft","39.53","2","1","","Annamarie Crelli","No","No","","614 Hawkins Ave","Braddock","15104","PA","USA","40.405663","-79.862144"
"https://www.zillow.com/homedetails/3200-Rothpletz-St-Pittsburgh-PA-15212/11606083_zpid/","","","35000","","1332","47400","01/25/2023","1384","sqft","25.29","8115","sqft","4.31","3","1","","","No","No","","3200 Rothpletz St","Pittsburgh","15212","PA","USA","40.47596","-80.02672"
"https://www.zillow.com/homedetails/2711-Jenny-Lind-St-McKeesport-PA-15132/11463283_zpid/","","","40000","41800","933","23400","01/24/2023","1230","sqft","32.52","4356","sqft","9.18","2","1","","Matt O'Donnell","No","No","","2711 Jenny Lind St","McKeesport","15132","PA","USA","40.339165","-79.844765"
"https://www.zillow.com/homedetails/1012-Abdell-St-Pittsburgh-PA-15233/11611710_zpid/","","","40000","41800","1798","29100","01/24/2023","1536","sqft","26.04","967.03","sqft","41.36","3","1","","Libby Sosinski","No","No","","1012 Abdell St","Pittsburgh","15233","PA","USA","40.4527","-80.01985"
"https://www.zillow.com/homedetails/295-Evaline-St-Pittsburgh-PA-15235/11416384_zpid/","","","35000","132200","1106","56300","01/23/2023","1013","sqft","34.55","5000","sqft","7","2","1","","","No","No","","295 Evaline St","Pittsburgh","15235","PA","USA","40.459126","-79.85401"
"https://www.zillow.com/homedetails/6746-Simonton-St-Pittsburgh-PA-15208/164557708_zpid/","","","35000","","1419","34200","01/23/2023","","","","3549","sqft","9.86","","","","","No","No","","6746 Simonton St","Pittsburgh","15208","PA","USA","40.45554","-79.90812"
"https://www.zillow.com/homedetails/40-Linden-St-Natrona-Heights-PA-15065/11302513_zpid/","","","40000","41800","1134","44400","01/19/2023","","","","3023.06","sqft","13.23","2","2","","John Marzullo","No","No","","40 Linden St","Natrona Heights","15065","PA","USA","40.610134","-79.723915"
"https://www.zillow.com/homedetails/1922-Remington-Dr-Pittsburgh-PA-15221/11378791_zpid/","","","40000","","1550","35600","01/19/2023","1605","sqft","24.92","5118.3","sqft","7.82","3","2","","Ryan Shedlock","No","No","","1922 Remington Dr","Pittsburgh","15221","PA","USA","40.44981","-79.86886"
"https://www.zillow.com/homedetails/2455-S-Braddock-Ave-Pittsburgh-PA-15218/11383483_zpid/","","","40000","41800","1150","15000","01/19/2023","1040","sqft","38.46","3770","sqft","10.61","2","1","","","No","No","","2455 S Braddock Ave","Pittsburgh","15218","PA","USA","40.417217","-79.87835"
"https://www.zillow.com/homedetails/407-28th-St-McKeesport-PA-15132/11502352_zpid/","","","40000","","886","50800","01/19/2023","1408","sqft","28.41","6751.8","sqft","5.92","2","1","","Kevin Dolney","No","No","","407 28th St","McKeesport","15132","PA","USA","40.334038","-79.84562"
"https://www.zillow.com/homedetails/30-Mayflower-St-Pittsburgh-PA-15206/11623438_zpid/","","","36110","37900","1900","23000","01/17/2023","1918","sqft","18.83","2400","sqft","15.05","4","1.5","","","No","No","","30 Mayflower St","Pittsburgh","15206","PA","USA","40.46503","-79.917145"
"https://www.zillow.com/homedetails/238-Fleet-St-Braddock-PA-15104/11384294_zpid/","","","38000","","995","14200","01/13/2023","960","sqft","39.58","1999.4","sqft","19.01","2","1","","Francjuan Blake","No","No","","238 Fleet St","Braddock","15104","PA","USA","40.409164","-79.874794"
"https://www.zillow.com/homedetails/2332-Atmore-St-Pittsburgh-PA-15212/11499246_zpid/","","","40000","41900","1581","19700","01/13/2023","1540","sqft","25.97","1498.46","sqft","26.69","4","1","","Ryan Shedlock","No","No","","2332 Atmore St","Pittsburgh","15212","PA","USA","40.46317","-80.03029"
"https://www.zillow.com/homedetails/330-Whittington-Ln-Buena-Vista-PA-15018/11264705_zpid/","","","40000","","900","44100","01/11/2023","725","sqft","55.17","0.45","acres","89011.49","2","1","","","No","No","","330 Whittington Ln","Buena Vista","15018","PA","USA","40.277008","-79.80157"
"https://www.zillow.com/homedetails/1040-Haller-St-Pittsburgh-PA-15212/11269485_zpid/","","","35000","36800","1174","42600","01/11/2023","777","sqft","45.05","3210","sqft","10.9","2","1","","","No","No","","1040 Haller St","Pittsburgh","15212","PA","USA","40.4901","-80.03223"
"https://www.zillow.com/homedetails/66-Briggs-St-Pittsburgh-PA-15234/11650682_zpid/","","","40000","156400","1462","78200","01/10/2023","1500","sqft","26.67","4932","sqft","8.11","3","1","","","No","No","","66 Briggs St","Pittsburgh","15234","PA","USA","40.386612","-79.9996"
"https://www.zillow.com/homedetails/435-Catharine-St-Duquesne-PA-15110/11423845_zpid/","","","35000","36700","1200","14300","01/04/2023","1368","sqft","25.58","4660.92","sqft","7.51","2","1","","Richard Charles","No","No","","435 Catharine St","Duquesne","15110","PA","USA","40.368675","-79.85203"
"https://www.zillow.com/homedetails/102-Eads-St-Pittsburgh-PA-15210/11435102_zpid/","","","35000","154500","1550","24400","01/04/2023","2104","sqft","16.63","3998","sqft","8.75","3","2","","","No","No","","102 Eads St","Pittsburgh","15210","PA","USA","40.412647","-79.96835"
"https://www.zillow.com/homedetails/4105-Battleridge-Rd-Cuddy-PA-15031/59854999_zpid/","","","35000","","1555","27100","01/04/2023","885","sqft","39.55","0.55","acres","63177.52","2","1","","","No","No","","4105 Battleridge Rd","Cuddy","15031","PA","USA","40.350082","-80.165016"
"https://www.zillow.com/homedetails/536-Magazine-St-Carnegie-PA-15106/11254512_zpid/","","","40000","42000","1235","45100","01/03/2023","1024","sqft","39.06","1800","sqft","22.22","2","1","","","No","No","","536 Magazine St","Carnegie","15106","PA","USA","40.39881","-80.09571"
"https://www.zillow.com/homedetails/120-Amanda-Ave-Pittsburgh-PA-15210/11316477_zpid/","","","40000","42000","1198","26600","01/03/2023","1440","sqft","27.78","2600.53","sqft","15.38","3","1","","Paul Wang","No","No","","120 Amanda Ave","Pittsburgh","15210","PA","USA","40.417416","-79.98798"
"https://www.zillow.com/homedetails/1021-Locust-St-Braddock-PA-15104/11422051_zpid/","","","40000","42000","1298","44200","01/03/2023","648","sqft","61.73","10136","sqft","3.95","3","2","","","No","No","","1021 Locust St","Braddock","15104","PA","USA","40.406513","-79.8574"
"https://www.zillow.com/homedetails/413-Moore-Ave-Pittsburgh-PA-15210/11435576_zpid/","","","40000","42000","1317","23500","01/03/2023","1576","sqft","25.38","3184.24","sqft","12.56","4","1","","Paul Wang","No","No","","413 Moore Ave","Pittsburgh","15210","PA","USA","40.41227","-79.99567"
"https://www.zillow.com/homedetails/101-102-Eads-St-Pittsburgh-PA-15210/2062001577_zpid/","","","35000","","2323","","01/03/2023","2104","sqft","16.63","3920.4","sqft","8.93","5","3","","Michael Wicker","No","No","","101-102 Eads St","Pittsburgh","15210","PA","USA","40.412506","-79.96845"
"https://www.zillow.com/homedetails/59-Sycamore-St-Etna-PA-15223/11333350_zpid/","","","33363","35000","1357","42500","12/30/2022","1296","sqft","25.74","2099.59","sqft","15.89","2","1","","","No","No","","59 Sycamore St","Etna","15223","PA","USA","40.49539","-79.94293"
"https://www.zillow.com/homedetails/3026-Zephyr-Ave-Pittsburgh-PA-15204/11482986_zpid/","","","36800","80100","1400","45100","12/30/2022","","","","3746.16","sqft","9.82","3","2","","Diane Wheeler","No","No","","3026 Zephyr Ave","Pittsburgh","15204","PA","USA","40.457092","-80.05389"
"https://www.zillow.com/homedetails/906-Montooth-St-Pittsburgh-PA-15210/11324692_zpid/","","","35000","36900","1529","28600","12/29/2022","1738","sqft","20.14","3001.28","sqft","11.66","3","1","","Jennifer Cash Wade","No","No","","906 Montooth St","Pittsburgh","15210","PA","USA","40.41491","-80.00609"
"https://www.zillow.com/homedetails/137-W-Miller-Ave-Homestead-PA-15120/11294999_zpid/","","","36000","32600","1299","53400","12/27/2022","1408","sqft","25.57","2500.34","sqft","14.4","3","1","","Tina Nobers","No","No","","137 W Miller Ave","Homestead","15120","PA","USA","40.387558","-79.90413"
"https://www.zillow.com/homedetails/377-Highland-Ave-Turtle-Creek-PA-15145/11495541_zpid/","","","40000","42000","1320","33000","12/27/2022","1808","sqft","22.12","2500.34","sqft","16","4","2","","Gina Giampietro","No","No","","377 Highland Ave","Turtle Creek","15145","PA","USA","40.409126","-79.82863"
"https://www.zillow.com/homedetails/413-W-10th-Ave-Tarentum-PA-15084/11278947_zpid/","","","35500","37300","900","26400","12/23/2022","1216","sqft","29.19","2700","sqft","13.15","2","1","","","No","No","","413 W 10th Ave","Tarentum","15084","PA","USA","40.599632","-79.76705"
"https://www.zillow.com/homedetails/628-4th-St-Braddock-PA-15104/11384927_zpid/","","","35000","36800","1370","8000","12/20/2022","2150","sqft","16.28","2880","sqft","12.15","5","1","","","No","No","","628 4th St","Braddock","15104","PA","USA","40.40796","-79.86782"
"https://www.zillow.com/homedetails/111-Grimes-Ave-Pittsburgh-PA-15210/11435731_zpid/","","","38500","40500","1031","17600","12/19/2022","990","sqft","38.89","1899.22","sqft","20.27","2","1","","Paul Bergman","No","No","","111 Grimes Ave","Pittsburgh","15210","PA","USA","40.41358","-79.99312"
"https://www.zillow.com/homedetails/211-Moye-Pl-Pittsburgh-PA-15210/11317164_zpid/","","","36000","","1400","9000","12/16/2022","1776","sqft","20.27","3693.89","sqft","9.75","3","2","","Hope Harmotto","No","No","","211 Moye Pl","Pittsburgh","15210","PA","USA","40.415516","-79.9854"
"https://www.zillow.com/homedetails/509-Fisher-St-Pittsburgh-PA-15210/11434965_zpid/","","","34800","137300","1391","29500","12/14/2022","1440","sqft","24.17","5000","sqft","6.96","3","1","","John Geisler","No","No","","509 Fisher St","Pittsburgh","15210","PA","USA","40.411472","-79.97911"
"https://www.zillow.com/homedetails/534-Idaho-Ave-Verona-PA-15147/11490492_zpid/","","","40000","42100","1118","61200","12/14/2022","832","sqft","48.08","6098","sqft","6.56","2","1","","","No","No","","534 Idaho Ave","Verona","15147","PA","USA","40.494247","-79.81726"
"https://www.zillow.com/homedetails/N-Star-Rd-Imperial-PA-15126/246259828_zpid/","","","35000","","1069","37900","12/14/2022","","","","3.25","acres","10769.23","","","","","No","No","","N Star Rd","Imperial","15126","PA","USA","40.4474","-80.25246"
"https://www.zillow.com/homedetails/1310-Sterling-St-Pittsburgh-PA-15203/11307916_zpid/","","","35000","130100","1515","86400","12/13/2022","1218","sqft","28.74","3478","sqft","10.06","3","1","","","No","No","","1310 Sterling St","Pittsburgh","15203","PA","USA","40.41962","-79.97443"
"https://www.zillow.com/homedetails/629-Hamil-Rd-Verona-PA-15147/11490317_zpid/","","","34000","35900","1125","55100","12/12/2022","1072","sqft","31.72","7500","sqft","4.53","2","1","","","No","No","","629 Hamil Rd","Verona","15147","PA","USA","40.496452","-79.81899"
"https://www.zillow.com/homedetails/416-Newkirk-St-Carnegie-PA-15106/11255220_zpid/","","","40000","177700","1300","86700","12/06/2022","1426","sqft","28.05","3750","sqft","10.67","2","1.5","","","No","No","","416 Newkirk St","Carnegie","15106","PA","USA","40.413612","-80.088326"
"https://www.zillow.com/homedetails/1229-Packer-St-McKeesport-PA-15132/11461711_zpid/","","","37100","39100","1150","17000","12/05/2022","1122","sqft","33.07","22","acres","1686.36","2","1.5","","","No","No","","1229 Packer St","McKeesport","15132","PA","USA","40.344532","-79.84741"
"https://www.zillow.com/homedetails/67-Vassar-Ave-Pittsburgh-PA-15229/11405704_zpid/","","","40000","42100","1302","76100","12/02/2022","871","sqft","45.92","1.01","acres","39525.44","2","1","","","No","No","","67 Vassar Ave","Pittsburgh","15229","PA","USA","40.514923","-80.050545"
"https://www.zillow.com/homedetails/6393-Saltsburg-Rd-Pittsburgh-PA-15235/164659965_zpid/","","","37000","","1200","19200","12/02/2022","","","","1.91","acres","19371.63","","","","","No","No","","6393 Saltsburg Rd","Pittsburgh","15235","PA","USA","40.48415","-79.81042"
"https://www.zillow.com/homedetails/0-Spring-Run-Road-Ext-Coraopolis-PA-15108/2064251271_zpid/","","","40000","","1326","","12/02/2022","","","","","","","","","","","No","No","","0 Spring Run Road Ext","Coraopolis","15108","PA","USA","",""
"https://www.zillow.com/homedetails/1140-Pittsburgh-McKeesport-Blvd-West-Mifflin-PA-15122/11390371_zpid/","","","36000","","1200","71400","11/30/2022","1212","sqft","29.7","0.34","acres","106666.67","2","1","","Tina Nobers","No","No","","1140 Pittsburgh McKeesport Blvd","West Mifflin","15122","PA","USA","40.360184","-79.90536"
"https://www.zillow.com/homedetails/221-Ames-St-Pittsburgh-PA-15214/11271055_zpid/","","","36500","38600","1348","74100","11/28/2022","1474","sqft","24.76","7801.6","sqft","4.68","2","1","","Tina Nobers","No","No","","221 Ames St","Pittsburgh","15214","PA","USA","40.483692","-80.00562"
"https://www.zillow.com/homedetails/1022-2nd-Ave-Coraopolis-PA-15108/11438324_zpid/","","","37000","","1250","33600","11/23/2022","1329","sqft","27.84","2252.05","sqft","16.43","2","1","","Tina Nobers","No","No","","1022 2nd Ave","Coraopolis","15108","PA","USA","40.518906","-80.162025"
"https://www.zillow.com/homedetails/1116-Daisy-Ln-Crescent-PA-15046/11586999_zpid/","","","35000","","1057","63600","11/23/2022","768","sqft","45.57","0.41","acres","84521.57","2","1","","","No","No","","1116 Daisy Ln","Crescent","15046","PA","USA","40.564407","-80.23169"
"https://www.zillow.com/homedetails/510-Holmes-St-Pittsburgh-PA-15221/11341235_zpid/","","","35000","37000","1350","57600","11/22/2022","1955","sqft","17.9","3293.14","sqft","10.63","4","1","","Elise Bickel","No","No","","510 Holmes St","Pittsburgh","15221","PA","USA","40.447285","-79.88505"
"https://www.zillow.com/homedetails/317-Archer-St-McKeesport-PA-15132/11426479_zpid/","","","36000","37900","1314","17200","11/22/2022","2100","sqft","17.14","6107.11","sqft","5.89","3","2","","Christopher Foster","No","No","","317 Archer St","McKeesport","15132","PA","USA","40.347683","-79.87456"
"https://www.zillow.com/homedetails/2614-Jenny-Lind-St-McKeesport-PA-15132/11463745_zpid/","","","34000","","1235","34100","11/22/2022","1522","sqft","22.34","8050","sqft","4.22","4","2","","","No","No","","2614 Jenny Lind St","McKeesport","15132","PA","USA","40.338646","-79.84562"
"https://www.zillow.com/homedetails/365-W-13th-Ave-Homestead-PA-15120/11293500_zpid/","","","35956","","1200","29000","11/18/2022","1408","sqft","25.54","1650","sqft","21.79","2","1","","","No","No","","365 W 13th Ave","Homestead","15120","PA","USA","40.400475","-79.91203"
"https://www.zillow.com/homedetails/1307-Packer-Ave-Braddock-PA-15104/11422562_zpid/","","","34000","35800","998","1000","11/18/2022","","","","2500.34","sqft","13.6","2","1","","Edward Werner","No","No","","1307 Packer Ave","Braddock","15104","PA","USA","40.399063","-79.85761"
"https://www.zillow.com/homedetails/25-Goldstrom-Ave-Dravosburg-PA-15034/11426592_zpid/","","","35000","","1268","49200","11/18/2022","1664","sqft","21.03","10831","sqft","3.23","3","1","","","No","No","","25 Goldstrom Ave","Dravosburg","15034","PA","USA","40.353405","-79.88923"
"https://www.zillow.com/homedetails/2055-Swissvale-Ave-Pittsburgh-PA-15221/11378285_zpid/","","","40000","121800","1501","56700","11/17/2022","1377","sqft","29.05","5775","sqft","6.93","3","1.5","","","No","No","","2055 Swissvale Ave","Pittsburgh","15221","PA","USA","40.450935","-79.87414"
"https://www.zillow.com/homedetails/330-Eicher-Rd-Pittsburgh-PA-15237/11404940_zpid/","","","35000","","1932","98500","11/17/2022","1960","sqft","17.86","0.46","acres","76020.85","4","2","","Amanda Salem","No","No","","330 Eicher Rd","Pittsburgh","15237","PA","USA","40.51633","-80.09566"
"https://www.zillow.com/homedetails/2620-Leland-St-Pittsburgh-PA-15214/11505020_zpid/","","","35000","36900","1242","15000","11/16/2022","1216","sqft","28.78","2500.34","sqft","14","3","1","","Michael Reed","No","No","","2620 Leland St","Pittsburgh","15214","PA","USA","40.471188","-80.012146"
"https://www.zillow.com/homedetails/203-University-St-Verona-PA-15147/11567311_zpid/","","","39000","","1364","64000","11/16/2022","1186","sqft","32.88","4800.31","sqft","8.12","3","1","","Dana Rowell","No","No","","203 University St","Verona","15147","PA","USA","40.4994","-79.79424"
"https://www.zillow.com/homedetails/3925-Center-Ave-Homestead-PA-15120/11295828_zpid/","","","39000","121200","1464","38300","11/15/2022","1258","sqft","31","3000","sqft","13","3","1.5","","","No","No","","3925 Center Ave","Homestead","15120","PA","USA","40.382275","-79.90301"
"https://www.zillow.com/homedetails/2410-High-St-Natrona-Heights-PA-15065/11332458_zpid/","","","35000","36900","1066","73800","11/15/2022","1220","sqft","28.69","7500","sqft","4.67","3","1","","","No","No","","2410 High St","Natrona Heights","15065","PA","USA","40.63205","-79.70997"
"https://www.zillow.com/homedetails/711-Wallace-Ave-Pittsburgh-PA-15221/11341616_zpid/","","","38500","40600","1870","32300","11/14/2022","2230","sqft","17.26","4092","sqft","9.41","5","2","","","No","No","","711 Wallace Ave","Pittsburgh","15221","PA","USA","40.444504","-79.883606"
"https://www.zillow.com/homedetails/1001-Grandview-Ave-McKnight-PA-15237/11483994_zpid/","","","40000","42200","1366","61000","11/14/2022","1490","sqft","26.85","7469","sqft","5.36","2","1","","","No","No","","1001 Grandview Ave","Mcknight","15237","PA","USA","40.53689","-80.0314"
"https://www.zillow.com/homedetails/435-Eleanor-St-Pitcairn-PA-15140/11602181_zpid/","","","38050","124800","1250","56700","11/10/2022","1770","sqft","21.5","1955.84","sqft","19.45","4","1","","John Smithheisler","No","No","","435 Eleanor St","Pitcairn","15140","PA","USA","40.403538","-79.779526"
"https://www.zillow.com/homedetails/1116-3rd-Ave-Brackenridge-PA-15014/11280564_zpid/","","","36500","38500","1150","41900","11/07/2022","1620","sqft","22.53","3206","sqft","11.38","4","1.5","","","No","No","","1116 3rd Ave","Brackenridge","15014","PA","USA","40.60682","-79.735794"
"https://www.zillow.com/homedetails/268-Bramble-St-Verona-PA-15147/11375220_zpid/","","","40000","42200","1400","9000","11/07/2022","988","sqft","40.49","4225","sqft","9.47","3","1","","","No","No","","268 Bramble St","Verona","15147","PA","USA","40.47512","-79.86888"
"https://www.zillow.com/homedetails/3118-Grover-Ave-McKeesport-PA-15132/11462773_zpid/","","","33500","","1200","20000","11/04/2022","1300","sqft","25.77","2500","sqft","13.4","3","1","","","No","No","","3118 Grover Ave","McKeesport","15132","PA","USA","40.341385","-79.84036"
"https://www.zillow.com/homedetails/191-Oxford-Dr-McKeesport-PA-15132/11501060_zpid/","","","36000","72200","900","20700","11/04/2022","828","sqft","43.48","2384","sqft","15.1","2","1","","","No","No","","191 Oxford Dr","McKeesport","15132","PA","USA","40.346466","-79.83025"
"https://www.zillow.com/homedetails/3118-Grover-St-McKeesport-PA-15132/2066528565_zpid/","","","33500","35400","1200","","11/04/2022","1300","sqft","25.77","2500.34","sqft","13.4","3","1","","Libby Sosinski","No","No","","3118 Grover St","McKeesport","15132","PA","USA","40.34132","-79.84036"
"https://www.zillow.com/homedetails/159-Penn-Ave-Pittsburgh-PA-15210/11436060_zpid/","","","35000","","1419","45400","11/02/2022","1370","sqft","25.55","4644","sqft","7.54","3","1.5","","","No","No","","159 Penn Ave","Pittsburgh","15210","PA","USA","40.41387","-79.9851"
"https://www.zillow.com/homedetails/631-Summit-Ave-Glassport-PA-15045/11543466_zpid/","","","35000","37000","1164","52100","11/01/2022","1664","sqft","21.03","0.33","acres","105065.12","3","","","","No","No","","631 Summit Ave","Glassport","15045","PA","USA","40.328808","-79.88569"
"https://www.zillow.com/homedetails/226-Birmingham-Ave-Pittsburgh-PA-15210/11556327_zpid/","","","40000","42200","1392","46500","10/31/2022","1264","sqft","31.65","3545","sqft","11.28","3","1","","","No","No","","226 Birmingham Ave","Pittsburgh","15210","PA","USA","40.402374","-79.98494"
"https://www.zillow.com/homedetails/1632-Falck-Ave-Pittsburgh-PA-15212/11603958_zpid/","","","40000","","1264","59400","10/31/2022","1402","sqft","28.53","3288.78","sqft","12.16","4","1","","","No","No","","1632 Falck Ave","Pittsburgh","15212","PA","USA","40.47828","-80.040146"
"https://www.zillow.com/homedetails/41-Noster-St-Pittsburgh-PA-15212/11511758_zpid/","","","35000","37000","1477","41900","10/27/2022","1320","sqft","26.52","3600","sqft","9.72","3","1","","","No","No","","41 Noster St","Pittsburgh","15212","PA","USA","40.464302","-79.98984"
"https://www.zillow.com/homedetails/4097-Brownsville-Rd-South-Park-PA-15129/11253145_zpid/","","","40000","185300","1623","70600","10/25/2022","1158","sqft","34.54","9067","sqft","4.41","3","1","","","No","No","","4097 Brownsville Rd","South Park","15129","PA","USA","40.2863","-80.01931"
"https://www.zillow.com/homedetails/139-Zara-St-Pittsburgh-PA-15210/11317037_zpid/","","","35000","139900","1394","25100","10/24/2022","1648","sqft","21.24","3001.28","sqft","11.66","4","1","","Paul Wang","No","No","","139 Zara St","Pittsburgh","15210","PA","USA","40.41606","-79.99013"
"https://www.zillow.com/homedetails/3253-Ashlyn-St-Pittsburgh-PA-15204/11482574_zpid/","","","40000","","1250","47600","10/24/2022","1768","sqft","22.62","2500","sqft","16","3","1","","","No","No","","3253 Ashlyn St","Pittsburgh","15204","PA","USA","40.458145","-80.05514"
"https://www.zillow.com/homedetails/1302-Malden-St-Pittsburgh-PA-15212/11604276_zpid/","","","40000","","1550","53000","10/24/2022","1040","sqft","38.46","","","","3","2","","Jeff Earley","No","No","","1302 Malden St","Pittsburgh","15212","PA","USA","40.47472","-80.033005"
"https://www.zillow.com/homedetails/2123-Forbes-Ave-Pittsburgh-PA-15219/11273407_zpid/","","","40000","","1746","2900","10/21/2022","2552","sqft","15.67","2216","sqft","18.05","5","1","","","No","No","","2123 Forbes Ave","Pittsburgh","15219","PA","USA","40.43746","-79.97502"
"https://www.zillow.com/homedetails/334-Vine-St-Clairton-PA-15025/11637050_zpid/","","","37500","113200","999","54000","10/21/2022","754","sqft","49.73","0.66","acres","56878.51","2","1","","Justin Riapos","No","No","","334 Vine St","Clairton","15025","PA","USA","40.29373","-79.92059"
"https://www.zillow.com/homedetails/3235-Circle-Dr-Pittsburgh-PA-15227/11302997_zpid/","","","35000","37000","1429","90300","10/20/2022","960","sqft","36.46","5900","sqft","5.93","3","1.5","","","No","No","","3235 Circle Dr","Pittsburgh","15227","PA","USA","40.380955","-79.96515"
"https://www.zillow.com/homedetails/1109-Steuben-St-Pittsburgh-PA-15220/11362061_zpid/","","","40000","","1316","24600","10/19/2022","1009","sqft","39.64","4525.88","sqft","8.84","2","1","","Tony Kennedy","No","No","","1109 Steuben St","Pittsburgh","15220","PA","USA","40.441563","-80.04554"
"https://www.zillow.com/homedetails/1602-Haymaker-St-Buena-Vista-PA-15018/11310655_zpid/","","","35000","217800","1150","66500","10/17/2022","1780","sqft","19.66","5732.5","sqft","6.11","3","3","","","No","No","","1602 Haymaker St","Buena Vista","15018","PA","USA","40.250458","-79.80071"
"https://www.zillow.com/homedetails/Duquesne-Ave-West-Mifflin-PA-15122/164584884_zpid/","","","37000","","1325","51000","10/17/2022","","","","7.07","acres","5233.38","","","","","No","No","","Duquesne Ave","West mifflin","15122","PA","USA","40.37079","-79.892296"
"https://www.zillow.com/homedetails/938-Burtner-Rd-Natrona-Heights-PA-15065/245979924_zpid/","","","40000","42300","898","43400","10/14/2022","","","","0.27","acres","148920.33","2","1","","Laura Negley","No","No","","938 Burtner Rd","Natrona Heights","15065","PA","USA","40.630154","-79.71532"
"https://www.zillow.com/homedetails/1429-Elm-St-Pittsburgh-PA-15221/11378943_zpid/","","","38000","40200","1549","30800","10/13/2022","1568","sqft","24.23","3998.81","sqft","9.5","4","2","","Paul Wang","No","No","","1429 Elm St","Pittsburgh","15221","PA","USA","40.447575","-79.88169"
"https://www.zillow.com/homedetails/143-Orchard-St-Mc-Kees-Rocks-PA-15136/11267839_zpid/","","","33500","35400","1114","20000","10/12/2022","1040","sqft","32.21","1738.04","sqft","19.27","3","1","","Roberta Allen","No","No","","143 Orchard St","Mc Kees Rocks","15136","PA","USA","40.48253","-80.064735"
"https://www.zillow.com/homedetails/627-Dunmore-St-Pittsburgh-PA-15206/11284222_zpid/","","","35000","","1097","15200","10/11/2022","928","sqft","37.72","2000","sqft","17.5","2","1","","","No","No","","627 Dunmore St","Pittsburgh","15206","PA","USA","40.470657","-79.902405"
"https://www.zillow.com/homedetails/14-Letsche-St-Pittsburgh-PA-15214/11506081_zpid/","","","36500","","1374","43700","10/11/2022","1470","sqft","24.83","2400","sqft","15.21","2","1","","","No","No","","14 Letsche St","Pittsburgh","15214","PA","USA","40.46247","-80.007965"
"https://www.zillow.com/homedetails/440-Wall-Ave-Wall-PA-15148/11572506_zpid/","","","35000","37000","1200","44900","10/11/2022","1570","sqft","22.29","2918","sqft","11.99","3","1.5","","","No","No","","440 Wall Ave","Wall","15148","PA","USA","40.39359","-79.78953"
"https://www.zillow.com/homedetails/1418-Reuben-St-Pittsburgh-PA-15212/11604194_zpid/","","","39900","","1025","47000","10/10/2022","1240","sqft","32.18","2086.52","sqft","19.12","2","1","","Libby Sosinski","No","No","","1418 Reuben St","Pittsburgh","15212","PA","USA","40.476044","-80.03477"
"https://www.zillow.com/homedetails/207-Congress-St-White-Oak-PA-15131/11499945_zpid/","","","35000","37000","1128","54400","10/07/2022","1296","sqft","27.01","5227.2","sqft","6.7","3","1","","Amber Agate","No","No","","207 Congress St","White Oak","15131","PA","USA","40.356667","-79.82286"
"https://www.zillow.com/homedetails/2531-New-England-Rd-West-Mifflin-PA-15122/11504879_zpid/","","","35000","","1340","95700","10/06/2022","2356","sqft","14.86","3.86","acres","9067.36","3","1","","Harriett Koedel","No","No","","2531 New England Rd","West Mifflin","15122","PA","USA","40.332428","-79.92276"
"https://www.zillow.com/homedetails/330-Cline-St-East-Pittsburgh-PA-15112/11456673_zpid/","","","34000","35900","1145","10000","10/03/2022","912","sqft","37.28","0.51","acres","66173.61","3","1","","Brett Chupinka","No","No","","330 Cline St","East Pittsburgh","15112","PA","USA","40.41574","-79.83651"
"https://www.zillow.com/homedetails/120-Murrayhill-Ave-Cheswick-PA-15024/11564476_zpid/","","","40000","42300","1535","49400","10/03/2022","1248","sqft","32.05","8712","sqft","4.59","3","2","","Justin Baker","No","No","","120 Murrayhill Ave","Cheswick","15024","PA","USA","40.541977","-79.79557"
"https://www.zillow.com/homedetails/700-11th-St-Pitcairn-PA-15140/11601516_zpid/","","","38000","40200","1749","73200","10/03/2022","1170","sqft","32.48","0.27","acres","140740.74","3","2","","Jeff Weiner","No","No","","700 11th St","Pitcairn","15140","PA","USA","40.407906","-79.77247"
"https://www.zillow.com/homedetails/2624-Library-Rd-Pittsburgh-PA-15234/11306836_zpid/","","","40000","106200","1099","58300","09/27/2022","874","sqft","45.77","5707","sqft","7.01","2","1","","","No","No","","2624 Library Rd","Pittsburgh","15234","PA","USA","40.380215","-80.00067"
"https://www.zillow.com/homedetails/261-Welsh-Ave-Wilmerding-PA-15148/11537092_zpid/","","","35000","","1235","28600","09/27/2022","1526","sqft","22.94","5200","sqft","6.73","3","1","","","No","No","","261 Welsh Ave","Wilmerding","15148","PA","USA","40.391384","-79.80597"
"https://www.zillow.com/homedetails/6634-Butler-St-Pittsburgh-PA-15206/11277805_zpid/","","","37500","69900","1281","52700","09/26/2022","1056","sqft","35.51","2678.94","sqft","14","4","1","","Paul Wang","No","No","","6634 Butler St","Pittsburgh","15206","PA","USA","40.489285","-79.92897"
"https://www.zillow.com/homedetails/7807-Kelly-St-Pittsburgh-PA-15208/11340457_zpid/","","","40000","","1395","11800","09/23/2022","1288","sqft","31.06","2746","sqft","14.57","3","1","","","No","No","","7807 Kelly St","Pittsburgh","15208","PA","USA","40.453365","-79.8867"
"https://www.zillow.com/homedetails/2242-Manor-Ave-Pittsburgh-PA-15218/11383077_zpid/","","","40000","116900","1389","20000","09/23/2022","1220","sqft","32.79","2625","sqft","15.24","3","1","","","No","No","","2242 Manor Ave","Pittsburgh","15218","PA","USA","40.420486","-79.882095"
"https://www.zillow.com/homedetails/317-Jacob-St-Pittsburgh-PA-15210/11436780_zpid/","","","35000","36900","1173","29300","09/23/2022","990","sqft","35.35","3000","sqft","11.67","2","1","","","No","No","","317 Jacob St","Pittsburgh","15210","PA","USA","40.410748","-79.983116"
"https://www.zillow.com/homedetails/800-Church-Street-Ext-Turtle-Creek-PA-15145/11495250_zpid/","","","35000","36900","1540","32900","09/23/2022","2050","sqft","17.07","2178","sqft","16.07","3","2","","Christopher Passaro","No","No","","800 Church Street Ext","Turtle Creek","15145","PA","USA","40.41578","-79.822685"
"https://www.zillow.com/homedetails/2374-Linden-Dr-Allison-Park-PA-15101/11591641_zpid/","","","40000","307400","2028","154400","09/22/2022","1648","sqft","24.27","0.29","acres","136733.89","3","2","","","No","No","","2374 Linden Dr","Allison Park","15101","PA","USA","40.563072","-79.97321"
"https://www.zillow.com/homedetails/313-Mathews-Ave-Pittsburgh-PA-15210/11435638_zpid/","","","35000","","1050","33700","09/19/2022","960","sqft","36.46","3920.4","sqft","8.93","2","1","","Kathy Armstrong","No","No","","313 Mathews Ave","Pittsburgh","15210","PA","USA","40.41366","-79.993546"
"https://www.zillow.com/homedetails/326-Reifert-St-Pittsburgh-PA-15210/11436391_zpid/","","","40000","83000","1164","37600","09/19/2022","1064","sqft","37.59","2800","sqft","14.29","2","1","","","No","No","","326 Reifert St","Pittsburgh","15210","PA","USA","40.409035","-79.99523"
"https://www.zillow.com/homedetails/1510-Centennial-St-McKeesport-PA-15132/11464487_zpid/","","","34000","36000","1095","39100","09/16/2022","1770","sqft","19.21","3057.91","sqft","11.12","3","1","","Kelly Chess","No","No","","1510 Centennial St","McKeesport","15132","PA","USA","40.34275","-79.85659"
"https://www.zillow.com/homedetails/710-Union-Ave-McKeesport-PA-15132/11425302_zpid/","","","40000","","1200","33300","09/14/2022","1476","sqft","27.1","4656","sqft","8.59","3","2","","","No","No","","710 Union Ave","McKeesport","15132","PA","USA","40.34939","-79.85522"
"https://www.zillow.com/homedetails/1429-Methyl-St-Pittsburgh-PA-15216/11444720_zpid/","","","40000","158300","1595","53700","09/14/2022","2016","sqft","19.84","3000","sqft","13.33","4","1.5","","","No","No","","1429 Methyl St","Pittsburgh","15216","PA","USA","40.413082","-80.02552"
"https://www.zillow.com/homedetails/362-Cline-St-East-Pittsburgh-PA-15112/11456681_zpid/","","","40000","","834","36000","09/12/2022","1008","sqft","39.68","0.28","acres","145200","1","1","","","No","No","","362 Cline St","East Pittsburgh","15112","PA","USA","40.41469","-79.83405"
"https://www.zillow.com/homedetails/222-Kline-Ave-North-Versailles-PA-15137/11496930_zpid/","","","34000","36000","995","24500","09/12/2022","","","","","","","2","1","","Vicki Rutherford","No","No","","222 Kline Ave","North Versailles","15137","PA","USA","40.396675","-79.81955"
"https://www.zillow.com/homedetails/5971-Poketa-Rd-Verona-PA-15147/11490979_zpid/","","","36000","","1061","29000","09/09/2022","869","sqft","41.43","5401","sqft","6.67","2","1","","","No","No","","5971 Poketa Rd","Verona","15147","PA","USA","40.48519","-79.83141"
"https://www.zillow.com/homedetails/339-Russellwood-Ave-Mc-Kees-Rocks-PA-15136/11594811_zpid/","","","35001","36900","1400","50400","09/09/2022","2300","sqft","15.22","2613.6","sqft","13.39","4","2","","Robert Moncavage","No","No","","339 Russellwood Ave","Mc Kees Rocks","15136","PA","USA","40.46848","-80.06987"
"https://www.zillow.com/homedetails/115-Elena-Ct-Pittsburgh-PA-15201/164695472_zpid/","","","35000","","1588","23000","09/08/2022","","","","5073","sqft","6.9","","","","","No","No","","115 Elena Ct","Pittsburgh","15201","PA","USA","40.4783","-79.936775"
"https://www.zillow.com/homedetails/1340-Pritchard-St-Pittsburgh-PA-15204/11479027_zpid/","","","35000","36900","1314","25000","09/07/2022","2400","sqft","14.58","3000","sqft","11.67","3","1","","","No","No","","1340 Pritchard St","Pittsburgh","15204","PA","USA","40.452255","-80.065025"
"https://www.zillow.com/homedetails/Gail-Dr-Pittsburgh-PA-15237/164365919_zpid/","","","34697","","1634","22100","09/07/2022","","","","0.68","acres","50825.62","","","","","No","No","","Gail Dr","Pittsburgh","15237","PA","USA","40.522774","-79.99275"
"https://www.zillow.com/homedetails/337-W-12th-Ave-Homestead-PA-15120/11293031_zpid/","","","35000","37000","1200","43700","08/31/2022","1728","sqft","20.25","3143","sqft","11.14","2","1","","","No","No","","337 W 12th Ave","Homestead","15120","PA","USA","40.401794","-79.911835"
"https://www.zillow.com/homedetails/917-Union-Ave-McKeesport-PA-15132/11425676_zpid/","","","35000","36900","859","30600","08/29/2022","1312","sqft","26.68","3449.95","sqft","10.15","2","1","","Shane Kunkle","No","No","","917 Union Ave","McKeesport","15132","PA","USA","40.34719","-79.854485"
"https://www.zillow.com/homedetails/3319-Crestview-Dr-North-Versailles-PA-15137/11497547_zpid/","","","40000","108600","1305","58900","08/24/2022","1167","sqft","34.28","6270","sqft","6.38","4","1","","","No","No","","3319 Crestview Dr","North Versailles","15137","PA","USA","40.37621","-79.8241"
"https://www.zillow.com/homedetails/415-Ohio-Ave-Glassport-PA-15045/11504635_zpid/","","","37000","","1366","25000","08/24/2022","1963","sqft","18.85","3001.28","sqft","12.33","3","3","","Justin Riapos","No","No","","415 Ohio Ave","Glassport","15045","PA","USA","40.328583","-79.89123"
"https://www.zillow.com/homedetails/1111-Soles-St-McKeesport-PA-15132/11461255_zpid/","","","35000","37000","1150","37900","08/19/2022","","","","","","","4","1","","Daniel Fulmer","No","No","","1111 Soles St","McKeesport","15132","PA","USA","40.34621","-79.848305"
"https://www.zillow.com/homedetails/40-Millerstown-Culmerville-Rd-Tarentum-PA-15084/11364172_zpid/","","","40000","42100","1491","70800","08/17/2022","1236","sqft","32.36","0.49","acres","82018.45","3","1","","","No","No","","40 Millerstown Culmerville Rd","Tarentum","15084","PA","USA","40.65064","-79.83324"
"https://www.zillow.com/homedetails/816-Ernie-St-Pittsburgh-PA-15220/11367144_zpid/","","","40000","42100","1413","20700","08/17/2022","1547","sqft","25.86","1575","sqft","25.4","4","1","","","No","No","","816 Ernie St","Pittsburgh","15220","PA","USA","40.44323","-80.04073"
"https://www.zillow.com/homedetails/514-Lorenz-Ave-Pittsburgh-PA-15220/11366649_zpid/","","","35000","36800","1150","11000","08/15/2022","1426","sqft","24.54","2726.86","sqft","12.84","2","1","","Libby Sosinski","No","No","","514 Lorenz Ave","Pittsburgh","15220","PA","USA","40.445827","-80.03832"
"https://www.zillow.com/homedetails/1146-California-Ave-White-Oak-PA-15131/11500417_zpid/","","","36000","38000","1262","49900","08/15/2022","","","","1742.4","sqft","20.66","3","1","","Jeffrey Walker","No","No","","1146 California Ave","White Oak","15131","PA","USA","40.354134","-79.82033"
"https://www.zillow.com/homedetails/2794-Bertha-St-Bethel-Park-PA-15102/11509417_zpid/","","","35000","122400","769","58600","08/15/2022","850","sqft","41.18","0.34","acres","103215.76","1","1","","","No","No","","2794 Bertha St","Bethel Park","15102","PA","USA","40.328945","-80.03601"
"https://www.zillow.com/homedetails/514-Wall-Ave-Wall-PA-15148/11572405_zpid/","","","40000","42100","1413","37000","08/12/2022","1326","sqft","30.17","3301.85","sqft","12.11","3","2","","Thomas Althoff","No","No","","514 Wall Ave","Wall","15148","PA","USA","40.39424","-79.78503"
"https://www.zillow.com/homedetails/948-Jefferson-Dr-Clairton-PA-15025/11634431_zpid/","","","34900","36700","1090","38500","08/10/2022","1120","sqft","31.16","5000.69","sqft","6.98","3","1","","Brian Palmer","No","No","","948 Jefferson Dr","Clairton","15025","PA","USA","40.289062","-79.893745"
"https://www.zillow.com/homedetails/1965-Federal-Street-Ext-Pittsburgh-PA-15214/11506033_zpid/","","","35000","36800","1285","29800","08/09/2022","1253","sqft","27.93","1799.03","sqft","19.45","3","1","","Paul Wang","No","No","","1965 Federal Street Ext","Pittsburgh","15214","PA","USA","40.463844","-80.009964"
"https://www.zillow.com/homedetails/228-W-11th-Ave-Tarentum-PA-15084/11279651_zpid/","","","35333","37300","1366","32400","08/08/2022","","","","0.25","acres","141332","3","2","","Joe Croft","No","No","","228 W 11th Ave","Tarentum","15084","PA","USA","40.602306","-79.76506"
"https://www.zillow.com/homedetails/626-Calera-St-Pittsburgh-PA-15207/11299911_zpid/","","","40000","31600","1394","47000","08/05/2022","1192","sqft","33.56","2548.26","sqft","15.7","3","2","","Tina Nobers","No","No","","626 Calera St","Pittsburgh","15207","PA","USA","40.38188","-79.93366"
"https://www.zillow.com/homedetails/56-Kuntz-St-Natrona-Heights-PA-15065/11320531_zpid/","","","35000","36900","749","17300","08/05/2022","","","","1999.4","sqft","17.51","1","1","","Suzanne Petrak","No","No","","56 Kuntz St","Natrona Heights","15065","PA","USA","40.619404","-79.71998"
"https://www.zillow.com/homedetails/509-Montooth-St-Pittsburgh-PA-15210/11324424_zpid/","","","39000","41000","1694","29700","08/05/2022","1680","sqft","23.21","2265.12","sqft","17.22","3","2","","Morgan DeFelippis","No","No","","509 Montooth St","Pittsburgh","15210","PA","USA","40.418022","-80.00579"
"https://www.zillow.com/homedetails/2801-Fusion-St-Pittsburgh-PA-15204/11479196_zpid/","","","36000","38000","1164","36000","08/05/2022","856","sqft","42.06","1816.45","sqft","19.82","3","1","","Laura Crawley","No","No","","2801 Fusion St","Pittsburgh","15204","PA","USA","40.451984","-80.054504"
"https://www.zillow.com/homedetails/109-Thomas-Ave-North-Versailles-PA-15137/11538316_zpid/","","","36000","89500","981","40300","07/28/2022","1063","sqft","33.87","4000","sqft","9","2","1","","","No","No","","109 Thomas Ave","North Versailles","15137","PA","USA","40.37916","-79.81058"
"https://www.zillow.com/homedetails/2714-Mission-St-Pittsburgh-PA-15203/11307710_zpid/","","","35000","","1564","65600","07/15/2022","1410","sqft","24.82","2613.6","sqft","13.39","2","2","","Craig Melichar","No","No","","2714 Mission St","Pittsburgh","15203","PA","USA","40.421917","-79.968834"
"https://www.zillow.com/homedetails/309-Fisk-Ave-Pittsburgh-PA-15202/11368683_zpid/","","","37500","39500","1734","38700","07/15/2022","1948","sqft","19.25","3885.55","sqft","9.65","4","2","","Jacob Hayson","No","No","","309 Fisk Ave","Pittsburgh","15202","PA","USA","40.503212","-80.07341"
"https://www.zillow.com/homedetails/437-Ormsby-Ave-Pittsburgh-PA-15210/11434918_zpid/","","","36000","","1434","36600","07/11/2022","1848","sqft","19.48","5657","sqft","6.36","3","1","","","No","No","","437 Ormsby Ave","Pittsburgh","15210","PA","USA","40.413033","-79.98"
"https://www.zillow.com/homedetails/640-Constitution-Cir-Clairton-PA-15025/11250110_zpid/","","","35000","","1305","41800","07/08/2022","1254","sqft","27.91","5947","sqft","5.89","4","1.5","","","No","No","","640 Constitution Cir","Clairton","15025","PA","USA","40.286755","-79.89055"
"https://www.zillow.com/homedetails/305-W-9th-Ave-Tarentum-PA-15084/11279915_zpid/","","","37000","","1235","47100","07/08/2022","1985","sqft","18.64","2400.16","sqft","15.42","3","2","","Michael Kusenko","No","No","","305 W 9th Ave","Tarentum","15084","PA","USA","40.600403","-79.763985"
"https://www.zillow.com/homedetails/35-Slate-St-Pittsburgh-PA-15207/11297885_zpid/","","","33750","35500","1200","21000","07/08/2022","1184","sqft","28.51","2374","sqft","14.22","2","2","","","No","No","","35 Slate St","Pittsburgh","15207","PA","USA","40.38268","-79.92652"
"https://www.zillow.com/homedetails/17-Slate-St-Pittsburgh-PA-15207/11297934_zpid/","","","33750","35500","1450","35500","07/08/2022","1152","sqft","29.3","4311","sqft","7.83","3","1","","","No","No","","17 Slate St","Pittsburgh","15207","PA","USA","40.381992","-79.92716"
"https://www.zillow.com/homedetails/229-Rochelle-St-Pittsburgh-PA-15210/11316847_zpid/","","","37500","39500","1394","29000","07/08/2022","1406","sqft","26.67","2500.34","sqft","15","3","1","","Janell Walker","No","No","","229 Rochelle St","Pittsburgh","15210","PA","USA","40.41527","-79.99202"
"https://www.zillow.com/homedetails/5103-1-2-Lytle-St-Pittsburgh-PA-15207/11550424_zpid/","","","39600","77700","1050","7900","07/08/2022","864","sqft","45.83","675.18","sqft","58.65","2","1","","Judith Hanley","No","No","","5103 1/2 Lytle St","Pittsburgh","15207","PA","USA","40.406593","-79.94507"
"https://www.zillow.com/homedetails/443-Hays-Ave-Pittsburgh-PA-15210/11436594_zpid/","","","34450","116100","1442","26300","07/07/2022","1360","sqft","25.33","2657","sqft","12.97","4","2","","","No","No","","443 Hays Ave","Pittsburgh","15210","PA","USA","40.411064","-79.9879"
"https://www.zillow.com/homedetails/930-Horner-St-Brackenridge-PA-15014/11280307_zpid/","","","40000","42100","749","19000","07/06/2022","638","sqft","62.7","4500","sqft","8.89","1","1","","","No","No","","930 Horner St","Brackenridge","15014","PA","USA","40.608772","-79.74818"
"https://www.zillow.com/homedetails/6448-Clifford-St-Pittsburgh-PA-15206/11284484_zpid/","","","40000","42100","1400","12700","07/06/2022","1136","sqft","35.21","2500","sqft","16","3","1","","","No","No","","6448 Clifford St","Pittsburgh","15206","PA","USA","40.468533","-79.90406"
"https://www.zillow.com/homedetails/1416-Ridge-Ave-Coraopolis-PA-15108/11438874_zpid/","","","40000","175100","1485","34000","07/01/2022","1449","sqft","27.61","5759","sqft","6.95","3","1","","","No","No","","1416 Ridge Ave","Coraopolis","15108","PA","USA","40.513462","-80.159035"
"https://www.zillow.com/homedetails/433-Ormsby-Ave-Pittsburgh-PA-15210/11434917_zpid/","","","40000","123100","1400","32800","06/29/2022","1408","sqft","28.41","2744","sqft","14.58","3","1","","","No","No","","433 Ormsby Ave","Pittsburgh","15210","PA","USA","40.413025","-79.98014"
"https://www.zillow.com/homedetails/3601-Woodland-St-McKeesport-PA-15132/11463935_zpid/","","","38610","101100","1305","56900","06/28/2022","1750","sqft","22.06","3333","sqft","11.58","4","1.5","","","No","No","","3601 Woodland St","McKeesport","15132","PA","USA","40.33759","-79.83448"
"https://www.zillow.com/homedetails/518-Holmes-St-Pittsburgh-PA-15221/11341239_zpid/","","","38000","39800","2552","51400","06/27/2022","1955","sqft","19.44","3472","sqft","10.94","5","1","","Ryan Shedlock","No","No","","518 Holmes St","Pittsburgh","15221","PA","USA","40.447166","-79.8847"
"https://www.zillow.com/homedetails/870-Ridge-Rd-Bridgeville-PA-15017/11434488_zpid/","","","40000","","1150","73700","06/24/2022","952","sqft","42.02","7562.02","sqft","5.29","2","1","","Arron Groomes","No","No","","870 Ridge Rd","Bridgeville","15017","PA","USA","40.355564","-80.10532"
"https://www.zillow.com/homedetails/8910-Upland-Ter-Pittsburgh-PA-15235/11377417_zpid/","","","37200","","1352","11200","06/23/2022","1334","sqft","27.89","3750","sqft","9.92","3","1","","","No","No","","8910 Upland Ter","Pittsburgh","15235","PA","USA","40.461597","-79.869064"
"https://www.zillow.com/homedetails/504-Mercer-St-Turtle-Creek-PA-15145/11495739_zpid/","","","39900","98800","1250","44700","06/23/2022","1560","sqft","25.58","5000","sqft","7.98","3","1","","","No","No","","504 Mercer St","Turtle Creek","15145","PA","USA","40.409508","-79.8168"
"https://www.zillow.com/homedetails/311-Ohio-Ave-Glassport-PA-15045/11504457_zpid/","","","35100","36900","1228","50000","06/23/2022","2016","sqft","17.41","3001.28","sqft","11.69","4","1","","Manfred Fisher","No","No","","311 Ohio Ave","Glassport","15045","PA","USA","40.330376","-79.89119"
"https://www.zillow.com/homedetails/524-N-6th-St-Clairton-PA-15025/2072574223_zpid/","","","40000","41900","771","","06/23/2022","","","","5057.32","sqft","7.91","1","1","","Ty Allen","No","No","","524 N 6th St","Clairton","15025","PA","USA","40.30608","-79.89331"
"https://www.zillow.com/homedetails/Combs-Rd-Clinton-PA-15026/164258435_zpid/","","","40000","","1127","37500","06/22/2022","","","","1.93","acres","20772.78","","","","","No","No","","Combs Rd","Clinton","15026","PA","USA","40.492283","-80.32749"
"https://www.zillow.com/homedetails/301-Spencer-Lane-Ext-Glenshaw-PA-15116/11486671_zpid/","","","40000","","1500","20000","06/21/2022","960","sqft","41.67","2.62","acres","15267.2","2","1","","","No","No","","301 Spencer Lane Ext","Glenshaw","15116","PA","USA","40.53223","-79.956924"
"https://www.zillow.com/homedetails/3316-Ford-Ave-McKeesport-PA-15132/11461502_zpid/","","","35000","36800","895","10000","06/20/2022","1516","sqft","23.09","2196","sqft","15.94","2","1","","","No","No","","3316 Ford Ave","McKeesport","15132","PA","USA","40.345985","-79.83761"
"https://www.zillow.com/homedetails/2206-Harrison-St-McKeesport-PA-15132/11463956_zpid/","","","35600","62200","1200","15000","06/20/2022","1136","sqft","31.34","","","","3","1","","","No","No","","2206 Harrison St","McKeesport","15132","PA","USA","40.33777","-79.83486"
"https://www.zillow.com/homedetails/614-Michigan-Ave-Glassport-PA-15045/2063457349_zpid/","","","40000","","1074","","06/20/2022","","","","7405.2","sqft","5.4","","3","","Dana Evans","No","No","","614 Michigan Ave","Glassport","15045","PA","USA","40.325367","-79.89104"
"https://www.zillow.com/homedetails/3019-Viola-St-Pittsburgh-PA-15214/11609846_zpid/","","","34900","260700","2496","58700","06/17/2022","2189","sqft","15.94","2866.25","sqft","12.18","2","1","","Libby Sosinski","No","No","","3019 Viola St","Pittsburgh","15214","PA","USA","40.476837","-80.01165"
"https://www.zillow.com/homedetails/322-Washington-St-Mc-Kees-Rocks-PA-15136/11602633_zpid/","","","35319","37000","1690","29700","06/16/2022","2104","sqft","16.79","1777.25","sqft","19.87","4","2","","Paul Wang","No","No","","322 Washington St","Mc Kees Rocks","15136","PA","USA","40.47495","-80.056"
"https://www.zillow.com/homedetails/134-Overland-Ave-Duquesne-PA-15110/11423006_zpid/","","","38000","39800","1257","27700","06/15/2022","","","","6534","sqft","5.82","2","2","","Andrew Bencsics","No","No","","134 Overland Ave","Duquesne","15110","PA","USA","40.37965","-79.85733"
"https://www.zillow.com/homedetails/2610-Versailles-Ave-McKeesport-PA-15132/11461804_zpid/","","","34194","35800","1150","27800","06/14/2022","1440","sqft","23.75","3487","sqft","9.81","3","1","","","No","No","","2610 Versailles Ave","McKeesport","15132","PA","USA","40.34533","-79.84628"
"https://www.zillow.com/homedetails/2413-Cobden-St-Pittsburgh-PA-15203/11307928_zpid/","","","38000","154800","1235","95000","06/13/2022","1188","sqft","31.99","5068","sqft","7.5","2","1","","","No","No","","2413 Cobden St","Pittsburgh","15203","PA","USA","40.42033","-79.97176"
"https://www.zillow.com/homedetails/1313-Reddour-St-Pittsburgh-PA-15212/164597149_zpid/","","","39900","","1966","500","06/10/2022","","","","958.32","sqft","41.64","","","","Mary Scafede","No","No","","1313 Reddour St","Pittsburgh","15212","PA","USA","40.456795","-80.00831"
"https://www.zillow.com/homedetails/3024-Vancroft-St-Pittsburgh-PA-15219/11406955_zpid/","","","35000","36800","1698","49700","06/08/2022","1138","sqft","30.76","2101","sqft","16.66","3","1","","","No","No","","3024 Vancroft St","Pittsburgh","15219","PA","USA","40.450287","-79.96416"
"https://www.zillow.com/homedetails/341-Ohio-Ave-Clairton-PA-15025/11576152_zpid/","","","40000","78400","1050","18000","06/07/2022","1128","sqft","35.46","3236.51","sqft","12.36","3","1","","Melissa Steffey","No","No","","341 Ohio Ave","Clairton","15025","PA","USA","40.31231","-79.89727"
"https://www.zillow.com/homedetails/343-Ohio-Ave-Clairton-PA-15025/11576153_zpid/","","","40000","79000","1050","17800","06/07/2022","1128","sqft","35.46","3341.05","sqft","11.97","3","1","","Melissa Steffey","No","No","","343 Ohio Ave","Clairton","15025","PA","USA","40.312286","-79.897125"
"https://www.zillow.com/homedetails/205-Wachter-St-Pittsburgh-PA-15210/11315984_zpid/","","","35000","36600","1200","48900","06/03/2022","1260","sqft","27.78","1800","sqft","19.44","2","1","","","No","No","","205 Wachter St","Pittsburgh","15210","PA","USA","40.42106","-79.98638"
"https://www.zillow.com/homedetails/418-Mansion-St-Pittsburgh-PA-15207/11551162_zpid/","","","35000","","1610","29700","06/03/2022","1880","sqft","18.62","3123.25","sqft","11.21","3","1","","Kevin Kcehowski","No","No","","418 Mansion St","Pittsburgh","15207","PA","USA","40.405914","-79.93676"
"https://www.zillow.com/homedetails/5343-Chaucer-Cir-42-Gibsonia-PA-15044/2064248617_zpid/","","","35500","","1800","","06/02/2022","","","","217.8","sqft","162.99","2","2","","Nicolas Supik","No","No","# 42","5343 Chaucer Cir #42","Gibsonia","15044","PA","USA","",""
"https://www.zillow.com/homedetails/1300-Hamilton-St-McKeesport-PA-15132/11461902_zpid/","","","40000","","1435","17700","06/01/2022","2120","sqft","18.87","4345","sqft","9.21","5","2","","","No","No","","1300 Hamilton St","McKeesport","15132","PA","USA","40.344437","-79.84465"
"https://www.zillow.com/homedetails/114-Arkansas-Ave-Homestead-PA-15120/11347681_zpid/","","","40000","98500","1305","57500","05/24/2022","1080","sqft","37.04","3300","sqft","12.12","3","1","","","No","No","","114 Arkansas Ave","Homestead","15120","PA","USA","40.40054","-79.886284"
"https://www.zillow.com/homedetails/1728-Wesley-St-Pittsburgh-PA-15221/11379301_zpid/","","","39000","40800","1117","22100","05/24/2022","960","sqft","40.63","3937.82","sqft","9.9","2","1","","Libby Sosinski","No","No","","1728 Wesley St","Pittsburgh","15221","PA","USA","40.445778","-79.868324"
"https://www.zillow.com/homedetails/4204-Home-St-West-Mifflin-PA-15122/11349006_zpid/","","","35000","36600","1150","47000","05/23/2022","992","sqft","35.28","5148","sqft","6.8","2","1","","","No","No","","4204 Home St","West Mifflin","15122","PA","USA","40.38798","-79.88394"
"https://www.zillow.com/homedetails/6114-Smithfield-St-McKeesport-PA-15135/11575662_zpid/","","","38069","119500","950","61900","05/20/2022","1080","sqft","35.25","5500","sqft","6.92","2","1","","","No","No","","6114 Smithfield St","McKeesport","15135","PA","USA","40.314014","-79.82053"
"https://www.zillow.com/homedetails/147-Morgan-Hill-Rd-Morgan-PA-15064/59855122_zpid/","","","40000","41900","1082","52300","05/20/2022","708","sqft","56.5","2031","sqft","19.69","2","1","","","No","No","","147 Morgan Hill Rd","Morgan","15064","PA","USA","40.348866","-80.15321"
