Property URL,MLS ID,Number of days on Zillow,Property price (USD),Zestimate (USD),Rent zestimate (USD per month),Tax assessed value (USD),Sold date (MM/DD/YYYY),Living area,Living area unit,Price per living area unit (USD),Lot/land area,Lot/land area unit,Price per lot/land area unit (USD),Bedrooms,Bathrooms,Broker name,Broker agent,Is owner occupied,Property owned by Zillow,Property unit number,Street address,City,Zip,State,Country,Latitude,Longitude
"https://www.zillow.com/homedetails/1122-Berkshire-Ave-Pittsburgh-PA-15226/59835707_zpid/","","","234000","231700","1483","72000","10/18/2023","1344","sqft","174.11","3598.06","sqft","65.04","3","2","","Jim Clark","No","No","","1122 Berkshire Ave","Pittsburgh","15226","PA","USA","40.389416","-80.01613"
"https://www.zillow.com/homedetails/2940-Dodds-Ave-Pittsburgh-PA-15216/11570656_zpid/","","","230000","220500","1500","79500","10/17/2023","","","","0.38","acres","605263.16","2","2","","Jack Hutterer","No","No","","2940 Dodds Ave","Pittsburgh","15216","PA","USA","40.401127","-80.04167"
"https://www.zillow.com/homedetails/415-Cedarville-St-Pittsburgh-PA-15224/11402907_zpid/","","","230000","234300","2197","100900","10/16/2023","2968","sqft","77.49","2400.16","sqft","95.83","5","2","","Devin Canofari","No","No","","415 Cedarville St","Pittsburgh","15224","PA","USA","40.4599","-79.94997"
"https://www.zillow.com/homedetails/4057-Crestwood-Dr-Gibsonia-PA-15044/11318017_zpid/","","","232000","224900","1991","115600","10/13/2023","","","","","","","3","2","","Jane York","No","No","","4057 Crestwood Dr","Gibsonia","15044","PA","USA","40.62308","-79.91875"
"https://www.zillow.com/homedetails/3719-Middleboro-Rd-Pittsburgh-PA-15234/11395903_zpid/","","","231000","231000","1650","89100","10/12/2023","1220","sqft","189.34","6534","sqft","35.35","3","2","","Ruth Weigers","No","No","","3719 Middleboro Rd","Pittsburgh","15234","PA","USA","40.36033","-80.02088"
"https://www.zillow.com/homedetails/4-Laurel-Vlg-Pittsburgh-PA-15202/11368499_zpid/","","","230000","230000","1576","129500","10/11/2023","1562","sqft","147.25","4003.16","sqft","57.45","3","1","","Betsy Wotherspoon","No","No","","4 Laurel Vlg","Pittsburgh","15202","PA","USA","40.50256","-80.07705"
"https://www.zillow.com/homedetails/448-Seldon-Ave-Verona-PA-15147/11448198_zpid/","","","230000","230000","1400","93500","10/06/2023","2176","sqft","105.7","8603.1","sqft","26.73","4","2","","Eileen Doheny","No","No","","448 Seldon Ave","Verona","15147","PA","USA","40.50965","-79.83997"
"https://www.zillow.com/homedetails/1073-Crest-Dr-Crescent-PA-15046/11613919_zpid/","","","229900","229900","1650","110100","10/06/2023","","","","0.33","acres","691844.72","4","3","","Gina Cuccaro","No","No","","1073 Crest Dr","Crescent","15046","PA","USA","40.558517","-80.2441"
"https://www.zillow.com/homedetails/4081-Greenridge-Dr-Verona-PA-15147/11530913_zpid/","","","232500","232000","1997","125000","10/05/2023","1614","sqft","144.05","8986.43","sqft","25.87","3","3","","Rand Hudson","No","No","","4081 Greenridge Dr","Verona","15147","PA","USA","40.51082","-79.80762"
"https://www.zillow.com/homedetails/2363-Birtley-Ave-Pittsburgh-PA-15226/11566311_zpid/","","","230000","230000","1654","88600","10/03/2023","1441","sqft","159.61","5601.82","sqft","41.06","5","2","","Dianne Wilk","No","No","","2363 Birtley Ave","Pittsburgh","15226","PA","USA","40.398113","-80.01903"
"https://www.zillow.com/homedetails/5640-Valleyview-Dr-Bethel-Park-PA-15102/11547659_zpid/","","","230000","229400","1703","130700","09/29/2023","1188","sqft","193.6","0.33","acres","693397.65","3","2","","Carla Pierson","No","No","","5640 Valleyview Dr","Bethel Park","15102","PA","USA","40.31667","-80.026794"
"https://www.zillow.com/homedetails/203-Barbara-Dr-Mc-Kees-Rocks-PA-15136/11264486_zpid/","","","230000","230000","1650","141700","09/27/2023","1250","sqft","184","8712","sqft","26.4","3","2","","Mike Spagnolo","No","No","","203 Barbara Dr","Mc Kees Rocks","15136","PA","USA","40.483067","-80.08835"
"https://www.zillow.com/homedetails/726-Collier-Ave-Carnegie-PA-15106/59836428_zpid/","","","230000","230000","1749","141100","09/27/2023","1268","sqft","181.39","8712","sqft","26.4","3","2","","Amy Smith","No","No","","726 Collier Ave","Carnegie","15106","PA","USA","40.404217","-80.098946"
"https://www.zillow.com/homedetails/556-Garfield-Ave-Carnegie-PA-15106/11253489_zpid/","","","230000","230000","1500","113500","09/26/2023","1360","sqft","169.12","5279.47","sqft","43.56","3","1","","Alexandra Brown","No","No","","556 Garfield Ave","Carnegie","15106","PA","USA","40.391254","-80.0951"
"https://www.zillow.com/homedetails/2030-Elmbrook-Ln-Pittsburgh-PA-15243/11361780_zpid/","","","230000","230000","1594","105100","09/25/2023","1040","sqft","221.15","6011.28","sqft","38.26","3","1","","Karen Marshall","No","No","","2030 Elmbrook Ln","Pittsburgh","15243","PA","USA","40.36664","-80.089355"
"https://www.zillow.com/homedetails/4311-Anna-St-Bethel-Park-PA-15102/11430805_zpid/","","","234900","234900","1588","127000","09/22/2023","1176","sqft","199.74","0.31","acres","759211.38","3","1","","Marisa Costa","No","No","","4311 Anna St","Bethel Park","15102","PA","USA","40.354256","-80.03045"
"https://www.zillow.com/homedetails/127-E-Bruceton-Rd-Pittsburgh-PA-15236/11506571_zpid/","","","230000","230000","1650","99700","09/22/2023","","","","7840.8","sqft","29.33","3","3","","Mario A Rudolph","No","No","","127 E Bruceton Rd","Pittsburgh","15236","PA","USA","40.33389","-79.95923"
"https://www.zillow.com/homedetails/716-Lochinvar-Dr-Pittsburgh-PA-15237/11558561_zpid/","","","230000","214300","1754","125800","09/20/2023","1040","sqft","221.15","0.25","acres","904799.37","3","1","","Brianne Flint","No","No","","716 Lochinvar Dr","Pittsburgh","15237","PA","USA","40.5551","-80.02398"
"https://www.zillow.com/homedetails/170-Orchard-Spring-Rd-Pittsburgh-PA-15220/11577455_zpid/","","","230000","230000","1500","114900","09/19/2023","","","","5662.8","sqft","40.62","2","2","","Shannon Straffon","No","No","","170 Orchard Spring Rd","Pittsburgh","15220","PA","USA","40.397293","-80.06938"
"https://www.zillow.com/homedetails/135-William-Cir-Mc-Kees-Rocks-PA-15136/11264202_zpid/","","","230000","229900","1723","102700","09/14/2023","1648","sqft","139.56","5871.89","sqft","39.17","3","3","","Liam Tennies","No","No","","135 William Cir","Mc Kees Rocks","15136","PA","USA","40.490417","-80.086655"
"https://www.zillow.com/homedetails/5520-Florida-Ave-Bethel-Park-PA-15102/11547369_zpid/","","","230000","229900","1702","125500","09/13/2023","1163","sqft","197.76","","","","3","2","","Jeff Earley","No","No","","5520 Florida Ave","Bethel Park","15102","PA","USA","40.321598","-80.030464"
"https://www.zillow.com/homedetails/72-Sierra-Dr-Pittsburgh-PA-15239/11282560_zpid/","","","234203","234200","1800","136700","09/11/2023","1402","sqft","167.05","9583.2","sqft","24.44","3","2","","Jenna Barron","No","No","","72 Sierra Dr","Pittsburgh","15239","PA","USA","40.47333","-79.70432"
"https://www.zillow.com/homedetails/134-Elmwood-Dr-Glenshaw-PA-15116/11525804_zpid/","","","230000","230100","1999","102500","09/08/2023","900","sqft","255.56","0.29","acres","793103.45","3","2","","Lindsay Stromoski","No","No","","134 Elmwood Dr","Glenshaw","15116","PA","USA","40.54575","-79.97946"
"https://www.zillow.com/homedetails/4024-Greenridge-Dr-Verona-PA-15147/11530902_zpid/","","","230000","229900","1613","119400","09/08/2023","1524","sqft","150.92","8398.37","sqft","27.39","3","2","","Mikal Merlina","No","No","","4024 Greenridge Dr","Verona","15147","PA","USA","40.510952","-79.81048"
"https://www.zillow.com/homedetails/2110-Meadow-Ln-Pittsburgh-PA-15220/11577525_zpid/","","","233000","232900","1575","105400","09/08/2023","984","sqft","236.79","8084.74","sqft","28.82","3","1","","Abigail Ross","No","No","","2110 Meadow Ln","Pittsburgh","15220","PA","USA","40.39496","-80.0794"
"https://www.zillow.com/homedetails/306-School-St-Pittsburgh-PA-15209/11272695_zpid/","","","230000","230000","1500","107000","09/07/2023","1000","sqft","230","6965.24","sqft","33.02","2","2","","Jonathan Calhoun","No","No","","306 School St","Pittsburgh","15209","PA","USA","40.486767","-79.96231"
"https://www.zillow.com/homedetails/4139-Greensburg-Pike-Pittsburgh-PA-15221/11456128_zpid/","","","232000","231900","1300","80400","09/06/2023","","","","8232.84","sqft","28.18","3","2","","Ryan Shedlock","No","No","","4139 Greensburg Pike","Pittsburgh","15221","PA","USA","40.421078","-79.841705"
"https://www.zillow.com/homedetails/4413-Ruth-Dr-Monroeville-PA-15146/11626931_zpid/","","","230000","229900","1694","134400","09/06/2023","","","","0.31","acres","741935.48","3","2","","Richard Creo","No","No","","4413 Ruth Dr","Monroeville","15146","PA","USA","40.453926","-79.75878"
"https://www.zillow.com/homedetails/434-Rosanne-Dr-Verona-PA-15147/11531403_zpid/","","","230000","229900","1584","98600","09/01/2023","","","","9016.92","sqft","25.51","3","2","","Kyle Crilley","No","No","","434 Rosanne Dr","Verona","15147","PA","USA","40.49287","-79.81601"
"https://www.zillow.com/homedetails/71-Montclair-Ave-Pittsburgh-PA-15229/11406107_zpid/","","","230000","230000","1464","101800","08/31/2023","1336","sqft","172.16","3598.06","sqft","63.92","3","2","","Lisa Wilson","No","No","","71 Montclair Ave","Pittsburgh","15229","PA","USA","40.520256","-80.035225"
"https://www.zillow.com/homedetails/159-Cypress-Dr-Pittsburgh-PA-15241/11548626_zpid/","","","234900","234900","1664","108100","08/31/2023","","","","","","","3","1","","Jeff Earley","No","No","","159 Cypress Dr","Pittsburgh","15241","PA","USA","40.3226","-80.062294"
"https://www.zillow.com/homedetails/816-N-Beatty-St-Pittsburgh-PA-15206/11622436_zpid/","","","231000","231000","1660","77600","08/30/2023","2754","sqft","83.88","3049.2","sqft","75.76","4","2","","Robert Moncavage","No","No","","816 N Beatty St","Pittsburgh","15206","PA","USA","40.470943","-79.92181"
"https://www.zillow.com/homedetails/2111-Lautner-St-Pittsburgh-PA-15212/11512341_zpid/","","","230000","230000","1515","54300","08/28/2023","1714","sqft","134.19","2970.79","sqft","77.42","3","1","","Katie Wymard","No","No","","2111 Lautner St","Pittsburgh","15212","PA","USA","40.46866","-79.97792"
"https://www.zillow.com/homedetails/811-Division-St-West-Mifflin-PA-15122/11385788_zpid/","","","229500","229600","1919","81300","08/22/2023","1358","sqft","169","6756.16","sqft","33.97","3","3","","Megan McNeish","No","No","","811 Division St","West Mifflin","15122","PA","USA","40.39538","-79.87822"
"https://www.zillow.com/homedetails/102-Tillotson-Cir-Pittsburgh-PA-15237/11409244_zpid/","","","230000","229900","1679","155700","08/21/2023","","","","7405.2","sqft","31.06","3","2","","Jeffrey Walker","No","No","","102 Tillotson Cir","Pittsburgh","15237","PA","USA","40.51819","-80.00185"
"https://www.zillow.com/homedetails/4642-Friendship-Ave-Pittsburgh-PA-15224/11515034_zpid/","","","230000","230000","1969","83900","08/17/2023","1800","sqft","127.78","2500.34","sqft","91.99","3","1","","Gary Swank","No","No","","4642 Friendship Ave","Pittsburgh","15224","PA","USA","40.463596","-79.94948"
"https://www.zillow.com/homedetails/131-Tipton-St-Pittsburgh-PA-15207/11550404_zpid/","","","230000","230000","3287","46500","08/16/2023","3468","sqft","66.32","4621.72","sqft","49.77","7","3","","Mark Scott","No","No","","131 Tipton St","Pittsburgh","15207","PA","USA","40.40828","-79.94231"
"https://www.zillow.com/homedetails/3436-E-Stag-Dr-Gibsonia-PA-15044/11318282_zpid/","","","232500","232100","1988","114500","08/15/2023","925","sqft","251.35","0.31","acres","752261.75","3","2","","","No","No","","3436 E Stag Dr","Gibsonia","15044","PA","USA","40.618736","-79.918175"
"https://www.zillow.com/homedetails/905-Santiago-Rd-Imperial-PA-15126/59849465_zpid/","","","230000","251100","1798","135000","08/14/2023","1940","sqft","118.56","0.32","acres","727845.99","4","2","","","No","No","","905 Santiago Rd","Imperial","15126","PA","USA","40.435585","-80.265366"
"https://www.zillow.com/homedetails/607-E-13th-Ave-Homestead-PA-15120/11292652_zpid/","","","231500","235500","1599","36400","08/10/2023","2678","sqft","86.45","3628.55","sqft","63.8","4","2","","DJ Fairley","No","No","","607 E 13th Ave","Homestead","15120","PA","USA","40.4053","-79.901955"
"https://www.zillow.com/homedetails/9100-Walnut-St-Pittsburgh-PA-15239/11261375_zpid/","","","229500","229100","1406","63700","08/09/2023","","","","0.32","acres","721244.5","3","2","","Richard Creo","No","No","","9100 Walnut St","Pittsburgh","15239","PA","USA","40.49886","-79.72374"
"https://www.zillow.com/homedetails/3436-E-Stag-Dr-W-Gibsonia-PA-15044/2056500147_zpid/","","","232500","","1741","","08/09/2023","925","sqft","251.35","0.31","acres","752183.76","3","2","","Nicole Chirdon","No","No","","3436 E Stag Dr W","Gibsonia","15044","PA","USA","",""
"https://www.zillow.com/homedetails/620-Charlotte-Dr-Pittsburgh-PA-15236/11430622_zpid/","","","230000","230000","1414","136200","08/07/2023","1115","sqft","206.28","8999.5","sqft","25.56","2","2","","Theresa White","No","No","","620 Charlotte Dr","Pittsburgh","15236","PA","USA","40.347042","-80.00505"
"https://www.zillow.com/homedetails/181-Jade-Dr-Verona-PA-15147/11531077_zpid/","","","234500","239900","1550","91600","08/03/2023","1226","sqft","191.27","8276.4","sqft","28.33","3","2","","Reena Blumberger","No","No","","181 Jade Dr","Verona","15147","PA","USA","40.50446","-79.81008"
"https://www.zillow.com/homedetails/7419-Park-Ave-Pittsburgh-PA-15218/11345736_zpid/","","","230000","230000","1499","107200","07/31/2023","1571","sqft","146.4","2970.79","sqft","77.42","5","3","","Nathaniel Nieland","No","No","","7419 Park Ave","Pittsburgh","15218","PA","USA","40.41976","-79.88804"
"https://www.zillow.com/homedetails/1012-Haslage-Ave-Pittsburgh-PA-15212/11394462_zpid/","","","229952","223200","2500","41700","07/31/2023","1822","sqft","126.21","4791.6","sqft","47.99","4","2","","Dan Reed","No","No","","1012 Haslage Ave","Pittsburgh","15212","PA","USA","40.461643","-79.994965"
"https://www.zillow.com/homedetails/464-Crestview-Dr-Pittsburgh-PA-15239/11597770_zpid/","","","231000","231000","1400","109900","07/31/2023","","","","9000","sqft","25.67","3","1","","Gail Murman","No","No","","464 Crestview Dr","Pittsburgh","15239","PA","USA","40.479603","-79.77861"
"https://www.zillow.com/homedetails/740-McMurray-Rd-Bethel-Park-PA-15102/11609294_zpid/","","","230000","230000","1895","132200","07/31/2023","1076","sqft","213.75","0.85","acres","271867.61","3","2","","Rebekka Lang","No","No","","740 McMurray Rd","Bethel Park","15102","PA","USA","40.30036","-80.07255"
"https://www.zillow.com/homedetails/1044-Harvard-Rd-Monroeville-PA-15146/11628138_zpid/","","","230000","230000","2100","162300","07/31/2023","","","","","","","3","3","","Joan Thomassey","No","No","","1044 Harvard Rd","Monroeville","15146","PA","USA","40.41617","-79.75341"
"https://www.zillow.com/homedetails/19-Craighead-St-Pittsburgh-PA-15211/11474821_zpid/","","","232000","231700","1584","71000","07/28/2023","","","","5662.8","sqft","40.97","3","2","","Greg Panza","No","No","","19 Craighead St","Pittsburgh","15211","PA","USA","40.42518","-79.9983"
"https://www.zillow.com/homedetails/22-Elwyn-Ave-Carnegie-PA-15106/59843414_zpid/","","","232000","232400","1929","133500","07/24/2023","1350","sqft","171.85","10079.78","sqft","23.02","4","3","","Don Boyle","No","No","","22 Elwyn Ave","Carnegie","15106","PA","USA","40.400497","-80.14249"
"https://www.zillow.com/homedetails/307-N-Graham-St-Pittsburgh-PA-15206/11520403_zpid/","","","230000","230400","2139","89800","07/21/2023","2624","sqft","87.65","5279.47","sqft","43.56","5","2","","Charles Veazey","No","No","","307 N Graham St","Pittsburgh","15206","PA","USA","40.467197","-79.93417"
"https://www.zillow.com/homedetails/1215-Peermont-Ave-Pittsburgh-PA-15216/11656304_zpid/","","","229900","230300","1691","128400","07/21/2023","1690","sqft","136.04","3920.4","sqft","58.64","3","1","","Marsha Roche","No","No","","1215 Peermont Ave","Pittsburgh","15216","PA","USA","40.38755","-80.041016"
"https://www.zillow.com/homedetails/5540-Kings-School-Rd-Bethel-Park-PA-15102/11579007_zpid/","","","230000","230300","1300","127200","07/20/2023","960","sqft","239.58","0.34","acres","676470.59","2","2","","John Geisler","No","No","","5540 Kings School Rd","Bethel Park","15102","PA","USA","40.311592","-80.01988"
"https://www.zillow.com/homedetails/1117-Stanton-Ter-Pittsburgh-PA-15201/11615517_zpid/","","","230000","224600","2284","122100","07/20/2023","1488","sqft","154.57","5837.04","sqft","39.4","4","3","","Beth Ali","No","No","","1117 Stanton Ter","Pittsburgh","15201","PA","USA","40.479","-79.939476"
"https://www.zillow.com/homedetails/519-Larix-Rd-Monroeville-PA-15146/11569831_zpid/","","","232000","232500","1749","96600","07/18/2023","","","","9060.48","sqft","25.61","3","2","","Ryan Scialabba","No","No","","519 Larix Rd","Monroeville","15146","PA","USA","40.445663","-79.78777"
"https://www.zillow.com/homedetails/2637-Summit-St-Bethel-Park-PA-15102/11471910_zpid/","","","230000","230600","1849","138700","07/14/2023","","","","10321.35","sqft","22.28","4","2","","Jane York","No","No","","2637 Summit St","Bethel Park","15102","PA","USA","40.339638","-80.037224"
"https://www.zillow.com/homedetails/905-Deely-St-Pittsburgh-PA-15217/87986817_zpid/","","","230000","230600","1552","123500","07/14/2023","","","","1393.92","sqft","165","2","2","","Blair Cohen","No","No","","905 Deely St","Pittsburgh","15217","PA","USA","40.423588","-79.93326"
"https://www.zillow.com/homedetails/12-Kennedy-Ln-Mc-Kees-Rocks-PA-15136/11264011_zpid/","","","231450","231900","1832","94800","07/13/2023","1956","sqft","118.33","8054.24","sqft","28.74","2","2","","Gina Cuccaro","No","No","","12 Kennedy Ln","Mc Kees Rocks","15136","PA","USA","40.479362","-80.08982"
"https://www.zillow.com/homedetails/1269-Overdale-Dr-Homestead-PA-15120/11294411_zpid/","","","230000","230700","1479","91000","07/11/2023","1080","sqft","212.96","6599.34","sqft","34.85","3","2","","Mary Torchia","No","No","","1269 Overdale Dr","Homestead","15120","PA","USA","40.393585","-79.91286"
"https://www.zillow.com/homedetails/132-Bridle-Rd-Glenshaw-PA-15116/11526113_zpid/","","","230000","230700","1662","108500","07/11/2023","1275","sqft","180.39","9864","sqft","23.32","3","1","","Beth Danchek","No","No","","132 Bridle Rd","Glenshaw","15116","PA","USA","40.545097","-79.97662"
"https://www.zillow.com/homedetails/89-Schley-Ave-Pittsburgh-PA-15205/11588301_zpid/","","","232000","232700","1664","89400","07/11/2023","1725","sqft","134.49","5000.69","sqft","46.39","3","2","","Tamera Sorco","No","No","","89 Schley Ave","Pittsburgh","15205","PA","USA","40.444954","-80.072"
"https://www.zillow.com/homedetails/229-Lott-Rd-Pittsburgh-PA-15235/11569244_zpid/","","","230000","237600","1417","77900","07/10/2023","1453","sqft","158.29","1","acres","230000","4","2","","Kristie Keller","No","No","","229 Lott Rd","Pittsburgh","15235","PA","USA","40.467358","-79.78961"
"https://www.zillow.com/homedetails/1626-Meadville-St-Pittsburgh-PA-15214/11387438_zpid/","","","230000","230500","1694","39900","07/07/2023","1704","sqft","134.98","2278.19","sqft","100.96","3","2","","Marcia Shipley","No","No","","1626 Meadville St","Pittsburgh","15214","PA","USA","40.461163","-80.00499"
"https://www.zillow.com/homedetails/8125-Peebles-Rd-Pittsburgh-PA-15237/11558863_zpid/","","","230400","218300","1994","140400","07/07/2023","1024","sqft","225","0.34","acres","677647.06","3","2","","JoAnn Echtler","No","No","","8125 Peebles Rd","Pittsburgh","15237","PA","USA","40.55828","-80.01658"
"https://www.zillow.com/homedetails/178-Dakota-Ave-Pittsburgh-PA-15202/11325429_zpid/","","","230000","230600","1335","72000","06/30/2023","2039","sqft","112.8","3781.01","sqft","60.83","4","2","","Joe Yost","No","No","","178 Dakota Ave","Pittsburgh","15202","PA","USA","40.499817","-80.05069"
"https://www.zillow.com/homedetails/7111-Church-St-Pittsburgh-PA-15218/11345616_zpid/","","","230000","230600","1651","137900","06/30/2023","1248","sqft","184.29","6664.68","sqft","34.51","3","2","","Caryn Rosenthal","No","No","","7111 Church St","Pittsburgh","15218","PA","USA","40.420486","-79.89474"
"https://www.zillow.com/homedetails/7033-Blackhawk-St-Pittsburgh-PA-15218/11344987_zpid/","","","230000","230700","1870","36800","06/29/2023","1676","sqft","137.23","2352.24","sqft","97.78","2","2","","Deborah Kane","No","No","","7033 Blackhawk St","Pittsburgh","15218","PA","USA","40.42163","-79.89795"
"https://www.zillow.com/homedetails/412-Marta-Dr-Pittsburgh-PA-15236/11469749_zpid/","","","232000","232700","1495","100500","06/28/2023","1232","sqft","188.31","0.28","acres","843636.36","3","2","","Angie Flowers","No","No","","412 Marta Dr","Pittsburgh","15236","PA","USA","40.340847","-79.998795"
"https://www.zillow.com/homedetails/811-Cottonwood-Dr-Monroeville-PA-15146/11569384_zpid/","","","230000","230700","1716","103600","06/28/2023","","","","0.28","acres","821428.57","3","2","","Susan Gill","No","No","","811 Cottonwood Dr","Monroeville","15146","PA","USA","40.449787","-79.79384"
"https://www.zillow.com/homedetails/1517-Ridge-Ave-Coraopolis-PA-15108/11438925_zpid/","","","230000","230800","1784","60100","06/26/2023","","","","7348.57","sqft","31.3","4","3","","Leah Wulster","No","No","","1517 Ridge Ave","Coraopolis","15108","PA","USA","40.51294","-80.156075"
"https://www.zillow.com/homedetails/1009-Royal-Ct-Cheswick-PA-15024/11530292_zpid/","","","232500","233300","1300","112000","06/26/2023","1120","sqft","207.59","8590.03","sqft","27.07","2","2","","Kathy Merriman","No","No","","1009 Royal Ct","Cheswick","15024","PA","USA","40.543674","-79.80662"
"https://www.zillow.com/homedetails/502-Clemson-Dr-Pittsburgh-PA-15243/11360397_zpid/","","","232100","233000","1873","148700","06/23/2023","1280","sqft","181.33","9025.63","sqft","25.72","3","2","","Meghan Scichilone","No","No","","502 Clemson Dr","Pittsburgh","15243","PA","USA","40.37188","-80.07589"
"https://www.zillow.com/homedetails/1309-McCully-Rd-Pittsburgh-PA-15234/11395776_zpid/","","","230000","230900","1949","117200","06/23/2023","","","","8160","sqft","28.19","3","2","","Jane York","No","No","","1309 McCully Rd","Pittsburgh","15234","PA","USA","40.360554","-80.026566"
"https://www.zillow.com/homedetails/932-Millerdale-St-Pittsburgh-PA-15201/11615800_zpid/","","","230000","230900","1385","69200","06/23/2023","1060","sqft","216.98","2587.46","sqft","88.89","3","1","","Tirzah DeCaria","No","No","","932 Millerdale St","Pittsburgh","15201","PA","USA","40.476334","-79.9378"
"https://www.zillow.com/homedetails/2255-Bernard-St-Pittsburgh-PA-15234/11650577_zpid/","","","229500","230400","1429","99700","06/23/2023","","","","5749.92","sqft","39.91","2","2","","Libby Sosinski","No","No","","2255 Bernard St","Pittsburgh","15234","PA","USA","40.38553","-80.00424"
"https://www.zillow.com/homedetails/13-Oak-Dr-Pittsburgh-PA-15214/11327018_zpid/","","","233300","234300","1685","113700","06/22/2023","853","sqft","273.51","0.28","acres","846823.96","2","2","","Karla Horanic","No","No","","13 Oak Dr","Pittsburgh","15214","PA","USA","40.49566","-80.03424"
"https://www.zillow.com/homedetails/596-Wible-Run-Rd-Pittsburgh-PA-15209/11410195_zpid/","","","230000","231000","1999","145900","06/21/2023","1502","sqft","153.13","9104.04","sqft","25.26","3","2","","Marilou Williams","No","No","","596 Wible Run Rd","Pittsburgh","15209","PA","USA","40.519268","-79.97082"
"https://www.zillow.com/homedetails/1724-Cecil-St-Pittsburgh-PA-15215/11334380_zpid/","","","230000","231100","1400","45300","06/19/2023","1818","sqft","126.51","1742.4","sqft","132","3","2","","Christina Talotta","No","No","","1724 Cecil St","Pittsburgh","15215","PA","USA","40.49588","-79.922295"
"https://www.zillow.com/homedetails/1702-Hill-St-White-Oak-PA-15131/11540824_zpid/","","","232000","233100","1550","60000","06/19/2023","1302","sqft","178.19","0.28","acres","842160","3","1.5","","","No","No","","1702 Hill St","White Oak","15131","PA","USA","40.346737","-79.81036"
"https://www.zillow.com/homedetails/1718-Oblock-Rd-Pittsburgh-PA-15239/11261800_zpid/","","","230000","231200","1759","126700","06/15/2023","1468","sqft","156.68","8995.14","sqft","25.57","3","2","","","No","No","","1718 Oblock Rd","Pittsburgh","15239","PA","USA","40.47296","-79.71889"
"https://www.zillow.com/homedetails/151-Magnolia-St-Homestead-PA-15120/11348281_zpid/","","","230000","231200","1493","59600","06/15/2023","1530","sqft","150.33","7501.03","sqft","30.66","4","3","","Michael Reed","No","No","","151 Magnolia St","Homestead","15120","PA","USA","40.39674","-79.88693"
"https://www.zillow.com/homedetails/4723-Theodore-St-Homestead-PA-15120/11296411_zpid/","","","233000","234300","1557","109600","06/14/2023","1618","sqft","144","6969.6","sqft","33.43","3","2","","Gina Fonzi","No","No","","4723 Theodore St","Homestead","15120","PA","USA","40.37879","-79.91193"
"https://www.zillow.com/homedetails/1055-Logans-Ferry-Rd-New-Kensington-PA-15068/11624152_zpid/","","","232500","233900","1444","128100","06/12/2023","2036","sqft","114.19","0.69","acres","336956.52","3","2","","Kathy Dobos","No","No","","1055 Logans Ferry Rd","New Kensington","15068","PA","USA","40.53474","-79.75987"
"https://www.zillow.com/homedetails/545-Sleepy-Hollow-Rd-Pittsburgh-PA-15228/11310488_zpid/","","","230000","231500","1800","158100","06/09/2023","1480","sqft","155.41","9731.3","sqft","23.64","3","2","","Max Stalter","No","No","","545 Sleepy Hollow Rd","Pittsburgh","15228","PA","USA","40.376186","-80.02251"
"https://www.zillow.com/homedetails/1429-Meadowlark-Dr-Pittsburgh-PA-15243/11314133_zpid/","","","231000","232500","1659","123800","06/08/2023","1134","sqft","203.7","7518.46","sqft","30.72","3","1","","Christina Robertson","No","No","","1429 Meadowlark Dr","Pittsburgh","15243","PA","USA","40.378586","-80.079575"
"https://www.zillow.com/homedetails/11744-Joan-Dr-Pittsburgh-PA-15235/11493129_zpid/","","","234000","235500","1495","76800","06/08/2023","","","","8041.18","sqft","29.1","4","3","","Ryan Shedlock","No","No","","11744 Joan Dr","Pittsburgh","15235","PA","USA","40.458397","-79.83079"
"https://www.zillow.com/homedetails/1110-Oglethorpe-Ave-Pittsburgh-PA-15201/11275284_zpid/","","","232000","233600","1650","68000","06/07/2023","","","","2613.6","sqft","88.77","3","2","","Linda Pelkofer","No","No","","1110 Oglethorpe Ave","Pittsburgh","15201","PA","USA","40.484875","-79.93843"
"https://www.zillow.com/homedetails/1003-Elizabeth-St-Pittsburgh-PA-15221/11455793_zpid/","","","230000","231600","2094","110100","06/05/2023","1860","sqft","123.66","7501.03","sqft","30.66","4","3","","Artem Kovalevskiy","No","No","","1003 Elizabeth St","Pittsburgh","15221","PA","USA","40.42242","-79.83701"
"https://www.zillow.com/homedetails/1610-Blossom-Hill-Rd-Pittsburgh-PA-15234/11396120_zpid/","","","229500","231300","1466","93600","06/02/2023","1203","sqft","190.77","5340.46","sqft","42.97","3","1","","Casey Caudill","No","No","","1610 Blossom Hill Rd","Pittsburgh","15234","PA","USA","40.359226","-80.024956"
"https://www.zillow.com/homedetails/208-Janice-Dr-Pittsburgh-PA-15235/11451238_zpid/","","","229900","231700","1398","72100","06/02/2023","","","","8276.4","sqft","27.78","3","2","","Frances Bartling","No","No","","208 Janice Dr","Pittsburgh","15235","PA","USA","40.46579","-79.83536"
"https://www.zillow.com/homedetails/1132-Princeton-Rd-Pittsburgh-PA-15205/11583014_zpid/","","","231132","233300","1949","162000","05/26/2023","2430","sqft","95.12","0.32","acres","732125.44","4","3","","Kathleen Doehring","No","No","","1132 Princeton Rd","Pittsburgh","15205","PA","USA","40.43307","-80.08153"
"https://www.zillow.com/homedetails/5115-Baptist-Rd-Pittsburgh-PA-15236/11394246_zpid/","","","232000","234500","2058","125800","05/22/2023","1420","sqft","163.38","0.33","acres","703030.3","3","3","","Maria Ball","No","No","","5115 Baptist Rd","Pittsburgh","15236","PA","USA","40.356895","-80.000984"
"https://www.zillow.com/homedetails/1254-Havelock-St-Pittsburgh-PA-15234/11357055_zpid/","","","230000","233100","1498","80000","05/12/2023","","","","0.5","acres","460000","3","1","","Patty Irr","No","No","","1254 Havelock St","Pittsburgh","15234","PA","USA","40.36905","-80.00889"
"https://www.zillow.com/homedetails/3390-Columbia-Dr-Pittsburgh-PA-15234/11357672_zpid/","","","230000","233100","1734","104300","05/12/2023","","","","0.57","acres","402097.9","3","2","","Mary DeCort-Rhodes","No","No","","3390 Columbia Dr","Pittsburgh","15234","PA","USA","40.372974","-80.017235"
"https://www.zillow.com/homedetails/545-Spruce-St-Verona-PA-15147/11448414_zpid/","","","230000","233100","1495","52500","05/12/2023","1448","sqft","158.84","3375.9","sqft","68.13","4","2","","Staci Rullo","No","No","","545 Spruce St","Verona","15147","PA","USA","40.507465","-79.83735"
"https://www.zillow.com/homedetails/1120-Fawcett-St-Coraopolis-PA-15108/11478931_zpid/","","","230000","233100","1729","117900","05/12/2023","","","","0.45","acres","511111.11","3","2","","Dee Minear","No","No","","1120 Fawcett St","Coraopolis","15108","PA","USA","40.513447","-80.16878"
"https://www.zillow.com/homedetails/686-Pine-Valley-Dr-Pittsburgh-PA-15239/11262394_zpid/","","","230000","233600","1800","129900","05/05/2023","1376","sqft","167.15","10585.08","sqft","21.73","3","3","","Lauren Klein","No","No","","686 Pine Valley Dr","Pittsburgh","15239","PA","USA","40.462246","-79.71889"
"https://www.zillow.com/homedetails/2514-Collins-Rd-Pittsburgh-PA-15235/11417816_zpid/","","","234000","237600","1500","120400","05/05/2023","1176","sqft","198.98","9901.19","sqft","23.63","3","2","","Lillian Denhardt","No","No","","2514 Collins Rd","Pittsburgh","15235","PA","USA","40.44927","-79.84985"
"https://www.zillow.com/homedetails/530-12th-St-Pitcairn-PA-15140/11601368_zpid/","","","230000","233700","1699","121800","05/03/2023","1994","sqft","115.35","0.32","acres","728534.03","3","2","","","No","No","","530 12th St","Pitcairn","15140","PA","USA","40.40956","-79.77367"
"https://www.zillow.com/homedetails/1125-Sodbury-Dr-South-Park-PA-15129/11251820_zpid/","","","230000","234100","1700","133600","04/28/2023","1266","sqft","181.67","10323.72","sqft","22.28","4","2","","Marie Lynch","No","No","","1125 Sodbury Dr","South Park","15129","PA","USA","40.28033","-79.985374"
"https://www.zillow.com/homedetails/531-Farnsworth-St-Pittsburgh-PA-15207/11544700_zpid/","","","229525","233600","1400","118500","04/28/2023","1238","sqft","185.4","5458.07","sqft","42.05","2","2","","Steve Rabinovich","No","No","","531 Farnsworth St","Pittsburgh","15207","PA","USA","40.42353","-79.940575"
"https://www.zillow.com/homedetails/1151-Alice-Ave-Clairton-PA-15025/11312541_zpid/","","","230000","234200","1400","21100","04/27/2023","","","","8062.96","sqft","28.53","3","3","","Kenneth Presock","No","No","","1151 Alice Ave","Clairton","15025","PA","USA","40.25635","-79.92341"
"https://www.zillow.com/homedetails/5214-Fieldcrest-Dr-Pittsburgh-PA-15236/11394217_zpid/","","","230000","234300","1452","137200","04/26/2023","","","","7766.75","sqft","29.61","3","2","","Wendy Weaver","No","No","","5214 Fieldcrest Dr","Pittsburgh","15236","PA","USA","40.356537","-80.00407"
"https://www.zillow.com/homedetails/120-Elmwood-Dr-Glenshaw-PA-15116/11526030_zpid/","","","233020","237900","1650","103900","04/20/2023","","","","10637.35","sqft","21.91","3","1","","","No","No","","120 Elmwood Dr","Glenshaw","15116","PA","USA","40.544395","-79.97945"
"https://www.zillow.com/homedetails/667-Frayne-St-Pittsburgh-PA-15207/11545332_zpid/","","","231000","235800","1842","75000","04/20/2023","1725","sqft","133.91","2888.03","sqft","79.99","5","2","","Morgan McIlrath","No","No","","667 Frayne St","Pittsburgh","15207","PA","USA","40.418667","-79.93462"
"https://www.zillow.com/homedetails/225-Ledgedale-St-Pittsburgh-PA-15205/11362591_zpid/","","","233500","238500","1450","77500","04/19/2023","1675","sqft","139.4","9827.14","sqft","23.76","3","1","","William Jacoby","No","No","","225 Ledgedale St","Pittsburgh","15205","PA","USA","40.436817","-80.04719"
"https://www.zillow.com/homedetails/1004-Lessing-St-Pittsburgh-PA-15220/11480114_zpid/","","","232500","237500","1642","93900","04/19/2023","1160","sqft","200.43","5549.54","sqft","41.9","4","2","","Michael Reed","No","No","","1004 Lessing St","Pittsburgh","15220","PA","USA","40.44418","-80.049614"
"https://www.zillow.com/homedetails/510-Oxford-Blvd-Pittsburgh-PA-15243/11360430_zpid/","","","230000","338300","1900","149700","04/18/2023","1265","sqft","181.82","7801.6","sqft","29.48","3","2","","Tina Nobers","No","No","","510 Oxford Blvd","Pittsburgh","15243","PA","USA","40.370415","-80.07821"
"https://www.zillow.com/homedetails/5528-Pleasant-St-South-Park-PA-15129/11607512_zpid/","","","230000","235000","1650","115000","04/18/2023","1810","sqft","127.07","0.34","acres","667920","3","1","","","No","No","","5528 Pleasant St","South Park","15129","PA","USA","40.298405","-80.02085"
"https://www.zillow.com/homedetails/143-McKenzie-Dr-Pittsburgh-PA-15235/11534321_zpid/","","","230000","235400","1749","94700","04/13/2023","","","","0.33","acres","703363.91","3","3","","Bonnie Heinecke","No","No","","143 McKenzie Dr","Pittsburgh","15235","PA","USA","40.45032","-79.804"
"https://www.zillow.com/homedetails/1445-Kelton-Ave-Pittsburgh-PA-15216/11655085_zpid/","","","230000","235500","1699","88000","04/12/2023","1620","sqft","141.98","3088.4","sqft","74.47","4","2","","Joey Booker","No","No","","1445 Kelton Ave","Pittsburgh","15216","PA","USA","40.393593","-80.03843"
"https://www.zillow.com/homedetails/118-Holstein-Dr-Oakdale-PA-15071/59848978_zpid/","","","230000","235600","1584","131600","04/11/2023","875","sqft","262.86","8276.4","sqft","27.79","3","2","","Brooke Witterman","No","No","","118 Holstein Dr","Oakdale","15071","PA","USA","40.440224","-80.203674"
"https://www.zillow.com/homedetails/236-Shenandoah-Dr-Pittsburgh-PA-15235/11531966_zpid/","","","230000","235400","1649","86200","04/07/2023","1640","sqft","140.24","8407.08","sqft","27.36","3","2","","Marian Kubli","No","No","","236 Shenandoah Dr","Pittsburgh","15235","PA","USA","40.472775","-79.81343"
"https://www.zillow.com/homedetails/127-Wise-Ln-Pittsburgh-PA-15209/11443446_zpid/","","","230000","236200","2100","134600","04/04/2023","","","","10500","sqft","21.9","4","2","","Fran Molinaro","No","No","","127 Wise Ln","Pittsburgh","15209","PA","USA","40.521214","-79.973366"
"https://www.zillow.com/homedetails/314-Rockfield-Rd-Pittsburgh-PA-15243/11361518_zpid/","","","230000","235900","1895","171000","03/31/2023","1913","sqft","120.23","6011.28","sqft","38.26","3","2","","Erin Adams","No","No","","314 Rockfield Rd","Pittsburgh","15243","PA","USA","40.369183","-80.0929"
"https://www.zillow.com/homedetails/720-Malibran-Dr-Pittsburgh-PA-15237/11558582_zpid/","","","230000","235900","1764","159500","03/31/2023","882","sqft","260.77","10497.96","sqft","21.91","2","2","","Julie Mikus","No","No","","720 Malibran Dr","Pittsburgh","15237","PA","USA","40.556942","-80.02418"
"https://www.zillow.com/homedetails/2886-McNeal-Rd-Allison-Park-PA-15101/11259026_zpid/","","","230000","236000","1613","117200","03/30/2023","987","sqft","233.03","0.55","acres","422018.35","3","2","","Joey Booker","No","No","","2886 McNeal Rd","Allison Park","15101","PA","USA","40.59824","-79.945526"
"https://www.zillow.com/homedetails/1188-Cambon-Dr-Crescent-PA-15046/11614019_zpid/","","","234900","241200","1676","105200","03/28/2023","1250","sqft","187.92","10471","sqft","22.43","3","1.5","","","No","No","","1188 Cambon Dr","Crescent","15046","PA","USA","40.556767","-80.2486"
"https://www.zillow.com/homedetails/222-Camp-Horne-Rd-Pittsburgh-PA-15202/11404930_zpid/","","","232500","239000","3471","80400","03/24/2023","2880","sqft","80.73","0.28","acres","818661.97","4","3","","John Woloshyn","No","No","","222 Camp Horne Rd","Pittsburgh","15202","PA","USA","40.51575","-80.09273"
"https://www.zillow.com/homedetails/503-Idlewood-Rd-Pittsburgh-PA-15235/11532835_zpid/","","","229900","236300","1599","57000","03/24/2023","1716","sqft","133.97","10110.28","sqft","22.74","4","2","","LeSans Montgomery","No","No","","503 Idlewood Rd","Pittsburgh","15235","PA","USA","40.46507","-79.808205"
"https://www.zillow.com/homedetails/539-Lucy-Dr-Pittsburgh-PA-15236/11470801_zpid/","","","230000","236600","1650","147700","03/22/2023","1232","sqft","186.69","6873.77","sqft","33.46","3","2","","Lauren Coulter","No","No","","539 Lucy Dr","Pittsburgh","15236","PA","USA","40.340893","-80.00137"
"https://www.zillow.com/homedetails/1171-Saint-Vincent-Dr-Monroeville-PA-15146/11627896_zpid/","","","230000","230200","1727","116600","03/22/2023","1288","sqft","178.57","8489.84","sqft","27.09","3","3","","Christy Kotwica","No","No","","1171 Saint Vincent Dr","Monroeville","15146","PA","USA","40.420277","-79.75295"
"https://www.zillow.com/homedetails/11-Park-Dr-Cheswick-PA-15024/11319211_zpid/","","","230000","237000","1569","111000","03/17/2023","1365","sqft","168.5","0.44","acres","520715.42","3","2","","Connie Rusek","No","No","","11 Park Dr","Cheswick","15024","PA","USA","40.620316","-79.86353"
"https://www.zillow.com/homedetails/5206-Blossom-Rd-Pittsburgh-PA-15236/11469237_zpid/","","","234000","241200","1294","94800","03/17/2023","925","sqft","252.97","10362.92","sqft","22.58","3","2","","Kristi Voelker","No","No","","5206 Blossom Rd","Pittsburgh","15236","PA","USA","40.343792","-79.99606"
"https://www.zillow.com/homedetails/1095-Kelton-Ave-Pittsburgh-PA-15216/11656365_zpid/","","","233000","240300","1649","71000","03/15/2023","1144","sqft","203.67","7710.12","sqft","30.22","3","1","","Robert Dini","No","No","","1095 Kelton Ave","Pittsburgh","15216","PA","USA","40.38903","-80.03465"
"https://www.zillow.com/homedetails/5319-Spring-Valley-Dr-Pittsburgh-PA-15236/11394070_zpid/","","","230000","237400","1681","122000","03/13/2023","","","","7396.49","sqft","31.1","3","2","","Jordan Jankowski","No","No","","5319 Spring Valley Dr","Pittsburgh","15236","PA","USA","40.357056","-80.008736"
"https://www.zillow.com/homedetails/3069-Countryside-Dr-Allison-Park-PA-15101/11561225_zpid/","","","230000","237900","1999","112700","03/06/2023","1233","sqft","186.54","7052.36","sqft","32.61","3","2","","Dana Pietrzak","No","No","","3069 Countryside Dr","Allison Park","15101","PA","USA","40.55072","-79.952965"
"https://www.zillow.com/homedetails/1-Dartmouth-Ave-Pittsburgh-PA-15229/11406349_zpid/","","","230000","269700","1762","62600","03/03/2023","","","","4791.6","sqft","48","3","2","","Kelly Kuzemchak","No","No","","1 Dartmouth Ave","Pittsburgh","15229","PA","USA","40.51738","-80.04534"
"https://www.zillow.com/homedetails/1356-Washington-Rd-Pittsburgh-PA-15228/11396839_zpid/","","","230000","238400","2250","192500","03/02/2023","1728","sqft","133.1","8725.07","sqft","26.36","3","3","","Reijin DeCuir","No","No","","1356 Washington Rd","Pittsburgh","15228","PA","USA","40.361588","-80.047134"
"https://www.zillow.com/homedetails/4080-Cambronne-St-Pittsburgh-PA-15212/11268422_zpid/","","","233000","241600","2181","74200","03/01/2023","1442","sqft","161.58","3001.28","sqft","77.63","5","4","","Giovanni Fedele","No","No","","4080 Cambronne St","Pittsburgh","15212","PA","USA","40.48873","-80.043274"
"https://www.zillow.com/homedetails/6800-Ridgevue-Dr-Pittsburgh-PA-15236/11547213_zpid/","","","234100","242800","1550","117500","02/28/2023","","","","0.25","acres","936400","3","1","","Steve Wasieleski","No","No","","6800 Ridgevue Dr","Pittsburgh","15236","PA","USA","40.318813","-79.98918"
"https://www.zillow.com/homedetails/4220-Colonial-Park-Dr-Pittsburgh-PA-15227/11355626_zpid/","","","232000","241000","1685","134200","02/24/2023","1715","sqft","135.28","0.27","acres","852314.47","4","3","","Cindy Schmidt","No","No","","4220 Colonial Park Dr","Pittsburgh","15227","PA","USA","40.366222","-79.9867"
"https://www.zillow.com/homedetails/145-Buehner-Dr-Pittsburgh-PA-15237/11483969_zpid/","","","230000","238900","1650","125600","02/24/2023","","","","9731.3","sqft","23.64","3","1","","Angie Xu","No","No","","145 Buehner Dr","Pittsburgh","15237","PA","USA","40.539467","-80.018105"
"https://www.zillow.com/homedetails/434-Hazelwood-Ave-Pittsburgh-PA-15207/11545649_zpid/","","","232000","241000","1605","51700","02/24/2023","","","","0.34","acres","682352.94","4","3","","Mary Scafede","No","No","","434 Hazelwood Ave","Pittsburgh","15207","PA","USA","40.41422","-79.939186"
"https://www.zillow.com/homedetails/347-Johnston-Ave-Pittsburgh-PA-15207/11551088_zpid/","","","230000","239200","1577","31900","02/21/2023","2621","sqft","87.75","5508","sqft","41.76","5","1","","","No","No","","347 Johnston Ave","Pittsburgh","15207","PA","USA","40.406155","-79.93818"
"https://www.zillow.com/homedetails/355-Hochberg-Rd-Monroeville-PA-15146/11262624_zpid/","","","230000","239600","1746","145300","02/17/2023","","","","0.3","acres","766666.67","3","2","","Bertie Verbanac","No","No","","355 Hochberg Rd","Monroeville","15146","PA","USA","40.447968","-79.73129"
"https://www.zillow.com/homedetails/1210-Pocono-St-Pittsburgh-PA-15218/11290243_zpid/","","","230000","239600","1728","83000","02/17/2023","1080","sqft","212.96","2500.34","sqft","91.99","3","2","","Joe Paolazzi","No","No","","1210 Pocono St","Pittsburgh","15218","PA","USA","40.419357","-79.90373"
"https://www.zillow.com/homedetails/1029-5th-Street-Ext-Verona-PA-15147/11489465_zpid/","","","230000","239500","1400","58100","02/09/2023","1076","sqft","213.75","0.87","acres","263513.94","2","2","","","No","No","","1029 5th Street Ext","Verona","15147","PA","USA","40.51176","-79.832146"
"https://www.zillow.com/homedetails/1631-Lime-Hollow-Rd-Pittsburgh-PA-15235/11492176_zpid/","","","233900","243600","1548","65700","02/09/2023","1629","sqft","143.59","0.63","acres","369977.86","4","2","","Rick Brown","No","No","","1631 Lime Hollow Rd","Pittsburgh","15235","PA","USA","40.469433","-79.826775"
"https://www.zillow.com/homedetails/1029-5th-Ext-Verona-PA-15147/2060199838_zpid/","","","230000","239600","1497","","02/08/2023","","","","0.87","acres","263519.71","3","2","","Tom McMann","No","No","","1029 5th Ext","Verona","15147","PA","USA","40.51184","-79.832634"
"https://www.zillow.com/homedetails/3502-W-Stag-Dr-Gibsonia-PA-15044/11318314_zpid/","","","230000","240100","1999","116500","02/02/2023","925","sqft","248.65","0.43","acres","535631.11","3","2","","Robert Giancola","No","No","","3502 W Stag Dr","Gibsonia","15044","PA","USA","40.62015","-79.91839"
"https://www.zillow.com/homedetails/3702-Belladonna-Dr-Glenshaw-PA-15116/11560511_zpid/","","","230000","240400","1999","159500","01/27/2023","1152","sqft","199.65","0.28","acres","813871.2","3","2","","Judi Sahayda","No","No","","3702 Belladonna Dr","Glenshaw","15116","PA","USA","40.55242","-79.97947"
"https://www.zillow.com/homedetails/1100-Clinton-St-North-Versailles-PA-15137/11538586_zpid/","","","230000","240500","1315","121200","01/25/2023","1758","sqft","130.83","0.33","acres","694785.02","3","1","","","No","No","","1100 Clinton St","North Versailles","15137","PA","USA","40.375477","-79.80439"
"https://www.zillow.com/homedetails/1100-Clinton-Ave-North-Versailles-PA-15137/2060830922_zpid/","","","230000","240600","1949","","01/24/2023","1758","sqft","130.83","0.33","acres","694864.05","3","3","","Elizabeth Bires","No","No","","1100 Clinton Ave","North Versailles","15137","PA","USA","40.375443","-79.80424"
"https://www.zillow.com/homedetails/1114-E-Warrington-Ave-Pittsburgh-PA-15210/11315313_zpid/","","","230000","188800","1500","45000","01/20/2023","1600","sqft","143.75","2200","sqft","104.55","3","1.5","","","No","No","","1114 E Warrington Ave","Pittsburgh","15210","PA","USA","40.42228","-79.98592"
"https://www.zillow.com/homedetails/654-Highland-Pl-Pittsburgh-PA-15202/11369082_zpid/","","","232500","243700","1440","96700","01/13/2023","1430","sqft","162.59","3606.77","sqft","64.46","3","1","","Beth Danchek","No","No","","654 Highland Pl","Pittsburgh","15202","PA","USA","40.504826","-80.05691"
"https://www.zillow.com/homedetails/2669-Winchester-Dr-Pittsburgh-PA-15220/11452887_zpid/","","","232500","244000","1898","121600","01/06/2023","2029","sqft","114.59","9043.06","sqft","25.71","6","3","","Maribeth Cringle","No","No","","2669 Winchester Dr","Pittsburgh","15220","PA","USA","40.410187","-80.04294"
"https://www.zillow.com/homedetails/8394-Van-Buren-Dr-Pittsburgh-PA-15237/11557819_zpid/","","","230000","241500","1999","146000","01/04/2023","1420","sqft","161.97","9374.11","sqft","24.54","3","2","","David Onufer","No","No","","8394 Van Buren Dr","Pittsburgh","15237","PA","USA","40.559334","-80.048546"
"https://www.zillow.com/homedetails/2018-Cutter-Dr-Mc-Kees-Rocks-PA-15136/11321077_zpid/","","","230000","241600","1895","150100","01/03/2023","1290","sqft","178.29","9748.73","sqft","23.59","4","2","","Jennifer Stout","No","No","","2018 Cutter Dr","Mc Kees Rocks","15136","PA","USA","40.468113","-80.10808"
"https://www.zillow.com/homedetails/960-Delfield-Dr-Bethel-Park-PA-15102/11579825_zpid/","","","230000","241700","1800","120000","12/30/2022","1500","sqft","153.33","21.78","sqft","10560.15","3","2","","Beverly Fusco","No","No","","960 Delfield Dr","Bethel Park","15102","PA","USA","40.308647","-80.04621"
"https://www.zillow.com/homedetails/148-Roswin-Dr-Pittsburgh-PA-15226/11649140_zpid/","","","230000","241800","1614","106200","12/28/2022","","","","4665.28","sqft","49.3","3","2","","Kula Kharel","No","No","","148 Roswin Dr","Pittsburgh","15226","PA","USA","40.394295","-80.011154"
"https://www.zillow.com/homedetails/1132-Berkshire-Ave-Pittsburgh-PA-15226/11649868_zpid/","","","230000","241800","1934","109000","12/27/2022","1523","sqft","151.02","3484.8","sqft","66","4","3","","Dale Swanton","No","No","","1132 Berkshire Ave","Pittsburgh","15226","PA","USA","40.38925","-80.01591"
"https://www.zillow.com/homedetails/3-Clark-St-Carnegie-PA-15106/59843206_zpid/","","","229900","209800","1900","126400","12/19/2022","2280","sqft","100.83","6250.86","sqft","36.78","4","3","","Duane Palmieri","No","No","","3 Clark St","Carnegie","15106","PA","USA","40.398697","-80.110085"
"https://www.zillow.com/homedetails/221-Jonquil-Pl-Pittsburgh-PA-15228/11311467_zpid/","","","230000","242100","1481","141500","12/16/2022","1238","sqft","185.78","7108.99","sqft","32.35","3","2","","Susan Cancelliere","No","No","","221 Jonquil Pl","Pittsburgh","15228","PA","USA","40.380756","-80.03467"
"https://www.zillow.com/homedetails/1238-Arrowood-Dr-Pittsburgh-PA-15243/11360966_zpid/","","","229900","242000","1895","153200","12/15/2022","","","","7405.2","sqft","31.05","3","2","","Marcie Parrish","No","No","","1238 Arrowood Dr","Pittsburgh","15243","PA","USA","40.36862","-80.0693"
"https://www.zillow.com/homedetails/2424-Greensburg-Pike-Pittsburgh-PA-15221/11418579_zpid/","","","230000","242100","1565","127700","12/15/2022","1500","sqft","153.33","7627.36","sqft","30.15","3","2","","John Mahoy","No","No","","2424 Greensburg Pike","Pittsburgh","15221","PA","USA","40.43985","-79.855644"
"https://www.zillow.com/homedetails/925-Garden-City-Dr-Monroeville-PA-15146/11600031_zpid/","","","232500","244800","1483","105000","12/15/2022","2000","sqft","116.25","10659.13","sqft","21.81","3","2","","Lauren Klein","No","No","","925 Garden City Dr","Monroeville","15146","PA","USA","40.45184","-79.782326"
"https://www.zillow.com/homedetails/102-Castle-Hill-Rd-Monroeville-PA-15146/11630321_zpid/","","","232000","244200","1739","120700","12/15/2022","1412","sqft","164.31","7509.74","sqft","30.89","3","2","","David Hall","No","No","","102 Castle Hill Rd","Monroeville","15146","PA","USA","40.39952","-79.75608"
"https://www.zillow.com/homedetails/723-Illini-Dr-Monroeville-PA-15146/11262811_zpid/","","","229900","242200","1770","107700","12/09/2022","1350","sqft","170.3","9043.06","sqft","25.42","4","3","","Kevin Shaner","No","No","","723 Illini Dr","Monroeville","15146","PA","USA","40.437057","-79.723"
"https://www.zillow.com/homedetails/44-N-Harrison-Ave-Pittsburgh-PA-15202/11326070_zpid/","","","230000","242300","1849","105900","12/09/2022","2009","sqft","114.48","7200.47","sqft","31.94","3","2","","Shanna Funwela","No","No","","44 N Harrison Ave","Pittsburgh","15202","PA","USA","40.494698","-80.05084"
"https://www.zillow.com/homedetails/4065-Lee-Manor-Dr-Allison-Park-PA-15101/11592993_zpid/","","","231000","243400","1627","122900","12/07/2022","1035","sqft","223.19","0.53","acres","438829.79","2","2","","Don Heisler","No","No","","4065 Lee Manor Dr","Allison Park","15101","PA","USA","40.566345","-79.94543"
"https://www.zillow.com/homedetails/2612-Elgro-Rd-Gibsonia-PA-15044/11298224_zpid/","","","230000","242500","1999","123300","12/02/2022","2116","sqft","108.7","2","acres","115000","3","2","","Lisa Wilson","No","No","","2612 Elgro Rd","Gibsonia","15044","PA","USA","40.615303","-79.960884"
"https://www.zillow.com/homedetails/600-Malibran-Dr-Pittsburgh-PA-15237/11558503_zpid/","","","230000","242500","1814","130300","12/02/2022","1072","sqft","214.55","0.28","acres","823192.56","2","2","","Julie Mikus","No","No","","600 Malibran Dr","Pittsburgh","15237","PA","USA","40.556892","-80.026634"
"https://www.zillow.com/homedetails/440-Colonial-Dr-Monroeville-PA-15146/11626854_zpid/","","","230000","242500","2440","146100","12/02/2022","1948","sqft","118.07","0.29","acres","784180.02","4","3","","Justin Cummings","No","No","","440 Colonial Dr","Monroeville","15146","PA","USA","40.454247","-79.76502"
"https://www.zillow.com/homedetails/416-Boyd-Blvd-Verona-PA-15147/11531345_zpid/","","","234655","247400","1581","125300","12/01/2022","","","","8276.4","sqft","28.35","3","2","","Maureen States","No","No","","416 Boyd Blvd","Verona","15147","PA","USA","40.495228","-79.815186"
"https://www.zillow.com/homedetails/140-Jacks-Run-Rd-Pittsburgh-PA-15214/11327508_zpid/","","","230000","242600","1690","129000","11/30/2022","","","","0.6","acres","385517.93","3","1","","Dawn Ross","No","No","","140 Jacks Run Rd","Pittsburgh","15214","PA","USA","40.499065","-80.02763"
"https://www.zillow.com/homedetails/1394-Washington-Blvd-McKeesport-PA-15133/11465597_zpid/","","","232000","244700","2370","130900","11/30/2022","","","","8250.26","sqft","28.12","5","3","","Jason Ruzich","No","No","","1394 Washington Blvd","McKeesport","15133","PA","USA","40.339996","-79.87759"
"https://www.zillow.com/homedetails/528-Rainier-Dr-Pittsburgh-PA-15239/11262172_zpid/","","","234500","247300","1741","110800","11/29/2022","","","","8489.84","sqft","27.62","3","2","","Aimee Berardi","No","No","","528 Rainier Dr","Pittsburgh","15239","PA","USA","40.467236","-79.71929"
"https://www.zillow.com/homedetails/304-Rockfield-Rd-Pittsburgh-PA-15243/11361523_zpid/","","","230000","242600","1895","135900","11/28/2022","","","","6098.4","sqft","37.71","3","2","","Kathleen Mathison","No","No","","304 Rockfield Rd","Pittsburgh","15243","PA","USA","40.3697","-80.09311"
"https://www.zillow.com/homedetails/4545-Cherryland-St-Pittsburgh-PA-15214/11328168_zpid/","","","234500","247400","1650","115300","11/23/2022","1207","sqft","194.28","0.4","acres","586250","3","1","","Ned Bruns","No","No","","4545 Cherryland St","Pittsburgh","15214","PA","USA","40.49929","-80.009186"
"https://www.zillow.com/homedetails/1174-Locust-Ave-Pittsburgh-PA-15236/11508291_zpid/","","","230000","242700","1500","78200","11/23/2022","1232","sqft","186.69","3750","sqft","61.33","3","1","","","No","No","","1174 Locust Ave","Pittsburgh","15236","PA","USA","40.3289","-79.99006"
"https://www.zillow.com/homedetails/1192-Hillcrest-Ave-Pittsburgh-PA-15220/11460394_zpid/","","","230000","242700","1832","117300","11/18/2022","1500","sqft","153.33","10842","sqft","21.21","4","1.5","","","No","No","","1192 Hillcrest Ave","Pittsburgh","15220","PA","USA","40.407658","-80.05436"
"https://www.zillow.com/homedetails/92-E-Steuben-St-Pittsburgh-PA-15205/11475643_zpid/","","","233000","245900","1900","143700","11/18/2022","2845","sqft","81.9","10023.16","sqft","23.25","4","2","","Luanne Ryan","No","No","","92 E Steuben St","Pittsburgh","15205","PA","USA","40.43865","-80.06252"
"https://www.zillow.com/homedetails/157-Penn-Crest-Cir-McKeesport-PA-15131/11573445_zpid/","","","234900","247900","1702","132500","11/18/2022","2052","sqft","114.47","9351","sqft","25.12","4","2","","","No","No","","157 Penn Crest Cir","McKeesport","15131","PA","USA","40.332306","-79.78968"
"https://www.zillow.com/homedetails/157-Penn-Crest-Dr-McKeesport-PA-15131/2061742987_zpid/","","","234900","","1594","","11/18/2022","2052","sqft","114.47","9352.33","sqft","25.12","4","3","","Jordan Jankowski","No","No","","157 Penn Crest Dr","McKeesport","15131","PA","USA","40.332306","-79.78968"
"https://www.zillow.com/homedetails/17-Lancewood-Dr-Pittsburgh-PA-15235/11454178_zpid/","","","233500","246400","1934","133900","11/17/2022","1666","sqft","140.16","0.27","acres","862897.27","3","3","","Christine Wilson","No","No","","17 Lancewood Dr","Pittsburgh","15235","PA","USA","40.43898","-79.84502"
"https://www.zillow.com/homedetails/538-Torwood-Ln-Pittsburgh-PA-15236/11546503_zpid/","","","230000","242800","1681","130100","11/16/2022","1516","sqft","151.72","9147.6","sqft","25.14","3","2","","Doreen Walters","No","No","","538 Torwood Ln","Pittsburgh","15236","PA","USA","40.324383","-79.97101"
"https://www.zillow.com/homedetails/157-Clairmont-Ave-Pittsburgh-PA-15229/11408408_zpid/","","","231000","243900","1533","101300","11/10/2022","1314","sqft","175.8","4482.32","sqft","51.54","3","1","","Jim Belchick","No","No","","157 Clairmont Ave","Pittsburgh","15229","PA","USA","40.516758","-80.0206"
"https://www.zillow.com/homedetails/2483-Alydar-Dr-Wexford-PA-15090/11257443_zpid/","","","230000","242900","2800","230000","11/09/2022","2268","sqft","101.41","0.46","acres","499990.02","4","2.5","","","No","No","","2483 Alydar Dr","Wexford","15090","PA","USA","40.598774","-80.08154"
"https://www.zillow.com/homedetails/308-Penn-Lear-Ct-Monroeville-PA-15146/11630192_zpid/","","","230000","242900","1988","151000","11/09/2022","1504","sqft","152.93","0.59","acres","389830.51","4","3","","Omolara Ajewole","No","No","","308 Penn Lear Ct","Monroeville","15146","PA","USA","40.399776","-79.75958"
"https://www.zillow.com/homedetails/125-Leslie-Rd-Monroeville-PA-15146/11628466_zpid/","","","232000","245000","2400","184300","11/04/2022","","","","10023.16","sqft","23.15","4","3","","Deborah DiLorenzo","No","No","","125 Leslie Rd","Monroeville","15146","PA","USA","40.408806","-79.75192"
"https://www.zillow.com/homedetails/1304-Crucible-St-Pittsburgh-PA-15220/11366500_zpid/","","","230000","269000","2214","102000","11/03/2022","1504","sqft","152.93","6455.59","sqft","35.63","3","4","","Kelly Luhn","No","No","","1304 Crucible St","Pittsburgh","15220","PA","USA","40.44691","-80.04618"
"https://www.zillow.com/homedetails/6504-Rosemoor-St-Pittsburgh-PA-15217/11639610_zpid/","","","230000","242900","1729","121000","11/03/2022","1404","sqft","163.82","1873.08","sqft","122.79","3","2","","Elizabeth Kofmehl","No","No","","6504 Rosemoor St","Pittsburgh","15217","PA","USA","40.42246","-79.923706"
"https://www.zillow.com/homedetails/1939-Worcester-Dr-Pittsburgh-PA-15243/11361906_zpid/","","","231000","244000","1778","150400","10/28/2022","1527","sqft","151.28","6969.6","sqft","33.14","2","2","","Roberta Mikita","No","No","","1939 Worcester Dr","Pittsburgh","15243","PA","USA","40.36603","-80.08302"
"https://www.zillow.com/homedetails/414-Patsy-Dr-Gibsonia-PA-15044/59852493_zpid/","","","230900","243900","1975","120000","10/26/2022","1331","sqft","173.48","0.89","acres","259730.03","3","2","","Lisa Peters","No","No","","414 Patsy Dr","Gibsonia","15044","PA","USA","40.63354","-79.999825"
"https://www.zillow.com/homedetails/6036-Oak-Park-Dr-Bethel-Park-PA-15102/11607982_zpid/","","","230000","243000","1599","113800","10/25/2022","984","sqft","233.74","0.42","acres","543349.87","3","1","","Jim Dolanch","No","No","","6036 Oak Park Dr","Bethel Park","15102","PA","USA","40.299824","-80.04302"
"https://www.zillow.com/homedetails/3501-W-Run-Rd-Homestead-PA-15120/11295306_zpid/","","","230000","243000","1580","79200","10/24/2022","1414","sqft","162.66","8241.55","sqft","27.91","4","2","","Linda Ehland","No","No","","3501 W Run Rd","Homestead","15120","PA","USA","40.38677","-79.911766"
"https://www.zillow.com/homedetails/5104-Lantern-Hill-Dr-Pittsburgh-PA-15236/11393514_zpid/","","","232000","245100","1700","149400","10/24/2022","1656","sqft","140.1","9687.74","sqft","23.95","4","2","","Nicole Johns","No","No","","5104 Lantern Hill Dr","Pittsburgh","15236","PA","USA","40.363636","-80.0035"
"https://www.zillow.com/homedetails/204-Santa-Fe-Dr-Bethel-Park-PA-15102/11432207_zpid/","","","230000","242800","1734","123600","10/21/2022","1131","sqft","203.36","0.26","acres","869565.22","3","2","","Jennifer Solomon","No","No","","204 Santa Fe Dr","Bethel Park","15102","PA","USA","40.349804","-80.03339"
"https://www.zillow.com/homedetails/7900-Marmion-Dr-Pittsburgh-PA-15237/11558813_zpid/","","","230000","242800","1740","124500","10/18/2022","","","","8015.04","sqft","28.7","3","2","","Nancy Snider","No","No","","7900 Marmion Dr","Pittsburgh","15237","PA","USA","40.552032","-80.02548"
"https://www.zillow.com/homedetails/218-Evans-Ave-West-Mifflin-PA-15122/11506366_zpid/","","","230000","222500","1300","90700","10/17/2022","1248","sqft","184.29","1.21","acres","190082.64","2","2","","Jacob Rady","No","No","","218 Evans Ave","West Mifflin","15122","PA","USA","40.331745","-79.93881"
"https://www.zillow.com/homedetails/741-Ohio-River-Blvd-Pittsburgh-PA-15202/11323078_zpid/","","","230000","242700","1852","83300","10/07/2022","","","","6098.4","sqft","37.71","4","3","","Karen Campbell","No","No","","741 Ohio River Blvd","Pittsburgh","15202","PA","USA","40.49754","-80.06913"
"https://www.zillow.com/homedetails/3137-Saxonburg-Rd-Natrona-Heights-PA-15065/11371535_zpid/","","","230000","242700","2100","94900","10/07/2022","1892","sqft","121.56","1.3","acres","176923.08","3","3","","Danielle Guthrie","No","No","","3137 Saxonburg Rd","Natrona Heights","15065","PA","USA","40.66367","-79.730225"
"https://www.zillow.com/homedetails/453-Colonial-Dr-Monroeville-PA-15146/11626837_zpid/","","","232500","246100","1698","113500","10/07/2022","1298","sqft","179.12","0.27","acres","864312.27","3","3","","Austin Rusert","No","No","","453 Colonial Dr","Monroeville","15146","PA","USA","40.454247","-79.763336"
"https://www.zillow.com/homedetails/243-Alpine-Village-Dr-Cheswick-PA-15024/11259569_zpid/","","","232000","246000","1492","90000","09/30/2022","1122","sqft","206.77","9234.72","sqft","25.12","3","2","","Dulcia Gum","No","No","","243 Alpine Village Dr","Cheswick","15024","PA","USA","40.59084","-79.87293"
"https://www.zillow.com/homedetails/424-Mohican-Ave-Pittsburgh-PA-15237/11617893_zpid/","","","234000","247600","1768","128800","09/30/2022","1314","sqft","178.08","8502.91","sqft","27.52","3","1","","Cristin Zorman","No","No","","424 Mohican Ave","Pittsburgh","15237","PA","USA","40.571487","-80.04571"
"https://www.zillow.com/homedetails/54-Kilbuck-St-Pittsburgh-PA-15202/11405123_zpid/","","","230000","243300","1414","133400","09/29/2022","1504","sqft","152.93","4024.94","sqft","57.14","3","1","","Shannon Kosko","No","No","","54 Kilbuck St","Pittsburgh","15202","PA","USA","40.513268","-80.08969"
"https://www.zillow.com/homedetails/3510-W-Stag-Dr-Gibsonia-PA-15044/11318310_zpid/","","","229900","243100","1998","110700","09/23/2022","925","sqft","248.54","0.29","acres","802163.29","4","2","","Heather Welsh","No","No","","3510 W Stag Dr","Gibsonia","15044","PA","USA","40.61985","-79.91958"
"https://www.zillow.com/homedetails/5089-Fieldcrest-Dr-Pittsburgh-PA-15236/11394177_zpid/","","","229900","243100","1700","123000","09/23/2022","1725","sqft","133.28","","","","3","2","","Jeff Earley","No","No","","5089 Fieldcrest Dr","Pittsburgh","15236","PA","USA","40.357773","-80.00741"
"https://www.zillow.com/homedetails/387-McClellan-Dr-Pittsburgh-PA-15236/11507683_zpid/","","","230000","243200","1990","110700","09/23/2022","1744","sqft","131.88","7801.6","sqft","29.48","4","3","","Gina Mercorelli-Diaz","No","No","","387 McClellan Dr","Pittsburgh","15236","PA","USA","40.33154","-79.9695"
"https://www.zillow.com/homedetails/473-Calvert-Ave-Pittsburgh-PA-15227/11554450_zpid/","","","230000","243200","2153","66200","09/23/2022","","","","8581.32","sqft","26.8","4","3","","Vicki Rutherford","No","No","","473 Calvert Ave","Pittsburgh","15227","PA","USA","40.396","-79.97796"
"https://www.zillow.com/homedetails/401-Meade-Dr-Coraopolis-PA-15108/11612008_zpid/","","","230000","243200","1784","124900","09/23/2022","1300","sqft","176.92","0.31","acres","747724.32","3","2","","Cindy Rebeck","No","No","","401 Meade Dr","Coraopolis","15108","PA","USA","40.53483","-80.24726"
"https://www.zillow.com/homedetails/2201-Forest-Grove-Rd-Coraopolis-PA-15108/11403723_zpid/","","","232200","245300","1594","95100","09/16/2022","1000","sqft","232.2","0.31","acres","749757.83","3","2","","John Sergeant","No","No","","2201 Forest Grove Rd","Coraopolis","15108","PA","USA","40.489727","-80.13554"
"https://www.zillow.com/homedetails/656-Gregg-Ave-Bridgeville-PA-15017/11434316_zpid/","","","231000","243900","1746","150300","09/09/2022","2286","sqft","101.05","5549.54","sqft","41.63","4","3","","Rod Smith","No","No","","656 Gregg Ave","Bridgeville","15017","PA","USA","40.35404","-80.11031"
"https://www.zillow.com/homedetails/16-Vincennes-Ave-Oakdale-PA-15071/59842996_zpid/","","","230000","242800","1949","147400","09/09/2022","2155","sqft","106.73","10092.85","sqft","22.79","4","2","","Barbara Ciampini","No","No","","16 Vincennes Ave","Oakdale","15071","PA","USA","40.399105","-80.18197"
"https://www.zillow.com/homedetails/4267-Frederick-Allegheny-Ter-New-Kensington-PA-15068/2062210885_zpid/","","","230500","","881","","09/09/2022","","","","0.29","acres","791280.47","3","3","","Jennifer Collins","No","No","","4267 Frederick Allegheny Ter","New Kensington","15068","PA","USA","",""
"https://www.zillow.com/homedetails/623-Scenery-Dr-Elizabeth-PA-15037/11265595_zpid/","","","233000","246000","1500","131400","09/08/2022","","","","0.54","acres","431481.48","3","2","","Richard Charles","No","No","","623 Scenery Dr","Elizabeth","15037","PA","USA","40.271805","-79.83928"
"https://www.zillow.com/homedetails/964-Harden-Dr-Pittsburgh-PA-15229/11482163_zpid/","","","230000","242800","1873","135200","09/07/2022","1238","sqft","185.78","0.31","acres","751388.44","3","3","","Barbara Averell","No","No","","964 Harden Dr","Pittsburgh","15229","PA","USA","40.5341","-80.03428"
"https://www.zillow.com/homedetails/2590-Harlo-Dr-Allison-Park-PA-15101/11621274_zpid/","","","230000","","2025","153000","09/02/2022","1500","sqft","153.33","0.54","acres","423806.89","3","2","","Lisa Elliott","No","No","","2590 Harlo Dr","Allison Park","15101","PA","USA","40.571693","-79.96251"
"https://www.zillow.com/homedetails/Harlo-Drive-Harlo-Dr-Allison-Park-PA-15101/2062404491_zpid/","","","230000","","1599","","09/02/2022","","","","","","","","","","","No","No","","Harlo Drive Harlo Dr","Allison Park","15101","PA","USA","",""
"https://www.zillow.com/homedetails/573-McMichael-Rd-Pittsburgh-PA-15205/11401075_zpid/","","","230000","242700","2100","155800","08/31/2022","1554","sqft","148.01","0.5","acres","460000","3","3","","Ron Ziolkowski","No","No","","573 McMichael Rd","Pittsburgh","15205","PA","USA","40.444756","-80.13739"
"https://www.zillow.com/homedetails/208-Martha-Ave-Pittsburgh-PA-15209/11372159_zpid/","","","230000","242500","1714","107800","08/30/2022","","","","","","","2","2","","Nancy Hammill","No","No","","208 Martha Ave","Pittsburgh","15209","PA","USA","40.503586","-79.977554"
"https://www.zillow.com/homedetails/343-Dremmel-Rd-Cheswick-PA-15024/11562994_zpid/","","","230000","242500","2063","137800","08/30/2022","1707","sqft","134.74","3.18","acres","72327.04","4","2","","Sandra Johnson","No","No","","343 Dremmel Rd","Cheswick","15024","PA","USA","40.554485","-79.86332"
"https://www.zillow.com/homedetails/245-Woodridge-Dr-Carnegie-PA-15106/11581829_zpid/","","","230000","242500","1832","138300","08/30/2022","1208","sqft","190.4","0.35","acres","660160.73","3","2","","Susan Deely","No","No","","245 Woodridge Dr","Carnegie","15106","PA","USA","40.410217","-80.06729"
"https://www.zillow.com/homedetails/2502-Pennsylvania-Ave-West-Mifflin-PA-15122/11389951_zpid/","","","229900","242500","1364","70400","08/29/2022","1550","sqft","148.32","6812.78","sqft","33.75","4","2","","Michael Bello","No","No","","2502 Pennsylvania Ave","West Mifflin","15122","PA","USA","40.35973","-79.87295"
"https://www.zillow.com/homedetails/218-Allegheny-Ave-Emsworth-PA-15202/11404768_zpid/","","","233100","245900","1533","114900","08/29/2022","1548","sqft","150.58","4843.87","sqft","48.12","4","3","","Benjamin O'Leary","No","No","","218 Allegheny Ave","Emsworth","15202","PA","USA","40.513763","-80.10093"
"https://www.zillow.com/homedetails/885-Little-Deer-Creek-Valley-Rd-Russellton-PA-15076/11300441_zpid/","","","232000","244700","1900","172400","08/26/2022","1328","sqft","174.7","0.25","acres","928000","3","3","","","No","No","","885 Little Deer Creek Valley Rd","Russellton","15076","PA","USA","40.60962","-79.83529"
"https://www.zillow.com/homedetails/7355-Denniston-Ave-Pittsburgh-PA-15218/11345689_zpid/","","","234000","246800","1550","159100","08/26/2022","2700","sqft","86.67","4660.92","sqft","50.2","4","3","","Starr Smith","No","No","","7355 Denniston Ave","Pittsburgh","15218","PA","USA","40.41925","-79.8897"
"https://www.zillow.com/homedetails/300-Old-Mill-Rd-Natrona-Heights-PA-15065/11386850_zpid/","","","230000","242600","2070","147100","08/26/2022","1591","sqft","144.56","0.84","acres","273809.52","3","3","","Gina Giampietro","No","No","","300 Old Mill Rd","Natrona Heights","15065","PA","USA","40.66789","-79.733376"
"https://www.zillow.com/homedetails/833-Bryn-Mawr-Rd-Pittsburgh-PA-15219/11407255_zpid/","","","230000","242600","1849","50000","08/26/2022","1315","sqft","174.9","3998.81","sqft","57.52","4","2","","Justin Cummings","No","No","","833 Bryn Mawr Rd","Pittsburgh","15219","PA","USA","40.452286","-79.95901"
"https://www.zillow.com/homedetails/8020-Remington-Dr-Pittsburgh-PA-15237/11559196_zpid/","","","233000","245600","1999","126800","08/26/2022","1250","sqft","186.4","0.32","acres","725178.96","3","2","","Richard Burkley","No","No","","8020 Remington Dr","Pittsburgh","15237","PA","USA","40.556934","-80.00733"
"https://www.zillow.com/homedetails/122-Crosslands-Township-Of-But-Pittsburgh-PA-15202/2062662525_zpid/","","","230000","","1400","","08/26/2022","","","","","","","","","","","No","No","","122 Crosslands Township Of But","Pittsburgh","15202","PA","USA","",""
"https://www.zillow.com/homedetails/667-Artvue-Dr-Pittsburgh-PA-15243/11361114_zpid/","","","230000","242600","1929","149300","08/25/2022","1753","sqft","131.2","6534","sqft","35.2","3","2","","John Geisler","No","No","","667 Artvue Dr","Pittsburgh","15243","PA","USA","40.365803","-80.07584"
"https://www.zillow.com/homedetails/150-Castle-Dr-West-Mifflin-PA-15122/11387174_zpid/","","","229900","242400","1364","113900","08/25/2022","1450","sqft","158.55","7187.4","sqft","31.99","3","2","","Kathy Maloney","No","No","","150 Castle Dr","West Mifflin","15122","PA","USA","40.37965","-79.87815"
"https://www.zillow.com/homedetails/27-N-Emily-St-Pittsburgh-PA-15205/11585062_zpid/","","","230000","242600","2394","183500","08/25/2022","2309","sqft","99.61","479.16","sqft","480.01","5","3","","Bonnie Detwiler","No","No","","27 N Emily St","Pittsburgh","15205","PA","USA","40.433758","-80.06831"
"https://www.zillow.com/homedetails/154-Delano-Dr-Pittsburgh-PA-15236/11506969_zpid/","","","230000","242400","1650","153100","08/24/2022","1061","sqft","216.78","7801.6","sqft","29.48","3","2","","Jessica Tomshay","No","No","","154 Delano Dr","Pittsburgh","15236","PA","USA","40.332607","-79.95785"
"https://www.zillow.com/homedetails/412-Fielding-Dr-Pittsburgh-PA-15235/11531832_zpid/","","","231000","243600","2390","115700","08/24/2022","2040","sqft","113.24","8964.65","sqft","25.77","4","3","","","No","No","","412 Fielding Dr","Pittsburgh","15235","PA","USA","40.4762","-79.813705"
"https://www.zillow.com/homedetails/205-N-Lehigh-St-Homestead-PA-15120/11296479_zpid/","","","229900","241400","1400","90300","08/19/2022","2042","sqft","112.59","3850.7","sqft","59.7","4","3","","Krystina Krysiak","No","No","","205 N Lehigh St","Homestead","15120","PA","USA","40.378822","-79.90965"
"https://www.zillow.com/homedetails/236-Lehigh-St-Pittsburgh-PA-15218/11381664_zpid/","","","230000","242400","1550","103000","08/19/2022","1433","sqft","160.5","4534.6","sqft","50.72","4","2","","Kristie Jahromi","No","No","","236 Lehigh St","Pittsburgh","15218","PA","USA","40.428413","-79.88013"
"https://www.zillow.com/homedetails/236-Lehigh-St-Swissvale-PA-15218/2062597179_zpid/","","","230000","242300","2199","","08/19/2022","1433","sqft","160.5","","","","4","2","","","No","No","","236 Lehigh St","Swissvale","15218","PA","USA","40.45805","-79.92648"
"https://www.zillow.com/homedetails/2668-Center-St-Pittsburgh-PA-15205/11479895_zpid/","","","230000","242300","1650","153100","08/18/2022","1344","sqft","171.13","5501.63","sqft","41.81","3","2","","Joey Booker","No","No","","2668 Center St","Pittsburgh","15205","PA","USA","40.443493","-80.06411"
"https://www.zillow.com/homedetails/215-Colton-St-Pittsburgh-PA-15209/11272021_zpid/","","","230000","242400","1685","64500","08/17/2022","","","","3920.4","sqft","58.67","3","2","","Nicole Blinov","No","No","","215 Colton St","Pittsburgh","15209","PA","USA","40.482357","-79.97626"
"https://www.zillow.com/homedetails/511-Greenleaf-Dr-Monroeville-PA-15146/11600394_zpid/","","","230000","242400","1496","110300","08/17/2022","1832","sqft","125.55","0.26","acres","886227.33","3","1","","","No","No","","511 Greenleaf Dr","Monroeville","15146","PA","USA","40.44589","-79.77875"
"https://www.zillow.com/homedetails/163-Roberta-Dr-Pittsburgh-PA-15221/11419632_zpid/","","","232000","244400","1567","111200","08/11/2022","1902","sqft","121.98","5662.8","sqft","40.97","3","3","","Luann Fraicola","No","No","","163 Roberta Dr","Pittsburgh","15221","PA","USA","40.42471","-79.8539"
"https://www.zillow.com/homedetails/4131-Highgrove-Rd-Pittsburgh-PA-15236/11429939_zpid/","","","230000","242300","1639","130000","08/10/2022","","","","6011.28","sqft","38.26","3","2","","Shelley Killinger","No","No","","4131 Highgrove Rd","Pittsburgh","15236","PA","USA","40.355316","-80.01317"
"https://www.zillow.com/homedetails/341-Kohlman-Dr-Pittsburgh-PA-15214/11270934_zpid/","","","230000","242300","1800","92000","08/09/2022","1228","sqft","187.3","6921.68","sqft","33.23","3","2","","Diana McKay","No","No","","341 Kohlman Dr","Pittsburgh","15214","PA","USA","40.485485","-79.999794"
"https://www.zillow.com/homedetails/2524-Royalview-Dr-Allison-Park-PA-15101/11621100_zpid/","","","232000","244400","1460","121000","08/09/2022","","","","0.47","acres","493407.06","2","1","","Patty Helwich","No","No","","2524 Royalview Dr","Allison Park","15101","PA","USA","40.57691","-79.96582"
"https://www.zillow.com/homedetails/1407-Keever-Ave-Pittsburgh-PA-15205/11476665_zpid/","","","234900","247400","1800","107100","08/08/2022","1405","sqft","167.19","2382.73","sqft","98.58","3","2","","Saran Gurung","No","No","","1407 Keever Ave","Pittsburgh","15205","PA","USA","40.434578","-80.054825"
"https://www.zillow.com/homedetails/706-Southern-Ave-Mount-Washington-PA-15211/11323849_zpid/","","","230000","242200","1425","85000","08/04/2022","1473","sqft","156.14","3484.8","sqft","66","2","2","","Jeff Stephan","No","No","","706 Southern Ave","Mount Washington","15211","PA","USA","40.41961","-80.01361"
"https://www.zillow.com/homedetails/247-Mountain-Dr-Carnegie-PA-15106/72261440_zpid/","","","230000","242200","1999","128300","08/02/2022","1416","sqft","162.43","3606","sqft","63.78","3","3","","","No","No","","247 Mountain Dr","Carnegie","15106","PA","USA","40.412636","-80.099106"
"https://www.zillow.com/homedetails/1216-Commercial-St-Pittsburgh-PA-15218/11290148_zpid/","","","230000","242100","2199","170400","08/01/2022","","","","0.25","acres","904443.57","4","3","","Meredith Koon","No","No","","1216 Commercial St","Pittsburgh","15218","PA","USA","40.422276","-79.90348"
"https://www.zillow.com/homedetails/443-Middle-St-Pittsburgh-PA-15227/11554142_zpid/","","","230000","242000","1934","97000","07/27/2022","1696","sqft","135.61","0.37","acres","619612.07","3","3","","Sarah Adams","No","No","","443 Middle St","Pittsburgh","15227","PA","USA","40.398216","-79.97627"
"https://www.zillow.com/homedetails/6045-Bolte-Dr-Verona-PA-15147/11490990_zpid/","","","229900","241900","1660","1700","07/26/2022","1687","sqft","136.28","0.58","acres","396379.31","5","2","","Laura Graves","No","No","","6045 Bolte Dr","Verona","15147","PA","USA","40.48547","-79.829506"
"https://www.zillow.com/homedetails/1033-Waldwick-Dr-Pittsburgh-PA-15237/11559288_zpid/","","","230000","241900","1997","152300","07/26/2022","1482","sqft","155.2","0.26","acres","896536.91","3","1.5","","","No","No","","1033 Waldwick Dr","Pittsburgh","15237","PA","USA","40.55363","-80.01243"
"https://www.zillow.com/homedetails/719-Illini-Dr-Monroeville-PA-15146/11262813_zpid/","","","230000","242000","1749","115300","07/22/2022","1590","sqft","144.65","8398.37","sqft","27.39","3","2","","Lisa Haberstroh","No","No","","719 Illini Dr","Monroeville","15146","PA","USA","40.43725","-79.72335"
"https://www.zillow.com/homedetails/7207-Race-St-Pittsburgh-PA-15208/11339374_zpid/","","","230000","242000","1929","12900","07/22/2022","2529","sqft","90.95","2326.1","sqft","98.88","3","2","","Deanna Davis","No","No","","7207 Race St","Pittsburgh","15208","PA","USA","40.45894","-79.89527"
"https://www.zillow.com/homedetails/2087-Arnold-Acres-Dr-Pittsburgh-PA-15205/11356109_zpid/","","","230000","242000","1440","83000","07/22/2022","1092","sqft","210.62","5400","sqft","42.59","3","1","","","No","No","","2087 Arnold Acres Dr","Pittsburgh","15205","PA","USA","40.4272","-80.047775"
"https://www.zillow.com/homedetails/5211-Penn-Ave-Pittsburgh-PA-15224/11520905_zpid/","","","230000","430600","4067","70500","07/22/2022","1996","sqft","115.23","1742.4","sqft","132","4","2","","John Foster","No","No","","5211 Penn Ave","Pittsburgh","15224","PA","USA","40.46476","-79.9395"
"https://www.zillow.com/homedetails/2056-Haymaker-Rd-Monroeville-PA-15146/11630172_zpid/","","","230000","242000","2416","192300","07/22/2022","2045","sqft","112.47","0.43","acres","534883.72","4","4","","Christine Laboon","No","No","","2056 Haymaker Rd","Monroeville","15146","PA","USA","40.401417","-79.75876"
"https://www.zillow.com/homedetails/509-Sherwood-Rd-Pittsburgh-PA-15221/11418736_zpid/","","","230000","241800","1550","146200","07/21/2022","1500","sqft","153.33","0.29","acres","782845.47","3","2","","DJ Fairley","No","No","","509 Sherwood Rd","Pittsburgh","15221","PA","USA","40.43477","-79.86328"
"https://www.zillow.com/homedetails/1553-King-Charles-Dr-Pittsburgh-PA-15237/11589087_zpid/","","","230000","529200","3271","266100","07/21/2022","2580","sqft","89.15","0.57","acres","400255.68","5","2.5","","","No","No","","1553 King Charles Dr","Pittsburgh","15237","PA","USA","40.56364","-80.068535"
"https://www.zillow.com/homedetails/453-Spring-Run-Rd-Coraopolis-PA-15108/11613725_zpid/","","","230000","","1681","130900","07/20/2022","","","","0.57","acres","400696.86","3","3","","Dan Geller","No","No","","453 Spring Run Rd","Coraopolis","15108","PA","USA","40.5475","-80.24079"
"https://www.zillow.com/homedetails/432-Lincoln-Hall-Rd-Elizabeth-PA-15037/11657967_zpid/","","","230000","241900","1686","107500","07/20/2022","1175","sqft","195.74","0.4","acres","581983.81","3","2","","Chrissie Cole","No","No","","432 Lincoln Hall Rd","Elizabeth","15037","PA","USA","40.282867","-79.82158"
"https://www.zillow.com/homedetails/1100-Fairmont-Ave-Natrona-Heights-PA-15065/11320146_zpid/","","","231000","242900","1500","99700","07/15/2022","1680","sqft","137.5","7178.69","sqft","32.18","3","2","","Beth Montanari","No","No","","1100 Fairmont Ave","Natrona Heights","15065","PA","USA","40.623173","-79.727264"
"https://www.zillow.com/homedetails/704-Wenzell-Ave-Pittsburgh-PA-15216/11453545_zpid/","","","230000","247100","1797","62400","07/15/2022","1700","sqft","135.29","9618.05","sqft","23.91","3","2","","Jim Dolanch","No","No","","704 Wenzell Ave","Pittsburgh","15216","PA","USA","40.405136","-80.03322"
"https://www.zillow.com/homedetails/2428-Linden-Dr-Allison-Park-PA-15101/11591810_zpid/","","","232000","243900","1625","88400","07/15/2022","","","","9147.6","sqft","25.36","3","1","","Deborah Platts","No","No","","2428 Linden Dr","Allison Park","15101","PA","USA","40.56182","-79.97044"
"https://www.zillow.com/homedetails/5644-Marilynn-Dr-Pittsburgh-PA-15236/11470196_zpid/","","","231000","267100","1700","124500","07/08/2022","1210","sqft","190.91","10084.14","sqft","22.91","3","2","","Missy Foltz","No","No","","5644 Marilynn Dr","Pittsburgh","15236","PA","USA","40.34389","-80.00968"
"https://www.zillow.com/homedetails/1520-Prospect-Rd-Pittsburgh-PA-15227/11390866_zpid/","","","231520","243100","1314","100600","06/29/2022","1200","sqft","192.93","6499.15","sqft","35.62","2","2","","Juli Barbara","No","No","","1520 Prospect Rd","Pittsburgh","15227","PA","USA","40.362125","-79.96336"
"https://www.zillow.com/homedetails/58-Evans-Ave-Pittsburgh-PA-15205/11588516_zpid/","","","233000","244700","1250","79700","06/29/2022","","","","2613.6","sqft","89.15","3","1","","Lindsay Trojan","No","No","","58 Evans Ave","Pittsburgh","15205","PA","USA","40.444233","-80.0702"
"https://www.zillow.com/homedetails/1734-Theodan-Dr-Pittsburgh-PA-15216/11571097_zpid/","","","232000","243600","1841","142500","06/27/2022","1334","sqft","173.91","0.37","acres","633639.73","3","1.5","","","No","No","","1734 Theodan Dr","Pittsburgh","15216","PA","USA","40.39741","-80.0462"
"https://www.zillow.com/homedetails/1715-Worcester-Dr-Pittsburgh-PA-15243/11360625_zpid/","","","230000","241400","1849","139600","06/21/2022","1360","sqft","169.12","7150","sqft","32.17","3","1.5","","","No","No","","1715 Worcester Dr","Pittsburgh","15243","PA","USA","40.368565","-80.08109"
"https://www.zillow.com/homedetails/276-George-Ln-Pittsburgh-PA-15235/11494551_zpid/","","","232000","243500","1146","126400","06/21/2022","1044","sqft","222.22","0.46","acres","504347.83","2","1","","Chad Glover","No","No","","276 George Ln","Pittsburgh","15235","PA","USA","40.428852","-79.82645"
"https://www.zillow.com/homedetails/810-Fruithurst-Dr-Pittsburgh-PA-15228/11309961_zpid/","","","230400","241700","1410","142800","06/17/2022","1072","sqft","214.93","5092.16","sqft","45.25","2","1","","Stephanie Wanamaker","No","No","","810 Fruithurst Dr","Pittsburgh","15228","PA","USA","40.37921","-80.030136"
"https://www.zillow.com/homedetails/1006-Oakmont-Ave-Oakmont-PA-15139/11446810_zpid/","","","229900","241200","1424","112300","06/15/2022","1411","sqft","162.93","4586.87","sqft","50.12","3","1","","Lori Hummel","No","No","","1006 Oakmont Ave","Oakmont","15139","PA","USA","40.52688","-79.83945"
"https://www.zillow.com/homedetails/1111-Pillow-Ave-Harwick-PA-15049/11563490_zpid/","","","230000","241300","1550","117100","06/15/2022","","","","0.28","acres","811287.48","5","1","","Georgie Smigel","No","No","","1111 Pillow Ave","Harwick","15049","PA","USA","40.550106","-79.80448"
"https://www.zillow.com/homedetails/430-Old-Hickory-Dr-Pittsburgh-PA-15235/11568501_zpid/","","","234000","245500","1961","119500","06/14/2022","","","","8489.84","sqft","27.56","3","3","","Granville Johnson","No","No","","430 Old Hickory Dr","Pittsburgh","15235","PA","USA","40.48185","-79.78546"
"https://www.zillow.com/homedetails/426-Dawson-Ave-Carnegie-PA-15106/11581941_zpid/","","","232000","243400","1498","54700","06/14/2022","1008","sqft","230.16","3301.85","sqft","70.26","3","1","","Heather Neill","No","No","","426 Dawson Ave","Carnegie","15106","PA","USA","40.406948","-80.080635"
"https://www.zillow.com/homedetails/3101-Southern-Dr-South-Park-PA-15129/11252118_zpid/","","","230000","241200","1300","73100","06/10/2022","1652","sqft","139.23","8816.54","sqft","26.09","4","2","","Bill Dapper","No","No","","3101 Southern Dr","South Park","15129","PA","USA","40.281975","-80.00153"
"https://www.zillow.com/homedetails/862-Stevendale-Dr-Pittsburgh-PA-15221/11455116_zpid/","","","230000","241200","2134","130000","06/10/2022","1928","sqft","119.29","10707.05","sqft","21.48","3","3","","John Pavlik","No","No","","862 Stevendale Dr","Pittsburgh","15221","PA","USA","40.42841","-79.84381"
"https://www.zillow.com/homedetails/656-Southcrest-Dr-Pittsburgh-PA-15226/11440446_zpid/","","","230000","241200","1447","84500","06/09/2022","864","sqft","266.2","9927.32","sqft","23.17","2","2","","Michael Bello","No","No","","656 Southcrest Dr","Pittsburgh","15226","PA","USA","40.406406","-80.01297"
"https://www.zillow.com/homedetails/2-Edinburg-Dr-Pittsburgh-PA-15235/11533834_zpid/","","","230000","241100","1814","93600","06/06/2022","1494","sqft","153.95","7827.73","sqft","29.38","4","3","","Loreen Abriola","No","No","","2 Edinburg Dr","Pittsburgh","15235","PA","USA","40.453953","-79.80318"
"https://www.zillow.com/homedetails/550-Dendron-Dr-Coraopolis-PA-15108/11366204_zpid/","","","230000","240900","1535","112300","06/03/2022","945","sqft","243.39","10200","sqft","22.55","3","2","","","No","No","","550 Dendron Dr","Coraopolis","15108","PA","USA","40.486004","-80.12869"
"https://www.zillow.com/homedetails/125-Saint-Andrews-Cir-McKeesport-PA-15135/11575180_zpid/","","","229400","241000","1566","127500","06/03/2022","1156","sqft","198.44","0.48","acres","481831.55","3","3","","Chris Johnston","No","No","","125 Saint Andrews Cir","McKeesport","15135","PA","USA","40.31165","-79.81312"
"https://www.zillow.com/homedetails/471-Sun-Valley-Dr-Pittsburgh-PA-15239/11282937_zpid/","","","230000","241100","1749","84400","06/01/2022","","","","7609.93","sqft","30.22","3","2","","Kate Gordon","No","No","","471 Sun Valley Dr","Pittsburgh","15239","PA","USA","40.471203","-79.71157"
"https://www.zillow.com/homedetails/107-Canby-Dr-Pittsburgh-PA-15209/11328972_zpid/","","","232000","243200","1691","124500","06/01/2022","1415","sqft","163.96","0.62","acres","374556.02","3","2","","Colleen Bansemer","No","No","","107 Canby Dr","Pittsburgh","15209","PA","USA","40.50026","-79.97113"
"https://www.zillow.com/homedetails/2369-Birtley-Ave-Pittsburgh-PA-15226/11566312_zpid/","","","230000","241100","1649","62800","06/01/2022","","","","5601.82","sqft","41.06","3","1","","Ashley Johnston","No","No","","2369 Birtley Ave","Pittsburgh","15226","PA","USA","40.398033","-80.019135"
"https://www.zillow.com/homedetails/1660-Bellaire-Pl-Pittsburgh-PA-15226/11649381_zpid/","","","231250","242400","1488","78600","06/01/2022","1050","sqft","220.24","8350.45","sqft","27.69","3","1","","Jeffrey Johnson","No","No","","1660 Bellaire Pl","Pittsburgh","15226","PA","USA","40.392426","-80.00154"
"https://www.zillow.com/homedetails/104-Fayette-Ave-Oakdale-PA-15071/59842691_zpid/","","","232000","243000","1185","124000","05/27/2022","1228","sqft","188.93","0.28","acres","842105.26","2","2","","Gladys Walasik","No","No","","104 Fayette Ave","Oakdale","15071","PA","USA","40.400944","-80.18327"
"https://www.zillow.com/homedetails/550-Dendron-Robinson-Ter-Coraopolis-PA-15108/2064148974_zpid/","","","230000","","1205","","05/26/2022","","","","10018.8","sqft","22.96","3","2","","Lori Altmeyer","No","No","","550 Dendron Robinson Ter","Coraopolis","15108","PA","USA","",""
"https://www.zillow.com/homedetails/209-Lindenwood-Dr-Pittsburgh-PA-15209/11271515_zpid/","","","230000","241100","1766","127100","05/20/2022","1284","sqft","179.13","9791","sqft","23.49","3","1.5","","","No","No","","209 Lindenwood Dr","Pittsburgh","15209","PA","USA","40.490177","-79.96679"
"https://www.zillow.com/homedetails/5125-Springdale-Dr-Pittsburgh-PA-15236/11428185_zpid/","","","230000","241100","1650","128100","05/20/2022","","","","10506.67","sqft","21.89","3","2","","Deb Walton","No","No","","5125 Springdale Dr","Pittsburgh","15236","PA","USA","40.349586","-79.96567"
"https://www.zillow.com/homedetails/99-Pleasant-Hills-Blvd-Pittsburgh-PA-15236/11467693_zpid/","","","230000","241100","1650","140600","05/20/2022","1440","sqft","159.72","0.7","acres","327122.74","3","2","","Christopher Schneider","No","No","","99 Pleasant Hills Blvd","Pittsburgh","15236","PA","USA","40.341675","-79.96299"
"https://www.zillow.com/homedetails/99-Pleasant-Hills-Blvd-Pleasant-Hills-PA-15236/2116182655_zpid/","","","230000","215000","1650","","05/20/2022","","","","0.87","acres","264369.21","3","2","","","No","No","","99 Pleasant Hills Blvd","Pleasant Hills","15236","PA","USA","40.341675","-79.96299"
"https://www.zillow.com/homedetails/7310-McClure-Ave-Pittsburgh-PA-15218/11345122_zpid/","","","230000","241100","1569","142700","05/19/2022","1235","sqft","186.23","1500","sqft","153.33","3","2","","","No","No","","7310 McClure Ave","Pittsburgh","15218","PA","USA","40.422066","-79.892426"
"https://www.zillow.com/homedetails/735-Loretta-St-Pittsburgh-PA-15217/11639391_zpid/","","","231500","242600","1594","99200","05/19/2022","1070","sqft","216.36","2252.05","sqft","102.8","3","1","","Pia Colucci","No","No","","735 Loretta St","Pittsburgh","15217","PA","USA","40.421562","-79.93229"
"https://www.zillow.com/homedetails/1663-Creedmoor-Ave-Pittsburgh-PA-15226/11650416_zpid/","","","230000","241100","1599","86000","05/19/2022","1232","sqft","186.69","3001.28","sqft","76.63","3","2","","Jane Doyle","No","No","","1663 Creedmoor Ave","Pittsburgh","15226","PA","USA","40.386593","-80.00977"
"https://www.zillow.com/homedetails/9119-Ridgefell-Ave-Pittsburgh-PA-15237/11617735_zpid/","","","230000","241100","1759","130500","05/18/2022","1257","sqft","182.98","9347.98","sqft","24.6","3","1","","Ryan Edmondson","No","No","","9119 Ridgefell Ave","Pittsburgh","15237","PA","USA","40.57245","-80.04055"
"https://www.zillow.com/homedetails/845-Vista-St-Pittsburgh-PA-15212/11394770_zpid/","","","230000","241100","1564","37000","05/16/2022","1360","sqft","169.12","1799.03","sqft","127.85","2","2","","Nicole Blinov","No","No","","845 Vista St","Pittsburgh","15212","PA","USA","40.45837","-79.996666"
"https://www.zillow.com/homedetails/218-W-Bruceton-Rd-Pittsburgh-PA-15236/11507829_zpid/","","","234000","245300","1650","104900","05/13/2022","1238","sqft","189.01","8498.56","sqft","27.53","3","2","","Sandra Rodeheaver","No","No","","218 W Bruceton Rd","Pittsburgh","15236","PA","USA","40.328056","-79.96733"
"https://www.zillow.com/homedetails/53-Bellevue-Ave-Pittsburgh-PA-15229/11408016_zpid/","","","230000","241100","1626","51600","05/12/2022","1369","sqft","168.01","","","","3","2","","Kendall Thomas","No","No","","53 Bellevue Ave","Pittsburgh","15229","PA","USA","40.520653","-80.031845"
"https://www.zillow.com/homedetails/4630-Hampton-Valley-Dr-Allison-Park-PA-15101/11259229_zpid/","","","231000","242100","1999","150000","05/11/2022","1304","sqft","177.15","0.51","acres","453207.77","3","2","","Carissa Atwell","No","No","","4630 Hampton Valley Dr","Allison Park","15101","PA","USA","40.590675","-79.942406"
"https://www.zillow.com/homedetails/20-Pioneer-Ave-Pittsburgh-PA-15229/11406802_zpid/","","","233000","244200","1529","100000","05/10/2022","","","","6499.15","sqft","35.85","2","2","","Julie Treemarchi","No","No","","20 Pioneer Ave","Pittsburgh","15229","PA","USA","40.51338","-80.041595"
"https://www.zillow.com/homedetails/2808-Herron-Ln-Glenshaw-PA-15116/11526338_zpid/","","","231000","242100","1694","127600","05/10/2022","1344","sqft","171.88","0.45","acres","509259.26","3","1","","Kristi Stebler","No","No","","2808 Herron Ln","Glenshaw","15116","PA","USA","40.542538","-79.9785"
"https://www.zillow.com/homedetails/1711-Connor-Rd-South-Park-PA-15129/11251297_zpid/","","","230000","241100","1577","123000","05/06/2022","","","","0.34","acres","672318.04","3","2","","Melissa Shipley","No","No","","1711 Connor Rd","South Park","15129","PA","USA","40.283264","-79.97254"
"https://www.zillow.com/homedetails/111-McClelland-Dr-Pittsburgh-PA-15238/11646517_zpid/","","","230000","241100","1500","124800","05/05/2022","1170","sqft","196.58","0.34","acres","676072.9","3","1","","Harry Lenhart","No","No","","111 McClelland Dr","Pittsburgh","15238","PA","USA","40.58065","-79.88659"
"https://www.zillow.com/homedetails/230-Great-Smokey-Dr-Pittsburgh-PA-15239/11261743_zpid/","","","230000","241100","1550","130500","05/03/2022","","","","0.33","acres","696969.7","3","1","","Dana Bufalo","No","No","","230 Great Smokey Dr","Pittsburgh","15239","PA","USA","40.476875","-79.7169"
"https://www.zillow.com/homedetails/8-Cabindale-Dr-Mc-Kees-Rocks-PA-15136/11321628_zpid/","","","229900","262100","1800","110300","04/29/2022","1749","sqft","131.45","9914.26","sqft","23.19","3","2","","Daniel Bewersdorff","No","No","","8 Cabindale Dr","Mc Kees Rocks","15136","PA","USA","40.478046","-80.10578"
"https://www.zillow.com/homedetails/243-Ramsey-Ave-Bridgeville-PA-15017/11399506_zpid/","","","229900","241000","2205","89900","04/29/2022","1962","sqft","117.18","3998.81","sqft","57.49","4","3","","Mark Ratti","No","No","","243 Ramsey Ave","Bridgeville","15017","PA","USA","40.360737","-80.1144"
"https://www.zillow.com/homedetails/1517-Bluestone-Dr-Glenshaw-PA-15116/11527450_zpid/","","","230000","241100","1999","138700","04/29/2022","1550","sqft","148.39","0.29","acres","795022.47","3","2","","Tina Marie Cicero","No","No","","1517 Bluestone Dr","Glenshaw","15116","PA","USA","40.542236","-79.94239"
"https://www.zillow.com/homedetails/336-Hart-Dr-Crescent-PA-15046/11613661_zpid/","","","229900","241000","1819","103100","04/29/2022","1328","sqft","173.12","7801.6","sqft","29.47","4","2","","Mark Handlovitch","No","No","","336 Hart Dr","Crescent","15046","PA","USA","40.5483","-80.23657"
"https://www.zillow.com/homedetails/851-Kerry-Hill-Dr-Pittsburgh-PA-15234/11306939_zpid/","","","229900","241100","1734","123500","04/22/2022","1467","sqft","156.71","8712","sqft","26.39","3","2","","Robert Moncavage","No","No","","851 Kerry Hill Dr","Pittsburgh","15234","PA","USA","40.37808","-80.00805"
"https://www.zillow.com/homedetails/108-Homer-Pl-Pittsburgh-PA-15223/11410552_zpid/","","","234000","245500","1599","116700","04/19/2022","1420","sqft","164.79","5205.42","sqft","44.95","3","1","","Beth Danchek","No","No","","108 Homer Pl","Pittsburgh","15223","PA","USA","40.51844","-79.96014"
"https://www.zillow.com/homedetails/726-George-St-Coraopolis-PA-15108/11437871_zpid/","","","232500","244000","1494","118000","04/14/2022","1984","sqft","117.19","4356","sqft","53.37","3","2","","Bill Jander","No","No","","726 George St","Coraopolis","15108","PA","USA","40.51126","-80.15472"
"https://www.zillow.com/homedetails/34-Evans-Ave-Pittsburgh-PA-15205/11588553_zpid/","","","230000","241400","1685","138100","04/14/2022","1433","sqft","160.5","3750.52","sqft","61.32","3","1","","MaryAnn Bacharach","No","No","","34 Evans Ave","Pittsburgh","15205","PA","USA","40.44408","-80.070145"
"https://www.zillow.com/homedetails/1318-Ohio-Ave-White-Oak-PA-15131/11500735_zpid/","","","230000","240600","2248","101300","04/08/2022","","","","7500","sqft","30.67","3","3","","Mary Beth Barker","No","No","","1318 Ohio Ave","White Oak","15131","PA","USA","40.351265","-79.81993"
"https://www.zillow.com/homedetails/8640-Remington-Dr-Pittsburgh-PA-15237/11590675_zpid/","","","230000","241400","1500","115600","04/08/2022","916","sqft","251.09","0.32","acres","715619.17","2","1","","Cassandra Werner","No","No","","8640 Remington Dr","Pittsburgh","15237","PA","USA","40.56504","-80.01293"
"https://www.zillow.com/homedetails/4174-Battle-Ridge-Rd-Mc-Donald-PA-15057/59855271_zpid/","","","230000","242400","1550","143800","04/08/2022","1296","sqft","177.47","1.09","acres","211591.54","2","2","","Brenda Griffith","No","No","","4174 Battle Ridge Rd","Mc Donald","15057","PA","USA","40.36003","-80.17555"
"https://www.zillow.com/homedetails/206-Amity-Rd-Glenshaw-PA-15116/11523733_zpid/","","","230000","245300","1995","133800","04/07/2022","1425","sqft","161.4","0.25","acres","916130.21","3","1.5","","","No","No","","206 Amity Rd","Glenshaw","15116","PA","USA","40.54549","-79.99383"
"https://www.zillow.com/homedetails/565-Glenrock-Dr-Bethel-Park-PA-15102/11549057_zpid/","","","232500","244900","1694","113200","04/07/2022","1496","sqft","155.41","","","","3","2","","Shannon Dears","No","No","","565 Glenrock Dr","Bethel Park","15102","PA","USA","40.31756","-80.051735"
"https://www.zillow.com/homedetails/102-Woodcrest-Dr-Coraopolis-PA-15108/87990673_zpid/","","","234900","248300","2400","174900","04/07/2022","1814","sqft","129.49","1584","sqft","148.3","3","2.5","","","No","No","","102 Woodcrest Dr","Coraopolis","15108","PA","USA","40.45495","-80.227264"
"https://www.zillow.com/homedetails/114-Bygate-Cir-Pittsburgh-PA-15220/11252227_zpid/","","","234000","245800","1588","114500","03/31/2022","1275","sqft","183.53","6969.6","sqft","33.57","3","1","","Cole Macek I","No","No","","114 Bygate Cir","Pittsburgh","15220","PA","USA","40.394005","-80.07728"
"https://www.zillow.com/homedetails/284-Coraopolis-Rd-Coraopolis-PA-15108/11367439_zpid/","","","233000","246700","1896","100000","03/31/2022","1469","sqft","158.61","0.77","acres","302361.8","2","1","","Sherri Mayer","No","No","","284 Coraopolis Rd","Coraopolis","15108","PA","USA","40.50271","-80.12044"
"https://www.zillow.com/homedetails/162-Old-Ridge-Rd-Coraopolis-PA-15108/59845892_zpid/","","","230000","243600","1849","134200","03/31/2022","1311","sqft","175.44","0.33","acres","693822.71","3","2","","Kevin Hanley","No","No","","162 Old Ridge Rd","Coraopolis","15108","PA","USA","40.460743","-80.20791"
"https://www.zillow.com/homedetails/34-Warriors-Rd-Pittsburgh-PA-15205/11356153_zpid/","","","232500","249400","1849","102000","03/30/2022","1563","sqft","148.75","0.65","acres","357692.31","3","2","","Emily Schwartz","No","No","","34 Warriors Rd","Pittsburgh","15205","PA","USA","40.426422","-80.04527"
"https://www.zillow.com/homedetails/2525-Milford-Dr-Bethel-Park-PA-15102/11432249_zpid/","","","234900","247500","1500","124900","03/28/2022","1155","sqft","203.38","0.31","acres","762167.42","2","2","","","No","No","","2525 Milford Dr","Bethel Park","15102","PA","USA","40.346172","-80.03872"
"https://www.zillow.com/homedetails/5034-Leona-Dr-Pittsburgh-PA-15227/11428508_zpid/","","","230000","245600","1681","142000","03/27/2022","1066","sqft","215.76","7910.5","sqft","29.08","3","2","","Radhakrishnan Pokhrel","No","No","","5034 Leona Dr","Pittsburgh","15227","PA","USA","40.355267","-79.97018"
"https://www.zillow.com/homedetails/945-Lincoln-Ave-Springdale-PA-15144/72261679_zpid/","","","230000","244200","1996","154700","03/25/2022","","","","","","","3","3","","Laura Smith","No","No","","945 Lincoln Ave","Springdale","15144","PA","USA","40.54136","-79.77558"
"https://www.zillow.com/homedetails/6321-Stanton-Ave-Pittsburgh-PA-15206/11284309_zpid/","","","230000","255900","1558","50000","03/23/2022","1392","sqft","165.23","3362.83","sqft","68.39","3","1","","Brandi Cugini","No","No","","6321 Stanton Ave","Pittsburgh","15206","PA","USA","40.46896","-79.91596"
"https://www.zillow.com/homedetails/232-Clover-Dr-Monroeville-PA-15146/11627500_zpid/","","","234000","251200","2440","153300","03/21/2022","2385","sqft","98.11","0.26","acres","905923.34","3","3","","Nataja Phillips-Noel","No","No","","232 Clover Dr","Monroeville","15146","PA","USA","40.4406","-79.75659"
"https://www.zillow.com/homedetails/595-Beatty-Rd-Monroeville-PA-15146/2066577695_zpid/","","","234000","","1514","","03/21/2022","","","","","","","","","","","No","No","","595 Beatty Rd","Monroeville","15146","PA","USA","40.455345","-79.7511"
"https://www.zillow.com/homedetails/328-Bascom-Ave-Pittsburgh-PA-15214/11327683_zpid/","","","231700","250900","1999","115000","03/18/2022","2108","sqft","109.91","0.29","acres","795946.41","4","2","","Robin Taylor","No","No","","328 Bascom Ave","Pittsburgh","15214","PA","USA","40.49447","-80.03213"
"https://www.zillow.com/homedetails/4273-Colonial-Park-Dr-Pittsburgh-PA-15227/11392663_zpid/","","","230000","259900","2540","156100","03/18/2022","","","","9100","sqft","25.27","4","3","","Richard Charles","No","No","","4273 Colonial Park Dr","Pittsburgh","15227","PA","USA","40.36458","-79.98614"
"https://www.zillow.com/homedetails/2450-S-Park-Rd-Bethel-Park-PA-15102/62982997_zpid/","","","230100","300900","2169","140200","03/18/2022","1766","sqft","130.29","0.76","acres","302768.65","3","2.5","","","No","No","","2450 S Park Rd","Bethel Park","15102","PA","USA","40.330135","-80.024475"
"https://www.zillow.com/homedetails/3257-Latonia-Ave-Pittsburgh-PA-15216/11656706_zpid/","","","230000","246100","1700","99500","03/16/2022","1520","sqft","151.32","4948.42","sqft","46.48","3","2","","Aimee O'Connor","No","No","","3257 Latonia Ave","Pittsburgh","15216","PA","USA","40.38662","-80.038055"
"https://www.zillow.com/homedetails/212-Richfield-St-Pittsburgh-PA-15234/11306612_zpid/","","","230000","243600","1996","86000","03/15/2022","1496","sqft","153.74","4373.42","sqft","52.59","3","3","","Jacqueline Bohdan","No","No","","212 Richfield St","Pittsburgh","15234","PA","USA","40.38312","-80.00013"
"https://www.zillow.com/homedetails/2204-Open-Meadow-Cir-Bridgeville-PA-15017/59856499_zpid/","","","230000","248300","1749","121100","03/15/2022","1295","sqft","177.61","6439","sqft","35.72","3","2","","","No","No","","2204 Open Meadow Cir","Bridgeville","15017","PA","USA","40.32445","-80.121796"
"https://www.zillow.com/homedetails/337-Washington-St-Springdale-PA-15144/11564597_zpid/","","","230000","239000","1400","107300","03/14/2022","1329","sqft","173.06","5810.9","sqft","39.58","3","1","","Heather Chirumbolo","No","No","","337 Washington St","Springdale","15144","PA","USA","40.542145","-79.790985"
"https://www.zillow.com/homedetails/6214-Monitor-St-Pittsburgh-PA-15217/11636389_zpid/","","","230000","291300","2236","199900","03/14/2022","2436","sqft","94.42","4180","sqft","55.02","3","2","","","No","No","","6214 Monitor St","Pittsburgh","15217","PA","USA","40.42513","-79.92504"
"https://www.zillow.com/homedetails/632-Magnus-Ln-Coraopolis-PA-15108/11366184_zpid/","","","229900","246300","1494","121800","03/11/2022","","","","","","","3","2","","Georgie Smigel","No","No","","632 Magnus Ln","Coraopolis","15108","PA","USA","40.486126","-80.12925"
"https://www.zillow.com/homedetails/816-Clearview-Dr-Verona-PA-15147/11531254_zpid/","","","230500","245700","1995","145000","03/11/2022","1700","sqft","135.59","5336.1","sqft","43.2","4","3","","Jay Kass","No","No","","816 Clearview Dr","Verona","15147","PA","USA","40.499496","-79.815575"
"https://www.zillow.com/homedetails/4320-Bristol-St-Pittsburgh-PA-15207/11544878_zpid/","","","229900","242300","1949","98100","03/11/2022","1224","sqft","187.83","2400.16","sqft","95.79","3","3","","Lori Hummel","No","No","","4320 Bristol St","Pittsburgh","15207","PA","USA","40.419876","-79.94539"
"https://www.zillow.com/homedetails/4307-Stanton-Ave-Pittsburgh-PA-15201/11614971_zpid/","","","230000","261300","1724","114000","03/11/2022","1517","sqft","151.62","3479","sqft","66.11","3","1.5","","","No","No","","4307 Stanton Ave","Pittsburgh","15201","PA","USA","40.479965","-79.943474"
"https://www.zillow.com/homedetails/615-Ohio-River-Blvd-Sewickley-PA-15143/11480568_zpid/","","","230000","268100","1597","140100","03/10/2022","1392","sqft","165.23","5100.88","sqft","45.09","3","2","","Joe Yost","No","No","","615 Ohio River Blvd","Sewickley","15143","PA","USA","40.535885","-80.18249"
