Property URL,MLS ID,Number of days on Zillow,Property price (USD),Zestimate (USD),Rent zestimate (USD per month),Tax assessed value (USD),Sold date (MM/DD/YYYY),Living area,Living area unit,Price per living area unit (USD),Lot/land area,Lot/land area unit,Price per lot/land area unit (USD),Bedrooms,Bathrooms,Broker name,Broker agent,Is owner occupied,Property owned by Zillow,Property unit number,Street address,City,Zip,State,Country,Latitude,Longitude
"https://www.zillow.com/homedetails/735-Boquet-St-Mc-Kees-Rocks-PA-15136/11488134_zpid/","","","147000","142100","1400","22600","10/13/2023","1292","sqft","113.78","2613.6","sqft","56.24","3","2","","Domenic Greco","No","No","","735 Boquet St","Mc Kees Rocks","15136","PA","USA","40.466667","-80.06209"
"https://www.zillow.com/homedetails/663-Sara-Ln-Verona-PA-15147/11490039_zpid/","","","149000","140100","1400","63100","10/13/2023","1425","sqft","104.56","9901.19","sqft","15.05","3","1","","Elena Colianni","No","No","","663 Sara Ln","Verona","15147","PA","USA","40.501003","-79.81646"
"https://www.zillow.com/homedetails/3036-Wadlow-St-Pittsburgh-PA-15212/11606309_zpid/","","","145000","132600","1157","34200","10/13/2023","","","","2526.48","sqft","57.39","3","3","","Susan Kaczorek","No","No","","3036 Wadlow St","Pittsburgh","15212","PA","USA","40.47298","-80.029495"
"https://www.zillow.com/homedetails/400-Fairview-Ave-Pittsburgh-PA-15220/11367162_zpid/","","","146000","146000","1400","37500","10/10/2023","1088","sqft","134.19","10001.38","sqft","14.6","2","1","","Kelly Luhn","No","No","","400 Fairview Ave","Pittsburgh","15220","PA","USA","40.444965","-80.034874"
"https://www.zillow.com/homedetails/322-Princeton-Dr-Pittsburgh-PA-15235/11534726_zpid/","","","145000","145000","1595","75900","10/10/2023","1176","sqft","123.3","0.33","acres","442342.89","3","2","","Michael Scott","No","No","","322 Princeton Dr","Pittsburgh","15235","PA","USA","40.440056","-79.80571"
"https://www.zillow.com/homedetails/6802-Tunnelview-Dr-Pittsburgh-PA-15235/11568336_zpid/","","","145000","145000","1535","73300","10/06/2023","1313","sqft","110.43","0.25","acres","578611.33","4","2","","Melissa Merriman","No","No","","6802 Tunnelview Dr","Pittsburgh","15235","PA","USA","40.481255","-79.79822"
"https://www.zillow.com/homedetails/2305-Leticoe-St-Pittsburgh-PA-15203/11292033_zpid/","","","145000","145000","1500","40000","10/05/2023","1360","sqft","106.62","4591.22","sqft","31.58","3","1","","Cheryl Griffiths","No","No","","2305 Leticoe St","Pittsburgh","15203","PA","USA","40.42401","-79.973404"
"https://www.zillow.com/homedetails/241-Dickson-St-Tarentum-PA-15084/11319416_zpid/","","","149000","149000","957","55400","10/05/2023","1643","sqft","90.69","8921.09","sqft","16.7","2","1","","Ben Hess","No","No","","241 Dickson St","Tarentum","15084","PA","USA","40.628036","-79.765236"
"https://www.zillow.com/homedetails/1545-Saxonburg-Rd-Natrona-Heights-PA-15065/11351055_zpid/","","","147000","147000","895","86800","09/29/2023","884","sqft","166.29","8698.93","sqft","16.9","2","1","","Jennifer Mascaro","No","No","","1545 Saxonburg Rd","Natrona Heights","15065","PA","USA","40.644142","-79.71787"
"https://www.zillow.com/homedetails/1234-Maple-St-Glenshaw-PA-15116/11444118_zpid/","","","145000","145000","1400","139200","09/28/2023","2025","sqft","71.6","6873.77","sqft","21.09","2","1","","Cindy Palmer","No","No","","1234 Maple St","Glenshaw","15116","PA","USA","40.527477","-79.94628"
"https://www.zillow.com/homedetails/230-Williamsburg-Dr-Monroeville-PA-15146/11627536_zpid/","","","145000","145000","1235","110300","09/21/2023","1291","sqft","112.32","0.43","acres","333409.98","3","2","","Kevin Shaner","No","No","","230 Williamsburg Dr","Monroeville","15146","PA","USA","40.44083","-79.75322"
"https://www.zillow.com/homedetails/425-Fisher-St-Pittsburgh-PA-15210/11434973_zpid/","","","146500","146500","1446","37800","09/08/2023","1080","sqft","135.65","3750.52","sqft","39.06","3","2","","Linda Backo","No","No","","425 Fisher St","Pittsburgh","15210","PA","USA","40.411438","-79.98024"
"https://www.zillow.com/homedetails/822-Hartman-St-McKeesport-PA-15132/11460954_zpid/","","","147500","147400","1489","43400","09/08/2023","1134","sqft","130.07","5174.93","sqft","28.5","3","2","","Andrew Dellavecchia","No","No","","822 Hartman St","McKeesport","15132","PA","USA","40.351543","-79.83433"
"https://www.zillow.com/homedetails/323-Thomas-St-Carnegie-PA-15106/11256391_zpid/","","","145000","127800","1414","71200","09/06/2023","1352","sqft","107.25","6398.96","sqft","22.66","3","1","","Maria Werner","No","No","","323 Thomas St","Carnegie","15106","PA","USA","40.414658","-80.08984"
"https://www.zillow.com/homedetails/318-Macfarlane-Dr-Pittsburgh-PA-15235/11452172_zpid/","","","145000","145000","1500","65000","09/01/2023","1208","sqft","120.03","6098.4","sqft","23.78","3","2","","Judith Schlosberg","No","No","","318 Macfarlane Dr","Pittsburgh","15235","PA","USA","40.457745","-79.84155"
"https://www.zillow.com/homedetails/1024-Elwell-St-Pittsburgh-PA-15207/11352842_zpid/","","","145000","145000","1400","69300","08/31/2023","1125","sqft","128.89","5000.69","sqft","29","3","1","","Lisa Schmigel","No","No","","1024 Elwell St","Pittsburgh","15207","PA","USA","40.36926","-79.92019"
"https://www.zillow.com/homedetails/128-Keefer-Dr-Pittsburgh-PA-15235/11533183_zpid/","","","145000","145000","1199","65900","08/31/2023","992","sqft","146.17","6481.73","sqft","22.37","2","1","","Jamie Cole","No","No","","128 Keefer Dr","Pittsburgh","15235","PA","USA","40.462326","-79.801865"
"https://www.zillow.com/homedetails/179-Broad-St-Leetsdale-PA-15056/11587272_zpid/","","","148000","148000","1394","46500","08/31/2023","1225","sqft","120.82","4247.1","sqft","34.85","3","2","","Kelly Luhn","No","No","","179 Broad St","Leetsdale","15056","PA","USA","40.5647","-80.20879"
"https://www.zillow.com/homedetails/148-W-Larkspur-St-Homestead-PA-15120/11347104_zpid/","","","145000","145000","1440","57200","08/30/2023","1320","sqft","109.85","4499.75","sqft","32.22","3","1","","Colleen McMullen","No","No","","148 W Larkspur St","Homestead","15120","PA","USA","40.403046","-79.892075"
"https://www.zillow.com/homedetails/52-Vincennes-Ave-Oakdale-PA-15071/59843008_zpid/","","","145000","145000","1428","52800","08/25/2023","1350","sqft","107.41","6246.5","sqft","23.21","3","1","","Luanne Ryan","No","No","","52 Vincennes Ave","Oakdale","15071","PA","USA","40.39965","-80.18311"
"https://www.zillow.com/homedetails/760-Loretta-St-Pittsburgh-PA-15217/11639359_zpid/","","","145000","145000","1594","88300","08/23/2023","1200","sqft","120.83","2252.05","sqft","64.39","3","1","","Beth Thomas","No","No","","760 Loretta St","Pittsburgh","15217","PA","USA","40.421356","-79.93124"
"https://www.zillow.com/homedetails/900-State-Ave-Coraopolis-PA-15108/11478512_zpid/","","","145000","145000","1479","75000","08/17/2023","974","sqft","148.87","5035.54","sqft","28.8","3","2","","Dan Geller","No","No","","900 State Ave","Coraopolis","15108","PA","USA","40.517918","-80.16695"
"https://www.zillow.com/homedetails/774-Millers-Run-Rd-Mc-Donald-PA-15057/59855480_zpid/","","","145000","145000","1160","87400","08/17/2023","1265","sqft","114.62","5675.87","sqft","25.55","2","1","","Tammy Stefanski","No","No","","774 Millers Run Rd","Mc Donald","15057","PA","USA","40.33955","-80.17941"
"https://www.zillow.com/homedetails/2013-Termon-Ave-Pittsburgh-PA-15212/11269231_zpid/","","","149000","149100","1235","49300","08/16/2023","1368","sqft","108.92","2500.34","sqft","59.59","3","1","","Courtney Lynn","No","No","","2013 Termon Ave","Pittsburgh","15212","PA","USA","40.4826","-80.04509"
"https://www.zillow.com/homedetails/404-Douglas-Elizabeth-Elizabeth-PA-15037/2057578248_zpid/","","","145000","","1026","","08/16/2023","1740","sqft","83.33","9750","sqft","14.87","4","2","","Shirley McNamara","No","No","","404 Douglas Elizabeth","Elizabeth","15037","PA","USA","",""
"https://www.zillow.com/homedetails/2012-Fairlawn-St-Pittsburgh-PA-15221/11378318_zpid/","","","145000","145000","1325","17400","08/11/2023","1382","sqft","104.92","4081.57","sqft","35.53","3","1","","Ted Block","No","No","","2012 Fairlawn St","Pittsburgh","15221","PA","USA","40.450615","-79.870285"
"https://www.zillow.com/homedetails/326-Leblanc-St-Pittsburgh-PA-15218/11289975_zpid/","","","146000","243800","2340","105000","08/10/2023","1978","sqft","73.81","6600","sqft","22.12","3","2","","","No","No","","326 Leblanc St","Pittsburgh","15218","PA","USA","40.425358","-79.89951"
"https://www.zillow.com/homedetails/1125-Lakewood-St-Pittsburgh-PA-15220/11366546_zpid/","","","148000","147900","1841","71800","08/08/2023","1403","sqft","105.49","10250","sqft","14.44","3","2","","","No","No","","1125 Lakewood St","Pittsburgh","15220","PA","USA","40.446686","-80.0411"
"https://www.zillow.com/homedetails/221-Castle-Shannon-Blvd-Pittsburgh-PA-15228/11312271_zpid/","","","146000","145700","1322","87700","08/07/2023","","","","7274.52","sqft","20.07","2","1","","Barbara Fisher","No","No","","221 Castle Shannon Blvd","Pittsburgh","15228","PA","USA","40.37725","-80.03909"
"https://www.zillow.com/homedetails/1125-Lakewood-Ave-Pittsburgh-PA-15220/2143181108_zpid/","","","148000","148000","1489","","08/04/2023","1403","sqft","105.49","10301.94","sqft","14.37","3","2","","Christa Ross","No","No","","1125 Lakewood Ave","Pittsburgh","15220","PA","USA","40.446537","-80.041306"
"https://www.zillow.com/homedetails/614-Robin-Dr-Pittsburgh-PA-15220/11577606_zpid/","","","149000","148900","1429","96700","08/03/2023","888","sqft","167.79","7264","sqft","20.51","2","1.5","","","No","No","","614 Robin Dr","Pittsburgh","15220","PA","USA","40.394787","-80.077965"
"https://www.zillow.com/homedetails/Finks-Run-Rd-McDonald-PA-15057/164479336_zpid/","","","145000","144900","1798","30000","08/03/2023","","","","10","acres","14500","","","","","No","No","","Finks Run Rd","Mcdonald","15057","PA","USA","40.39885","-80.22804"
"https://www.zillow.com/homedetails/6340-Leechburg-Rd-Verona-PA-15147/11531581_zpid/","","","147000","","1649","83800","08/01/2023","2016","sqft","72.92","1.53","acres","96141.27","3","2","","Alyssa Sterner","No","No","","6340 Leechburg Rd","Verona","15147","PA","USA","40.48561","-79.81209"
"https://www.zillow.com/homedetails/1919-Jenny-Lind-St-McKeesport-PA-15132/11464980_zpid/","","","145000","145000","1099","23200","07/28/2023","2091","sqft","69.34","3101.47","sqft","46.75","4","2","","Angela O'Connor","No","No","","1919 Jenny Lind St","McKeesport","15132","PA","USA","40.339584","-79.85293"
"https://www.zillow.com/homedetails/3600-Shadewell-Ave-Pittsburgh-PA-15227/11353829_zpid/","","","147500","","1650","69300","07/27/2023","","","","6098.4","sqft","24.19","2","2","","Brad Templeton","No","No","","3600 Shadewell Ave","Pittsburgh","15227","PA","USA","40.372448","-79.98055"
"https://www.zillow.com/homedetails/277-Moon-Clinton-Rd-Coraopolis-PA-15108/11584260_zpid/","","","149000","148900","999","52500","07/27/2023","720","sqft","206.94","1.11","acres","134233.12","2","1","","","No","No","","277 Moon Clinton Rd","Coraopolis","15108","PA","USA","40.51238","-80.2303"
"https://www.zillow.com/homedetails/2747-Queensboro-Ave-Pittsburgh-PA-15226/11653755_zpid/","","","146900","146700","1400","82600","07/24/2023","1224","sqft","120.02","3301.85","sqft","44.49","2","2","","Cristy Smith","No","No","","2747 Queensboro Ave","Pittsburgh","15226","PA","USA","40.38913","-80.01971"
"https://www.zillow.com/homedetails/813-Norvell-Dr-Pittsburgh-PA-15235/11453954_zpid/","","","148000","148500","1300","64000","07/21/2023","936","sqft","158.12","6259.57","sqft","23.64","3","1","","Victoria Angiolini","No","No","","813 Norvell Dr","Pittsburgh","15235","PA","USA","40.44668","-79.83463"
"https://www.zillow.com/homedetails/909-E-Smithfield-St-McKeesport-PA-15135/11574638_zpid/","","","149000","149300","983","49900","07/21/2023","1440","sqft","103.47","5575.68","sqft","26.72","2","1","","Hannah Ventura","No","No","","909 E Smithfield St","McKeesport","15135","PA","USA","40.31487","-79.79596"
"https://www.zillow.com/homedetails/9053-Oak-St-Pittsburgh-PA-15239/11261289_zpid/","","","147500","142400","1250","20200","07/17/2023","1456","sqft","101.3","7649.14","sqft","19.28","3","2","","Rachel Mazzie","No","No","","9053 Oak St","Pittsburgh","15239","PA","USA","40.49982","-79.72543"
"https://www.zillow.com/homedetails/226-Maryellen-Dr-North-Versailles-PA-15137/11572943_zpid/","","","147000","147300","1503","73400","07/14/2023","","","","0.28","acres","525000","4","2","","Sandra Toulouse","No","No","","226 Maryellen Dr","North Versailles","15137","PA","USA","40.369686","-79.797485"
"https://www.zillow.com/homedetails/2720-Mount-Troy-Rd-Pittsburgh-PA-15212/11610620_zpid/","","","145000","145400","1677","85500","07/14/2023","1000","sqft","145","6311.84","sqft","22.97","3","2","","Jonathan Curry","No","No","","2720 Mount Troy Rd","Pittsburgh","15212","PA","USA","40.473705","-79.98628"
"https://www.zillow.com/homedetails/2643-Connecticut-Ave-Pittsburgh-PA-15216/11570927_zpid/","","","145000","155700","1800","103500","07/13/2023","1572","sqft","92.24","6381.54","sqft","22.72","3","1","","Betsy Thompson","No","No","","2643 Connecticut Ave","Pittsburgh","15216","PA","USA","40.40118","-80.03399"
"https://www.zillow.com/homedetails/3137-Willett-Rd-Pittsburgh-PA-15227/11304675_zpid/","","","146000","146300","1300","84100","07/12/2023","1351","sqft","108.07","0.28","acres","529945.55","2","1","","Debra Donahue","No","No","","3137 Willett Rd","Pittsburgh","15227","PA","USA","40.381382","-79.96782"
"https://www.zillow.com/homedetails/1533-Fallowfield-Ave-Pittsburgh-PA-15216/11444992_zpid/","","","149000","149300","1594","53100","07/11/2023","1621","sqft","91.92","3000","sqft","49.67","3","1.5","","","No","No","","1533 Fallowfield Ave","Pittsburgh","15216","PA","USA","40.4116","-80.02353"
"https://www.zillow.com/homedetails/1016-Elkton-St-Pittsburgh-PA-15220/11366781_zpid/","","","145000","145500","1200","69000","07/07/2023","1728","sqft","83.91","2400.16","sqft","60.41","3","1","","Kelly Luhn","No","No","","1016 Elkton St","Pittsburgh","15220","PA","USA","40.447502","-80.036415"
"https://www.zillow.com/homedetails/3730-Lyndell-St-Pittsburgh-PA-15234/11395845_zpid/","","","145000","215500","1650","67500","07/07/2023","1048","sqft","138.36","6250","sqft","23.2","3","1.5","","","No","No","","3730 Lyndell St","Pittsburgh","15234","PA","USA","40.361584","-80.02154"
"https://www.zillow.com/homedetails/313-Alice-St-Pittsburgh-PA-15210/11436379_zpid/","","","147500","147900","1364","55600","07/03/2023","1841","sqft","80.12","3918","sqft","37.65","4","1.5","","","No","No","","313 Alice St","Pittsburgh","15210","PA","USA","40.410282","-79.993866"
"https://www.zillow.com/homedetails/113-Swale-Dr-Verona-PA-15147/11489941_zpid/","","","145000","145400","1550","97500","06/30/2023","1322","sqft","109.68","4678.34","sqft","30.99","3","2","","Michael Pohlot","No","No","","113 Swale Dr","Verona","15147","PA","USA","40.503525","-79.818596"
"https://www.zillow.com/homedetails/303-Scene-Ridge-Rd-McKeesport-PA-15133/11542169_zpid/","","","147000","147400","1471","81500","06/29/2023","","","","7501.03","sqft","19.6","3","2","","Jason Ruzich","No","No","","303 Scene Ridge Rd","McKeesport","15133","PA","USA","40.324524","-79.848434"
"https://www.zillow.com/homedetails/692-Bairdford-Rd-Gibsonia-PA-15044/11319059_zpid/","","","145000","145500","1743","123100","06/28/2023","1296","sqft","111.88","1.32","acres","109599.17","3","2","","","No","No","","692 Bairdford Rd","Gibsonia","15044","PA","USA","40.626534","-79.8626"
"https://www.zillow.com/homedetails/335-Caperton-St-Pittsburgh-PA-15210/11440152_zpid/","","","145000","145500","1513","67600","06/28/2023","1127","sqft","128.66","4800.31","sqft","30.21","3","2","","Sarah Cohen","No","No","","335 Caperton St","Pittsburgh","15210","PA","USA","40.410004","-80.00075"
"https://www.zillow.com/homedetails/2834-Capitol-St-White-Oak-PA-15131/11500346_zpid/","","","149000","149500","1395","75700","06/26/2023","1624","sqft","91.75","4138.2","sqft","36.01","3","2","","Sandra Tokosh","No","No","","2834 Capitol St","White Oak","15131","PA","USA","40.354485","-79.8216"
"https://www.zillow.com/homedetails/137-Creston-Dr-West-Mifflin-PA-15122/11427440_zpid/","","","145000","145600","1333","62100","06/23/2023","804","sqft","180.35","8276.4","sqft","17.52","3","1","","Lindy Sgambati-Cox","No","No","","137 Creston Dr","West Mifflin","15122","PA","USA","40.35093","-79.91405"
"https://www.zillow.com/homedetails/241-Highland-Rd-Penn-Hills-PA-15235/11451461_zpid/","","","149000","149600","1400","92100","06/23/2023","","","","0.29","acres","513793.1","3","1","","Michael Kelly","No","No","","241 Highland Rd","Penn Hills","15235","PA","USA","40.46295","-79.836296"
"https://www.zillow.com/homedetails/3052-Zephyr-Ave-Pittsburgh-PA-15204/11482558_zpid/","","","145000","145600","1250","39700","06/23/2023","1136","sqft","127.64","2500.34","sqft","57.99","3","1","","Daniel Seigel","No","No","","3052 Zephyr Ave","Pittsburgh","15204","PA","USA","40.457634","-80.0544"
"https://www.zillow.com/homedetails/1536-Linden-St-Cheswick-PA-15024/11564169_zpid/","","","148000","148600","1333","117800","06/23/2023","1395","sqft","106.09","7558","sqft","19.58","2","1.5","","","No","No","","1536 Linden St","Cheswick","15024","PA","USA","40.544487","-79.79615"
"https://www.zillow.com/homedetails/318-Lynnwood-Dr-Pittsburgh-PA-15235/11453878_zpid/","","","147500","148100","1500","72000","06/22/2023","1239","sqft","119.05","7583.8","sqft","19.45","3","2","","Ellen Eyth","No","No","","318 Lynnwood Dr","Pittsburgh","15235","PA","USA","40.44906","-79.836845"
"https://www.zillow.com/homedetails/3964-Logans-Ferry-Rd-Monroeville-PA-15146/11599950_zpid/","","","149000","149800","1477","80000","06/16/2023","","","","0.44","acres","338636.36","3","1","","Gina Gionta","No","No","","3964 Logans Ferry Rd","Monroeville","15146","PA","USA","40.453037","-79.7691"
"https://www.zillow.com/homedetails/2819-McKelvey-Rd-Pittsburgh-PA-15221/11382522_zpid/","","","149000","149900","1500","65700","06/13/2023","1125","sqft","132.44","6198.59","sqft","24.04","3","2","","Adar Ben-Lapid","No","No","","2819 McKelvey Rd","Pittsburgh","15221","PA","USA","40.424892","-79.8714"
"https://www.zillow.com/homedetails/916-Stevendale-Dr-Pittsburgh-PA-15221/11455383_zpid/","","","145000","128600","1314","75000","06/12/2023","","","","8128.3","sqft","17.84","3","1","","Lois Harkness","No","No","","916 Stevendale Dr","Pittsburgh","15221","PA","USA","40.424843","-79.840904"
"https://www.zillow.com/homedetails/9707-Glendale-Rd-Pittsburgh-PA-15235/11415715_zpid/","","","148000","149000","1494","62400","06/09/2023","1163","sqft","127.26","7501.03","sqft","19.73","3","2","","Tina Nobers","No","No","","9707 Glendale Rd","Pittsburgh","15235","PA","USA","40.464478","-79.858925"
"https://www.zillow.com/homedetails/2635-3rd-St-Monroeville-PA-15146/11536576_zpid/","","","145000","145800","1336","63900","06/07/2023","","","","6141.96","sqft","23.61","3","1","","Jeff Weiner","No","No","","2635 3rd St","Monroeville","15146","PA","USA","40.39773","-79.80164"
"https://www.zillow.com/homedetails/1608-Steiner-Ave-West-Mifflin-PA-15122/11389119_zpid/","","","145000","146000","1898","62700","06/06/2023","1284","sqft","112.93","7801.6","sqft","18.59","3","3","","Michael Pohlot","No","No","","1608 Steiner Ave","West Mifflin","15122","PA","USA","40.371426","-79.866196"
"https://www.zillow.com/homedetails/964-Illinois-Ave-Pittsburgh-PA-15221/11383236_zpid/","","","147500","148700","1181","108500","05/31/2023","1227","sqft","120.21","7500","sqft","19.67","2","1","","","No","No","","964 Illinois Ave","Pittsburgh","15221","PA","USA","40.42098","-79.87155"
"https://www.zillow.com/homedetails/7240-Shannon-Rd-Verona-PA-15147/11449360_zpid/","","","145500","146700","1165","67600","05/31/2023","784","sqft","185.59","8015.04","sqft","18.15","2","1","","Jordana Zober","No","No","","7240 Shannon Rd","Verona","15147","PA","USA","40.498447","-79.83503"
"https://www.zillow.com/homedetails/126-Mayer-Dr-Oakdale-PA-15071/59849133_zpid/","","","148000","169300","1481","132000","05/30/2023","1906","sqft","77.65","9766.15","sqft","15.15","3","2","","Libby Sosinski","No","No","","126 Mayer Dr","Oakdale","15071","PA","USA","40.434845","-80.21171"
"https://www.zillow.com/homedetails/1709-Orchid-St-Pittsburgh-PA-15207/11390328_zpid/","","","145000","146400","1413","65000","05/26/2023","","","","7405.2","sqft","19.58","3","2","","Vic Franceschini","No","No","","1709 Orchid St","Pittsburgh","15207","PA","USA","40.364796","-79.906204"
"https://www.zillow.com/homedetails/204-Merrimac-St-Pittsburgh-PA-15211/11515198_zpid/","","","145000","190200","1394","76400","05/26/2023","1485","sqft","97.64","1128.2","sqft","128.52","2","1","","Trudy Huynk","No","No","","204 Merrimac St","Pittsburgh","15211","PA","USA","40.432693","-80.01375"
"https://www.zillow.com/homedetails/901-Greenhill-Rd-Pittsburgh-PA-15209/11371179_zpid/","","","147500","","1523","91700","05/25/2023","","","","5562.61","sqft","26.52","2","1","","Dan Casciato","No","No","","901 Greenhill Rd","Pittsburgh","15209","PA","USA","40.503532","-79.98409"
"https://www.zillow.com/homedetails/711-Bluff-St-Bridgeville-PA-15017/11399792_zpid/","","","145000","146600","1250","82500","05/22/2023","1262","sqft","114.9","5758.63","sqft","25.18","2","1","","Cindy Rack","No","No","","711 Bluff St","Bridgeville","15017","PA","USA","40.35907","-80.106995"
"https://www.zillow.com/homedetails/208-3rd-Ave-Carnegie-PA-15106/11255947_zpid/","","","145000","146700","1419","53500","05/19/2023","1722","sqft","84.2","2760","sqft","52.54","3","1","","","No","No","","208 3rd Ave","Carnegie","15106","PA","USA","40.40448","-80.0902"
"https://www.zillow.com/homedetails/7320-Butler-St-Pittsburgh-PA-15206/11278119_zpid/","","","145000","146700","1234","53700","05/18/2023","952","sqft","152.31","2400.16","sqft","60.41","2","1","","Michael Marsula","No","No","","7320 Butler St","Pittsburgh","15206","PA","USA","40.487743","-79.92061"
"https://www.zillow.com/homedetails/1182-Hunter-Rd-Verona-PA-15147/11530934_zpid/","","","147000","148700","1597","91100","05/18/2023","1209","sqft","121.59","0.54","acres","272272.64","3","2","","Nam Khuu","No","No","","1182 Hunter Rd","Verona","15147","PA","USA","40.505573","-79.812294"
"https://www.zillow.com/homedetails/Orator-St-Pittsburgh-PA-15204/164682707_zpid/","","","148000","","1162","1400","05/18/2023","","","","4183","sqft","35.38","","","","","No","No","","Orator St","Pittsburgh","15204","PA","USA","40.45767","-80.07094"
"https://www.zillow.com/homedetails/621-Chestnut-St-Springdale-PA-15144/11564660_zpid/","","","145000","146800","997","72200","05/17/2023","1277","sqft","113.55","5013.76","sqft","28.92","2","2","","Ryan Shedlock","No","No","","621 Chestnut St","Springdale","15144","PA","USA","40.542255","-79.78336"
"https://www.zillow.com/homedetails/207-Lilmont-Dr-Pittsburgh-PA-15218/11383787_zpid/","","","145000","146800","1132","67100","05/16/2023","","","","10018.8","sqft","14.47","2","1","","Roman Ivanov","No","No","","207 Lilmont Dr","Pittsburgh","15218","PA","USA","40.415623","-79.873764"
"https://www.zillow.com/homedetails/494-Balconade-Dr-Pittsburgh-PA-15236/11468518_zpid/","","","145000","147000","1314","114300","05/11/2023","1165","sqft","124.46","9012.56","sqft","16.09","2","2","","Alison Butler","No","No","","494 Balconade Dr","Pittsburgh","15236","PA","USA","40.34312","-79.97289"
"https://www.zillow.com/homedetails/930-Lysle-Ave-McKeesport-PA-15133/11465413_zpid/","","","145000","147100","1494","81100","05/09/2023","","","","5501.63","sqft","26.36","3","2","","Jason Ruzich","No","No","","930 Lysle Ave","McKeesport","15133","PA","USA","40.34324","-79.87557"
"https://www.zillow.com/homedetails/1814-Belleau-St-Pittsburgh-PA-15214/11387415_zpid/","","","145000","147300","1117","42200","05/05/2023","","","","775.37","sqft","187.01","2","1","","Karl Owens","No","No","","1814 Belleau St","Pittsburgh","15214","PA","USA","40.462265","-80.00672"
"https://www.zillow.com/homedetails/1406-Orator-St-Pittsburgh-PA-15204/11592400_zpid/","","","148000","150300","1171","38000","05/05/2023","1568","sqft","94.39","1999.4","sqft","74.02","2","1","","Alexander Farah","No","No","","1406 Orator St","Pittsburgh","15204","PA","USA","40.457745","-80.070694"
"https://www.zillow.com/homedetails/365-2nd-Ave-Bridgeville-PA-15017/11657593_zpid/","","","145000","147300","1457","80000","05/05/2023","1755","sqft","82.62","4861.3","sqft","29.83","3","1","","Melinda Lynch","No","No","","365 2nd Ave","Bridgeville","15017","PA","USA","40.355213","-80.13576"
"https://www.zillow.com/homedetails/1-Ridgecrest-Dr-Pittsburgh-PA-15235/11494221_zpid/","","","145000","147300","1712","133000","05/04/2023","2240","sqft","64.73","0.66","acres","221306.47","3","2","","Michael Pohlot","No","No","","1 Ridgecrest Dr","Pittsburgh","15235","PA","USA","40.442703","-79.82049"
"https://www.zillow.com/homedetails/519-Elm-Ct-Oakdale-PA-15071/59850597_zpid/","","","146400","148700","1450","99200","05/04/2023","987","sqft","148.33","1589","sqft","92.13","2","1.5","","","No","No","","519 Elm Ct","Oakdale","15071","PA","USA","40.444557","-80.20953"
"https://www.zillow.com/homedetails/397-Collins-Dr-Pittsburgh-PA-15235/11532801_zpid/","","","145000","147300","1496","73000","05/03/2023","1530","sqft","94.77","8712","sqft","16.64","4","2","","Keiterez Bynum","No","No","","397 Collins Dr","Pittsburgh","15235","PA","USA","40.46292","-79.808235"
"https://www.zillow.com/homedetails/90-Dellenbaugh-Rd-Tarentum-PA-15084/11350911_zpid/","","","149000","151300","1494","113100","05/02/2023","1716","sqft","86.83","0.45","acres","331553.18","4","1","","Joseph Weltner","No","No","","90 Dellenbaugh Rd","Tarentum","15084","PA","USA","40.64381","-79.79816"
"https://www.zillow.com/homedetails/139-Clubvue-Dr-West-Mifflin-PA-15122/11349802_zpid/","","","149000","151500","1294","108000","05/01/2023","1172","sqft","127.13","6198.59","sqft","24.04","2","2","","Barbara Bissett","No","No","","139 Clubvue Dr","West Mifflin","15122","PA","USA","40.378696","-79.88961"
"https://www.zillow.com/homedetails/1835-S-Canal-St-Pittsburgh-PA-15215/11334428_zpid/","","","145000","147600","1849","66400","04/28/2023","2070","sqft","70.05","2962.08","sqft","48.95","3","2","","Betsy Wotherspoon","No","No","","1835 S Canal St","Pittsburgh","15215","PA","USA","40.4959","-79.9203"
"https://www.zillow.com/homedetails/2724-Harbison-St-Natrona-Heights-PA-15065/11332174_zpid/","","","145000","147600","900","104600","04/27/2023","1107","sqft","130.98","5227.2","sqft","27.74","2","1","","Sandy Woncheck","No","No","","2724 Harbison St","Natrona Heights","15065","PA","USA","40.63695","-79.71567"
"https://www.zillow.com/homedetails/1816-Hill-St-White-Oak-PA-15131/11541017_zpid/","","","145000","147700","1318","89100","04/26/2023","","","","6969.6","sqft","20.8","3","2","","Lisa Bliss","No","No","","1816 Hill St","White Oak","15131","PA","USA","40.345062","-79.808914"
"https://www.zillow.com/homedetails/419-Dennison-Dr-West-Mifflin-PA-15122/11467159_zpid/","","","145000","206000","1466","80200","04/24/2023","936","sqft","154.91","6500","sqft","22.31","3","2","","","No","No","","419 Dennison Dr","West Mifflin","15122","PA","USA","40.33907","-79.91959"
"https://www.zillow.com/homedetails/3519-Colby-St-Pittsburgh-PA-15214/11270862_zpid/","","","145000","134800","1498","68200","04/21/2023","","","","","","","3","1","","Shelley Killinger","No","No","","3519 Colby St","Pittsburgh","15214","PA","USA","40.48523","-80.0049"
"https://www.zillow.com/homedetails/1014-McLaughlin-Run-Rd-Bridgeville-PA-15017/11434504_zpid/","","","148000","150000","1250","55500","04/21/2023","","","","4800.31","sqft","30.83","2","1","","Leah Wulster","No","No","","1014 McLaughlin Run Rd","Bridgeville","15017","PA","USA","40.354458","-80.10459"
"https://www.zillow.com/homedetails/6908-Royal-Dr-Verona-PA-15147/11490686_zpid/","","","145000","148100","1556","69600","04/18/2023","1638","sqft","88.52","8794","sqft","16.49","3","2","","","No","No","","6908 Royal Dr","Verona","15147","PA","USA","40.49213","-79.823586"
"https://www.zillow.com/homedetails/2519-Butler-Logan-Rd-Tarentum-PA-15084/11259682_zpid/","","","145000","148100","1584","84100","04/14/2023","1269","sqft","114.26","0.47","acres","308510.64","3","2","","Katrina McClelland","No","No","","2519 Butler Logan Rd","Tarentum","15084","PA","USA","40.597813","-79.807785"
"https://www.zillow.com/homedetails/1071-Cleveland-Ave-Brackenridge-PA-15014/11280511_zpid/","","","146000","149100","1025","37300","04/14/2023","1408","sqft","103.69","5196.71","sqft","28.09","3","1","","Bill Dapper","No","No","","1071 Cleveland Ave","Brackenridge","15014","PA","USA","40.60893","-79.73816"
"https://www.zillow.com/homedetails/709-E-Carson-St-Pittsburgh-PA-15203/11474229_zpid/","","","145000","","1498","600","04/14/2023","1032","sqft","140.5","1200","sqft","120.83","2","1","","","No","No","","709 E Carson St","Pittsburgh","15203","PA","USA","40.428833","-79.99193"
"https://www.zillow.com/homedetails/213-Pearl-Ave-Cheswick-PA-15024/11530168_zpid/","","","145000","148100","1400","99300","04/14/2023","1741","sqft","83.29","6250","sqft","23.2","4","1","","","No","No","","213 Pearl Ave","Cheswick","15024","PA","USA","40.54324","-79.81655"
"https://www.zillow.com/homedetails/2506-Greenock-Buena-Vista-Rd-Elizabeth-PA-15037/11632358_zpid/","","","145000","148400","1366","61500","04/07/2023","1632","sqft","88.85","0.29","acres","501209.82","4","2","","Seth Wright","No","No","","2506 Greenock Buena Vista Rd","Elizabeth","15037","PA","USA","40.290176","-79.81351"
"https://www.zillow.com/homedetails/11400-Azalea-Dr-Pittsburgh-PA-15235/11492314_zpid/","","","147000","151200","1400","66600","03/23/2023","1155","sqft","127.27","7270.16","sqft","20.22","3","1","","Stacey Kovaly","No","No","","11400 Azalea Dr","Pittsburgh","15235","PA","USA","40.467377","-79.83135"
"https://www.zillow.com/homedetails/424-Guylyn-Dr-Pittsburgh-PA-15235/11532425_zpid/","","","145000","149200","1500","75300","03/22/2023","1300","sqft","111.54","6939.11","sqft","20.9","3","1","","Deborah Kane","No","No","","424 Guylyn Dr","Pittsburgh","15235","PA","USA","40.468006","-79.80256"
"https://www.zillow.com/homedetails/322-Walter-St-Pittsburgh-PA-15210/11315515_zpid/","","","145000","148800","1614","23800","03/17/2023","1320","sqft","109.85","1650.92","sqft","87.83","4","2","","Beth Nichols","No","No","","322 Walter St","Pittsburgh","15210","PA","USA","40.41922","-79.99491"
"https://www.zillow.com/homedetails/6726-Elmwood-Ave-West-Mifflin-PA-15122/11427372_zpid/","","","147000","151500","1481","121600","03/17/2023","","","","8398.37","sqft","17.5","3","2","","Jason Ruzich","No","No","","6726 Elmwood Ave","West Mifflin","15122","PA","USA","40.35534","-79.90446"
"https://www.zillow.com/homedetails/649-Lougeay-Rd-Pittsburgh-PA-15235/11494031_zpid/","","","146000","146900","1276","59400","03/17/2023","","","","1.41","acres","103546.1","2","1","","Nancy Hammill","No","No","","649 Lougeay Rd","Pittsburgh","15235","PA","USA","40.448223","-79.81629"
"https://www.zillow.com/homedetails/109-Dehaven-Ave-Glenshaw-PA-15116/11560841_zpid/","","","147000","151500","1650","126600","03/17/2023","1094","sqft","134.37","0.29","acres","508724.87","3","1","","","No","No","","109 Dehaven Ave","Glenshaw","15116","PA","USA","40.55078","-79.973045"
"https://www.zillow.com/homedetails/234-Woodridge-Dr-Carnegie-PA-15106/11581863_zpid/","","","145700","","1572","120600","03/17/2023","972","sqft","149.9","6873.77","sqft","21.2","3","1","","Libby Sosinski","No","No","","234 Woodridge Dr","Carnegie","15106","PA","USA","40.40958","-80.06749"
"https://www.zillow.com/homedetails/120-Hart-Dr-Pittsburgh-PA-15235/11535243_zpid/","","","147750","","1391","64500","03/14/2023","970","sqft","152.32","0.38","acres","388406.94","3","1","","Kendall Thomas","No","No","","120 Hart Dr","Pittsburgh","15235","PA","USA","40.43284","-79.80607"
"https://www.zillow.com/homedetails/8200-Bramble-Ln-Pittsburgh-PA-15237/11559010_zpid/","","","145000","388300","2400","207800","03/14/2023","1862","sqft","77.87","1","acres","145000","3","2.5","","","No","No","","8200 Bramble Ln","Pittsburgh","15237","PA","USA","40.558517","-80.005135"
"https://www.zillow.com/homedetails/720-E-9th-Ave-Homestead-PA-15120/11292305_zpid/","","","145000","150000","1550","61800","03/08/2023","1026","sqft","141.33","5501.63","sqft","26.36","3","2","","Anthony Dasta","No","No","","720 E 9th Ave","Homestead","15120","PA","USA","40.408215","-79.89993"
"https://www.zillow.com/homedetails/216-Walliston-Ave-Pittsburgh-PA-15202/11404710_zpid/","","","145000","150100","957","77800","03/06/2023","683","sqft","212.3","5325","sqft","27.23","2","1","","","No","No","","216 Walliston Ave","Pittsburgh","15202","PA","USA","40.51366","-80.102745"
"https://www.zillow.com/homedetails/5393-Main-St-Bethel-Park-PA-15102/11547841_zpid/","","","145000","150100","1025","53600","03/06/2023","","","","4839.52","sqft","29.96","2","1","","Jordan Jankowski","No","No","","5393 Main St","Bethel Park","15102","PA","USA","40.324875","-80.037315"
"https://www.zillow.com/homedetails/445-Brinwood-Ave-Pittsburgh-PA-15227/11644925_zpid/","","","148000","153200","1550","71400","03/06/2023","1088","sqft","136.03","6891.19","sqft","21.48","3","2","","Chris Graham","No","No","","445 Brinwood Ave","Pittsburgh","15227","PA","USA","40.392532","-79.97858"
"https://www.zillow.com/homedetails/1423-Belasco-Ave-Pittsburgh-PA-15216/11444798_zpid/","","","146500","151800","1491","51700","03/03/2023","1176","sqft","124.57","3001.28","sqft","48.81","3","1","","Derek Latch","No","No","","1423 Belasco Ave","Pittsburgh","15216","PA","USA","40.413265","-80.02732"
"https://www.zillow.com/homedetails/2409-Palm-Beach-Ave-Pittsburgh-PA-15216/11565667_zpid/","","","145000","150200","1200","67100","03/03/2023","1085","sqft","133.64","3075.34","sqft","47.15","2","1","","Missy Foltz","No","No","","2409 Palm Beach Ave","Pittsburgh","15216","PA","USA","40.39992","-80.02584"
"https://www.zillow.com/homedetails/962-Roland-Rd-Pittsburgh-PA-15221/11455136_zpid/","","","145000","150400","1535","47400","03/01/2023","1150","sqft","126.09","7492.32","sqft","19.35","3","2","","Lindsay Grice","No","No","","962 Roland Rd","Pittsburgh","15221","PA","USA","40.42686","-79.8371"
"https://www.zillow.com/homedetails/4000-Vistaview-St-West-Mifflin-PA-15122/11386071_zpid/","","","146500","152000","1495","95900","02/28/2023","","","","","","","3","3","","Alice Vaday","No","No","","4000 Vistaview St","West Mifflin","15122","PA","USA","40.39205","-79.87396"
"https://www.zillow.com/homedetails/721-Monterey-St-McKeesport-PA-15132/11465095_zpid/","","","145000","125700","1025","28200","02/28/2023","","","","6486.08","sqft","22.36","2","1","","Matthew Shanty","No","No","","721 Monterey St","McKeesport","15132","PA","USA","40.345715","-79.87997"
"https://www.zillow.com/homedetails/315-Frankland-Ave-Verona-PA-15147/11530745_zpid/","","","145000","271800","1694","129400","02/27/2023","1696","sqft","85.5","0.3","acres","481234.29","3","1.5","","","No","No","","315 Frankland Ave","Verona","15147","PA","USA","40.522617","-79.80986"
"https://www.zillow.com/homedetails/740-Elm-Way-Oakmont-PA-15139/11447231_zpid/","","","148500","154300","1566","80400","02/24/2023","1216","sqft","122.12","4508.46","sqft","32.94","4","2","","Heather Ruthrauff","No","No","","740 Elm Way","Oakmont","15139","PA","USA","40.52222","-79.837776"
"https://www.zillow.com/homedetails/179-Meadowbrook-Dr-Bethel-Park-PA-15102/11471555_zpid/","","","149000","154800","1222","97500","02/24/2023","775","sqft","192.26","0.26","acres","576848.63","2","2","","Patty Marshall","No","No","","179 Meadowbrook Dr","Bethel Park","15102","PA","USA","40.343548","-80.03688"
"https://www.zillow.com/homedetails/1521-Nobles-Ln-Pittsburgh-PA-15210/11556682_zpid/","","","145000","150600","1407","68800","02/24/2023","2024","sqft","71.64","10667.84","sqft","13.59","4","2","","Andrew Righetti","No","No","","1521 Nobles Ln","Pittsburgh","15210","PA","USA","40.397903","-79.99747"
"https://www.zillow.com/homedetails/477-Billy-Dr-Pittsburgh-PA-15235/11567638_zpid/","","","145000","150800","1360","78200","02/22/2023","","","","9583.2","sqft","15.13","2","2","","Angela Blasko","No","No","","477 Billy Dr","Pittsburgh","15235","PA","USA","40.492275","-79.79956"
"https://www.zillow.com/homedetails/124-Pheasant-Dr-Penn-Hills-PA-15235/11493316_zpid/","","","147500","153500","1494","63500","02/10/2023","1167","sqft","126.39","6952.18","sqft","21.22","3","2","","Libby Sosinski","No","No","","124 Pheasant Dr","Penn Hills","15235","PA","USA","40.456005","-79.83151"
"https://www.zillow.com/homedetails/1615-E-Hemlock-Dr-Allison-Park-PA-15101/11561610_zpid/","","","147659","288400","1999","188100","02/08/2023","1196","sqft","123.46","0.44","acres","332715.19","3","2","","","No","No","","1615 E Hemlock Dr","Allison Park","15101","PA","USA","40.55054","-79.939064"
"https://www.zillow.com/homedetails/3008-Stafford-St-Pittsburgh-PA-15204/11482685_zpid/","","","148000","154600","1500","55000","02/01/2023","1242","sqft","119.16","5000.69","sqft","29.6","3","1","","Kelly Luhn","No","No","","3008 Stafford St","Pittsburgh","15204","PA","USA","40.45788","-80.05126"
"https://www.zillow.com/homedetails/4602-Echo-Glen-Dr-Pittsburgh-PA-15236/11392338_zpid/","","","145000","151500","1681","121500","01/31/2023","1248","sqft","116.19","7653","sqft","18.95","3","2","","","No","No","","4602 Echo Glen Dr","Pittsburgh","15236","PA","USA","40.35674","-79.98255"
"https://www.zillow.com/homedetails/1305-S-Braddock-Ave-Pittsburgh-PA-15218/11343985_zpid/","","","149000","155800","1400","160800","01/27/2023","1446","sqft","103.04","3463.02","sqft","43.03","3","1","","Wayne Obitz","No","No","","1305 S Braddock Ave","Pittsburgh","15218","PA","USA","40.430492","-79.892204"
"https://www.zillow.com/homedetails/112-Marose-Dr-Pittsburgh-PA-15235/11452587_zpid/","","","148000","154700","1507","70400","01/27/2023","1197","sqft","123.64","9888.12","sqft","14.97","2","2","","Alan Comanici","No","No","","112 Marose Dr","Pittsburgh","15235","PA","USA","40.453766","-79.833855"
"https://www.zillow.com/homedetails/4746-Theodore-St-Homestead-PA-15120/11296403_zpid/","","","146000","152700","1284","54800","01/26/2023","966","sqft","151.14","7501.03","sqft","19.46","2","2","","Barbara Sulava","No","No","","4746 Theodore St","Homestead","15120","PA","USA","40.378944","-79.913025"
"https://www.zillow.com/homedetails/258-Bettis-Rd-Dravosburg-PA-15034/11390050_zpid/","","","145000","151800","1445","60800","01/19/2023","1198","sqft","121.04","8712","sqft","16.64","3","2","","","No","No","","258 Bettis Rd","Dravosburg","15034","PA","USA","40.358837","-79.888214"
"https://www.zillow.com/homedetails/3551-Rosalia-Ave-Pittsburgh-PA-15234/11393213_zpid/","","","145000","151800","1400","79700","01/18/2023","750","sqft","193.33","4704.48","sqft","30.82","3","1","","Michelle Bellas","No","No","","3551 Rosalia Ave","Pittsburgh","15234","PA","USA","40.364723","-80.015686"
"https://www.zillow.com/homedetails/258-Bettis-Rd-W-Dravosburg-PA-15034/2060367633_zpid/","","","145000","","1314","","01/18/2023","1061","sqft","136.66","8568.25","sqft","16.92","3","2","","DJ Fairley","No","No","","258 Bettis Rd W","Dravosburg","15034","PA","USA","",""
"https://www.zillow.com/homedetails/419-Elias-Dr-Pittsburgh-PA-15235/11451144_zpid/","","","146000","","1335","43600","01/13/2023","","","","949.61","sqft","153.75","3","1","","Myles Mazzanti","No","No","","419 Elias Dr","Pittsburgh","15235","PA","USA","40.466766","-79.84443"
"https://www.zillow.com/homedetails/504-Kaler-St-McKeesport-PA-15133/11503702_zpid/","","","148000","155100","1440","100000","01/13/2023","1332","sqft","111.11","4948.42","sqft","29.91","3","2","","Shaina Kelly","No","No","","504 Kaler St","McKeesport","15133","PA","USA","40.328526","-79.8555"
"https://www.zillow.com/homedetails/411-Oakhurst-Ave-North-Versailles-PA-15137/11498143_zpid/","","","145000","","1300","100500","01/12/2023","1163","sqft","124.68","0.25","acres","577919.49","3","2","","Kathy Dobos","No","No","","411 Oakhurst Ave","North Versailles","15137","PA","USA","40.367577","-79.8269"
"https://www.zillow.com/homedetails/3710-Oakleaf-Rd-Pittsburgh-PA-15227/11303599_zpid/","","","148000","155300","1350","87800","01/09/2023","1044","sqft","141.76","8986.43","sqft","16.47","3","2","","Chris Graham","No","No","","3710 Oakleaf Rd","Pittsburgh","15227","PA","USA","40.37526","-79.95654"
"https://www.zillow.com/homedetails/301-Pasadena-Dr-S-Pittsburgh-PA-15215/11336407_zpid/","","","146950","154300","1359","140000","01/05/2023","1352","sqft","108.69","9731","sqft","15.1","2","1","","","No","No","","301 Pasadena Dr S","Pittsburgh","15215","PA","USA","40.493996","-79.89017"
"https://www.zillow.com/homedetails/7808-Union-Ave-Pittsburgh-PA-15218/11344839_zpid/","","","149000","156500","1370","57000","01/03/2023","","","","1298.09","sqft","114.78","3","1","","Maureen States","No","No","","7808 Union Ave","Pittsburgh","15218","PA","USA","40.424366","-79.8839"
"https://www.zillow.com/homedetails/1416-Vance-Ave-Coraopolis-PA-15108/11438901_zpid/","","","145000","152300","1421","45800","01/03/2023","1220","sqft","118.85","3123.25","sqft","46.43","2","2","","Gina Cuccaro","No","No","","1416 Vance Ave","Coraopolis","15108","PA","USA","40.512768","-80.159874"
"https://www.zillow.com/homedetails/422-Mueller-Ave-Pittsburgh-PA-15205/11473574_zpid/","","","145000","","1545","87300","12/30/2022","925","sqft","156.76","5000.69","sqft","29","3","1","","Daniel Bewersdorff","No","No","","422 Mueller Ave","Pittsburgh","15205","PA","USA","40.4327","-80.058105"
"https://www.zillow.com/homedetails/910-Lebanon-Ave-Pittsburgh-PA-15234/11357938_zpid/","","","147000","154500","1650","109400","12/29/2022","1440","sqft","102.08","7501.03","sqft","19.6","3","2","","Jason Dalbey","No","No","","910 Lebanon Ave","Pittsburgh","15234","PA","USA","40.369457","-80.020805"
"https://www.zillow.com/homedetails/2765-Glenny-Ln-West-Mifflin-PA-15122/11389627_zpid/","","","146000","153400","1340","72800","12/29/2022","","","","0.6","acres","245361.11","3","2","","Kim Stotlemyer","No","No","","2765 Glenny Ln","West Mifflin","15122","PA","USA","40.361267","-79.87812"
"https://www.zillow.com/homedetails/527-McCoy-Rd-Mc-Kees-Rocks-PA-15136/11598231_zpid/","","","145000","152500","1529","71600","12/22/2022","1750","sqft","82.86","8167.5","sqft","17.75","3","2","","Eric Tallon","No","No","","527 McCoy Rd","Mc Kees Rocks","15136","PA","USA","40.479702","-80.07895"
"https://www.zillow.com/homedetails/3436-Mount-Troy-Rd-Pittsburgh-PA-15212/11271296_zpid/","","","145000","152500","1895","107300","12/21/2022","1593","sqft","91.02","10092.85","sqft","14.37","2","2","","Kevin Shaner","No","No","","3436 Mount Troy Rd","Pittsburgh","15212","PA","USA","40.486416","-79.991425"
"https://www.zillow.com/homedetails/214-Briaridge-Dr-Turtle-Creek-PA-15145/11455567_zpid/","","","145000","152500","1603","113100","12/21/2022","1674","sqft","86.62","9936.04","sqft","14.59","3","2","","Daniel Demers","No","No","","214 Briaridge Dr","Turtle Creek","15145","PA","USA","40.425747","-79.832756"
"https://www.zillow.com/homedetails/301-Repp-Rd-New-Kensington-PA-15068/11567035_zpid/","","","147500","155200","1550","103300","12/21/2022","704","sqft","209.52","1.16","acres","126827.17","3","2","","Darko Nikolic","No","No","","301 Repp Rd","New Kensington","15068","PA","USA","40.516846","-79.79153"
"https://www.zillow.com/homedetails/1315-Princeton-Ave-Natrona-Heights-PA-15065/11319909_zpid/","","","147700","155500","900","75500","12/16/2022","1000","sqft","147.7","6250.86","sqft","23.63","2","1","","Max Feinberg","No","No","","1315 Princeton Ave","Natrona Heights","15065","PA","USA","40.627083","-79.72572"
"https://www.zillow.com/homedetails/1413-Ivywood-Dr-Allison-Park-PA-15101/11561354_zpid/","","","145000","152600","1975","134800","12/16/2022","1270","sqft","114.17","10131","sqft","14.31","3","1.5","","","No","No","","1413 Ivywood Dr","Allison Park","15101","PA","USA","40.55248","-79.948906"
"https://www.zillow.com/homedetails/825-Oak-St-West-Mifflin-PA-15122/11385595_zpid/","","","146000","153800","1433","67900","12/09/2022","","","","7501.03","sqft","19.46","3","2","","Andrew Dellavecchia","No","No","","825 Oak St","West Mifflin","15122","PA","USA","40.398254","-79.87937"
"https://www.zillow.com/homedetails/4668-Cook-Ave-Pittsburgh-PA-15236/11429148_zpid/","","","145000","152800","1650","128300","12/09/2022","","","","7200.47","sqft","20.14","3","2","","Lisa Schimizzi","No","No","","4668 Cook Ave","Pittsburgh","15236","PA","USA","40.355232","-79.99215"
"https://www.zillow.com/homedetails/450-Kilbourne-St-Pittsburgh-PA-15207/11550023_zpid/","","","145000","144100","1234","42700","12/09/2022","1305","sqft","111.11","0.6","acres","241666.67","2","2","","Sherri Mayer","No","No","","450 Kilbourne St","Pittsburgh","15207","PA","USA","40.411648","-79.935974"
"https://www.zillow.com/homedetails/60-Prospect-St-East-Pittsburgh-PA-15112/11458068_zpid/","","","145000","152800","1797","16500","12/08/2022","1296","sqft","111.88","3240.86","sqft","44.74","3","3","","Marrae Hill","No","No","","60 Prospect St","East Pittsburgh","15112","PA","USA","40.402023","-79.834984"
"https://www.zillow.com/homedetails/1415-Meadow-St-McKeesport-PA-15132/11462726_zpid/","","","146000","153900","1200","15000","12/06/2022","1650","sqft","88.48","3323.63","sqft","43.93","4","2","","Daniel Demers","No","No","","1415 Meadow St","McKeesport","15132","PA","USA","40.343174","-79.84013"
"https://www.zillow.com/homedetails/228-Glencoe-Dr-West-Mifflin-PA-15122/11427605_zpid/","","","145000","188200","1496","73000","12/05/2022","1013","sqft","143.14","6577.56","sqft","22.04","3","2","","Jennifer Stout","No","No","","228 Glencoe Dr","West Mifflin","15122","PA","USA","40.349895","-79.914024"
"https://www.zillow.com/homedetails/1029-Vermont-Ave-Glassport-PA-15045/11544047_zpid/","","","145000","","1291","70200","12/05/2022","1618","sqft","89.62","7200.47","sqft","20.14","5","2","","Gregory Barr","No","No","","1029 Vermont Ave","Glassport","15045","PA","USA","40.318058","-79.888885"
"https://www.zillow.com/homedetails/234-Maryellen-Dr-North-Versailles-PA-15137/11572852_zpid/","","","145000","152900","1327","69500","11/30/2022","1325","sqft","109.43","7143.84","sqft","20.3","4","1","","Maggie James","No","No","","234 Maryellen Dr","North Versailles","15137","PA","USA","40.370186","-79.797966"
"https://www.zillow.com/homedetails/165-Spring-Grove-Rd-Pittsburgh-PA-15235/11491669_zpid/","","","145000","153000","1360","66300","11/18/2022","1040","sqft","139.42","0.33","acres","438596.49","2","2","","Ashley Reilly","No","No","","165 Spring Grove Rd","Pittsburgh","15235","PA","USA","40.472824","-79.829124"
"https://www.zillow.com/homedetails/530-Gallion-Ave-Pittsburgh-PA-15226/11566245_zpid/","","","145000","153000","1499","88500","11/18/2022","1320","sqft","109.85","4520","sqft","32.08","3","1","","","No","No","","530 Gallion Ave","Pittsburgh","15226","PA","USA","40.397793","-80.02141"
"https://www.zillow.com/homedetails/3915-Everlawn-St-West-Mifflin-PA-15122/11385993_zpid/","","","145000","153100","1326","63100","11/07/2022","900","sqft","161.11","4800","sqft","30.21","3","1","","","No","No","","3915 Everlawn St","West Mifflin","15122","PA","USA","40.392376","-79.87462"
"https://www.zillow.com/homedetails/201-Webster-Dr-Pittsburgh-PA-15235/11493066_zpid/","","","145000","153100","1321","26200","11/07/2022","1163","sqft","124.68","6400","sqft","22.66","2","2","","","No","No","","201 Webster Dr","Pittsburgh","15235","PA","USA","40.46232","-79.81674"
"https://www.zillow.com/homedetails/704-Bittersweet-Rd-Monroeville-PA-15146/11569443_zpid/","","","145000","153100","1470","100100","11/04/2022","1529","sqft","94.83","7940.99","sqft","18.26","3","2","","Beth Begonia","No","No","","704 Bittersweet Rd","Monroeville","15146","PA","USA","40.448902","-79.789795"
"https://www.zillow.com/homedetails/5642-Rural-St-Pittsburgh-PA-15206/11623583_zpid/","","","145000","153200","1628","40000","11/03/2022","1087","sqft","133.39","2857.54","sqft","50.74","3","1","","Leah George","No","No","","5642 Rural St","Pittsburgh","15206","PA","USA","40.465103","-79.92845"
"https://www.zillow.com/homedetails/600-Delmont-Ave-Pittsburgh-PA-15210/11324388_zpid/","","","148000","156300","1628","28100","10/31/2022","1785","sqft","82.91","2613.6","sqft","56.63","3","2","","Michael Wicker","No","No","","600 Delmont Ave","Pittsburgh","15210","PA","USA","40.417236","-80.0042"
"https://www.zillow.com/homedetails/704-Elwell-Ave-West-Mifflin-PA-15122/11352919_zpid/","","","148000","156300","1550","78900","10/31/2022","1200","sqft","123.33","0.33","acres","444311.02","3","2","","Denise Boes","No","No","","704 Elwell Ave","West Mifflin","15122","PA","USA","40.366825","-79.926025"
"https://www.zillow.com/homedetails/102-Lorish-Rd-Pittsburgh-PA-15205/164571405_zpid/","","","149000","","1372","300","10/31/2022","1116","sqft","133.51","0.62","acres","241961.68","2","2","","Lisa Jackson","No","No","","102 Lorish Rd","Pittsburgh","15205","PA","USA","40.45202","-80.1084"
"https://www.zillow.com/homedetails/41-McMichael-Rd-Carnegie-PA-15106/59843618_zpid/","","","145000","153200","1450","147700","10/28/2022","1360","sqft","106.62","0.41","acres","357759.68","3","3","","Renae Dodaro","No","No","","41 McMichael Rd","Carnegie","15106","PA","USA","40.4056","-80.14096"
"https://www.zillow.com/homedetails/1723-Barr-Ave-Pittsburgh-PA-15205/11473836_zpid/","","","145000","153200","1500","90000","10/27/2022","1210","sqft","119.83","7548","sqft","19.21","2","2","","","No","No","","1723 Barr Ave","Pittsburgh","15205","PA","USA","40.430817","-80.059456"
"https://www.zillow.com/homedetails/1536-Overdale-Dr-Homestead-PA-15120/11640576_zpid/","","","145000","153200","1200","81800","10/26/2022","912","sqft","158.99","7148.2","sqft","20.28","2","1","","Kelli Verosky","No","No","","1536 Overdale Dr","Homestead","15120","PA","USA","40.38959","-79.917366"
"https://www.zillow.com/homedetails/1305-Alton-St-Pittsburgh-PA-15216/11335893_zpid/","","","148500","156800","1497","44300","10/19/2022","","","","3001.28","sqft","49.48","4","1","","Amy Johnson","No","No","","1305 Alton St","Pittsburgh","15216","PA","USA","40.41387","-80.02093"
"https://www.zillow.com/homedetails/3637-Longview-Dr-Homestead-PA-15120/11640687_zpid/","","","145000","153100","1550","70600","10/17/2022","900","sqft","161.11","0.4","acres","362500","3","2","","Roseann Scolieri","No","No","","3637 Longview Dr","Homestead","15120","PA","USA","40.388824","-79.91641"
"https://www.zillow.com/homedetails/2818-Pine-St-Bethel-Park-PA-15102/11548077_zpid/","","","145000","153100","1599","58400","10/14/2022","1282","sqft","113.1","4617.36","sqft","31.4","3","2","","Judi Agostinelli","No","No","","2818 Pine St","Bethel Park","15102","PA","USA","40.322727","-80.03626"
"https://www.zillow.com/homedetails/114-Lebanon-Church-Rd-Pittsburgh-PA-15236/11467725_zpid/","","","147600","155800","1864","62900","10/13/2022","1416","sqft","104.24","6969.6","sqft","21.18","3","3","","Amy Smith","No","No","","114 Lebanon Church Rd","Pittsburgh","15236","PA","USA","40.34273","-79.96396"
"https://www.zillow.com/homedetails/478-Center-Ave-Verona-PA-15147/11448622_zpid/","","","145000","153000","1400","51200","10/11/2022","1761","sqft","82.34","2625","sqft","55.24","4","1.5","","","No","No","","478 Center Ave","Verona","15147","PA","USA","40.50625","-79.83981"
"https://www.zillow.com/homedetails/Circle-Jacktown-Irwin-PA-15642/294919100_zpid/","","","149000","152200","1376","17700","10/11/2022","","","","9800","sqft","15.2","","","","","No","No","","Circle Jacktown","Irwin","15642","PA","USA","40.3496","-79.78295"
"https://www.zillow.com/homedetails/436-Cape-May-Ave-Pittsburgh-PA-15216/11444831_zpid/","","","145000","153000","1500","61300","10/07/2022","1144","sqft","126.75","8533.4","sqft","16.99","3","2","","Xuan Trinh Groves","No","No","","436 Cape May Ave","Pittsburgh","15216","PA","USA","40.411705","-80.02256"
"https://www.zillow.com/homedetails/3108-Westborn-St-Pittsburgh-PA-15212/11606373_zpid/","","","147500","156100","1498","32400","10/06/2022","1440","sqft","102.43","2748.64","sqft","53.66","4","2","","Rick Taylor","No","No","","3108 Westborn St","Pittsburgh","15212","PA","USA","40.474117","-80.0284"
"https://www.zillow.com/homedetails/2668-California-Ave-Pittsburgh-PA-15212/11492824_zpid/","","","145000","153000","1400","69900","10/04/2022","1334","sqft","108.7","3506.58","sqft","41.35","3","1","","Jabel Warren","No","No","","2668 California Ave","Pittsburgh","15212","PA","USA","40.46747","-80.034676"
"https://www.zillow.com/homedetails/218-Burdine-Ave-Pittsburgh-PA-15227/11391383_zpid/","","","148000","156600","1307","93500","10/03/2022","1334","sqft","110.94","6957","sqft","21.27","2","1","","","No","No","","218 Burdine Ave","Pittsburgh","15227","PA","USA","40.363567","-79.98118"
"https://www.zillow.com/homedetails/831-Muldowney-Ave-West-Mifflin-PA-15122/11352704_zpid/","","","145000","153400","1594","64800","09/30/2022","1163","sqft","124.68","5998.21","sqft","24.17","3","1","","Christopher Angelo","No","No","","831 Muldowney Ave","West Mifflin","15122","PA","USA","40.367958","-79.92343"
"https://www.zillow.com/homedetails/2424-Valera-Ave-Pittsburgh-PA-15210/11648439_zpid/","","","145000","153400","1413","77000","09/30/2022","1280","sqft","113.28","8049.89","sqft","18.01","3","2","","Roberta Mazzarini","No","No","","2424 Valera Ave","Pittsburgh","15210","PA","USA","40.385155","-79.983246"
"https://www.zillow.com/homedetails/238-Cresswood-Dr-Elizabeth-PA-15037/2070223355_zpid/","","","145000","217500","1280","","09/30/2022","1512","sqft","95.9","0.56","acres","258934.94","","2","","","No","No","","238 Cresswood Dr","Elizabeth","15037","PA","USA","40.27292","-79.83687"
"https://www.zillow.com/homedetails/1841-Middle-St-Pittsburgh-PA-15215/11334532_zpid/","","","147000","155500","1800","64400","09/28/2022","2048","sqft","71.78","2125","sqft","69.18","3","2","","","No","No","","1841 Middle St","Pittsburgh","15215","PA","USA","40.49484","-79.91956"
"https://www.zillow.com/homedetails/1630-S-Braddock-Ave-Pittsburgh-PA-15218/11344331_zpid/","","","145000","153400","1565","74100","09/28/2022","","","","3689.53","sqft","39.3","3","2","","Amanda Dickens","No","No","","1630 S Braddock Ave","Pittsburgh","15218","PA","USA","40.42602","-79.88988"
"https://www.zillow.com/homedetails/1-Morgan-St-Morgan-PA-15064/59855420_zpid/","","","148000","156500","1250","67800","09/26/2022","","","","0.29","acres","508940.85","3","2","","Tim Fabian","No","No","","1 Morgan St","Morgan","15064","PA","USA","40.35038","-80.15267"
"https://www.zillow.com/homedetails/267-Scott-Rd-Pittsburgh-PA-15228/11312004_zpid/","","","147400","263100","1784","111200","09/22/2022","900","sqft","163.78","6111.47","sqft","24.12","3","2","","Michael Bello","No","No","","267 Scott Rd","Pittsburgh","15228","PA","USA","40.378147","-80.0365"
"https://www.zillow.com/homedetails/2506-Banks-School-Rd-Gibsonia-PA-15044/11276039_zpid/","","","145000","287200","2100","156900","09/21/2022","1050","sqft","138.1","0.44","acres","327683.62","3","1","","Dana Rowell","No","No","","2506 Banks School Rd","Gibsonia","15044","PA","USA","40.598724","-79.969124"
"https://www.zillow.com/homedetails/4106-Franklin-Rd-Pittsburgh-PA-15214/11327968_zpid/","","","145000","153300","1700","61200","09/21/2022","1733","sqft","83.67","2500.34","sqft","57.99","3","1","","Austin Rusert","No","No","","4106 Franklin Rd","Pittsburgh","15214","PA","USA","40.49322","-80.02069"
"https://www.zillow.com/homedetails/326-Vanadium-Rd-Pittsburgh-PA-15243/11361605_zpid/","","","146000","154300","1884","121600","09/21/2022","1103","sqft","132.37","10001.38","sqft","14.6","3","2","","Jennifer Hoberman","No","No","","326 Vanadium Rd","Pittsburgh","15243","PA","USA","40.369953","-80.0872"
"https://www.zillow.com/homedetails/127-Park-Way-White-Oak-PA-15131/11499925_zpid/","","","147000","155400","1395","56500","09/21/2022","1449","sqft","101.45","6594.98","sqft","22.29","4","2","","Hope Harmotto","No","No","","127 Park Way","White Oak","15131","PA","USA","40.35597","-79.82398"
"https://www.zillow.com/homedetails/3524-Fieldstone-Dr-Homestead-PA-15120/11294402_zpid/","","","145000","153300","1492","83000","09/19/2022","","","","6750","sqft","21.48","3","2","","Cheryl Tyrrell","No","No","","3524 Fieldstone Dr","Homestead","15120","PA","USA","40.39429","-79.912605"
"https://www.zillow.com/homedetails/425-High-St-McKeesport-PA-15132/11575485_zpid/","","","148935","157300","1310","64200","09/13/2022","1684","sqft","88.44","6381.54","sqft","23.34","3","2","","Melissa Merriman","No","No","","425 High St","McKeesport","15132","PA","USA","40.31662","-79.831764"
"https://www.zillow.com/homedetails/424-W-Ingomar-Rd-Pittsburgh-PA-15237/11643636_zpid/","","","145000","153200","1784","86700","09/13/2022","783","sqft","185.19","2.23","acres","65080.79","3","2","","Jill Cheran","No","No","","424 W Ingomar Rd","Pittsburgh","15237","PA","USA","40.584","-80.048294"
"https://www.zillow.com/homedetails/408-Rothey-Dr-Elizabeth-PA-15037/11266344_zpid/","","","147500","155800","886","78400","09/12/2022","1216","sqft","121.3","7200.47","sqft","20.48","3","2","","Cory Fast","No","No","","408 Rothey Dr","Elizabeth","15037","PA","USA","40.269035","-79.88065"
"https://www.zillow.com/homedetails/2855-Orlando-Pl-Pittsburgh-PA-15235/11453565_zpid/","","","145000","153100","1533","87200","09/12/2022","1380","sqft","105.07","8585.68","sqft","16.89","3","2","","Lisa Gasperoni","No","No","","2855 Orlando Pl","Pittsburgh","15235","PA","USA","40.45217","-79.8485"
"https://www.zillow.com/homedetails/112-Thunderwood-Dr-Bethel-Park-PA-15102/11608403_zpid/","","","145500","286700","1784","140100","09/12/2022","1308","sqft","111.24","8618","sqft","16.88","3","1.5","","","No","No","","112 Thunderwood Dr","Bethel Park","15102","PA","USA","40.30501","-80.05831"
"https://www.zillow.com/homedetails/229-Park-Ave-West-View-PA-15229/11408934_zpid/","","","146000","154100","1777","92200","09/06/2022","1169","sqft","124.89","3301.85","sqft","44.22","2","2","","Erica Gans","No","No","","229 Park Ave","West View","15229","PA","USA","40.51224","-80.028564"
"https://www.zillow.com/homedetails/3937-Howley-St-Pittsburgh-PA-15224/11514616_zpid/","","","145000","251100","1907","73200","09/02/2022","1528","sqft","94.9","1938.42","sqft","74.8","3","1","","Billy Burleson","No","No","","3937 Howley St","Pittsburgh","15224","PA","USA","40.463627","-79.95828"
"https://www.zillow.com/homedetails/599-Lindsay-Rd-Carnegie-PA-15106/11314521_zpid/","","","145000","153500","1900","141900","09/01/2022","1252","sqft","115.81","7405.2","sqft","19.58","3","2","","Ryan Bibza","No","No","","599 Lindsay Rd","Carnegie","15106","PA","USA","40.383324","-80.08291"
"https://www.zillow.com/homedetails/220-Burdine-Ave-Pittsburgh-PA-15227/11391382_zpid/","","","145000","153000","1088","82200","08/30/2022","","","","3192.95","sqft","45.41","2","1","","Amanda Dickens","No","No","","220 Burdine Ave","Pittsburgh","15227","PA","USA","40.36345","-79.98118"
"https://www.zillow.com/homedetails/935-Jefferson-Heights-Rd-Pittsburgh-PA-15235/11534135_zpid/","","","147000","188600","1700","73100","08/29/2022","","","","8276.4","sqft","17.76","3","2","","Elizabeth Kofmehl","No","No","","935 Jefferson Heights Rd","Pittsburgh","15235","PA","USA","40.45259","-79.8147"
"https://www.zillow.com/homedetails/1428-Conroy-St-Mc-Kees-Rocks-PA-15136/11594508_zpid/","","","148400","156600","1307","56100","08/29/2022","1025","sqft","144.78","3789.72","sqft","39.16","2","2","","Marsha Thompson","No","No","","1428 Conroy St","Mc Kees Rocks","15136","PA","USA","40.468124","-80.078186"
"https://www.zillow.com/homedetails/306-54th-St-Pittsburgh-PA-15201/11272828_zpid/","","","146500","154500","1650","96400","08/24/2022","1430","sqft","102.45","1119.49","sqft","130.86","2","1","","Blanca Pifano-Lenk","No","No","","306 54th St","Pittsburgh","15201","PA","USA","40.48192","-79.95024"
"https://www.zillow.com/homedetails/181-Merrimac-St-Pittsburgh-PA-15211/11515226_zpid/","","","145000","263000","1400","68200","08/22/2022","1244","sqft","116.56","2252.05","sqft","64.39","3","1","","Kristi Stebler","No","No","","181 Merrimac St","Pittsburgh","15211","PA","USA","40.43307","-80.013176"
"https://www.zillow.com/homedetails/4819-Andrews-Rd-Gibsonia-PA-15044/11258695_zpid/","","","146500","154400","1999","135200","08/19/2022","1506","sqft","97.28","1.23","acres","118815.9","3","2","","Mike Schroeder","No","No","","4819 Andrews Rd","Gibsonia","15044","PA","USA","40.596622","-79.990616"
"https://www.zillow.com/homedetails/422-Thompson-Run-Rd-Pittsburgh-PA-15237/11485681_zpid/","","","145000","152900","1429","90500","08/19/2022","990","sqft","146.46","0.42","acres","345238.1","2","1","","Judy McGinnis","No","No","","422 Thompson Run Rd","Pittsburgh","15237","PA","USA","40.5311","-79.989784"
"https://www.zillow.com/homedetails/119-Stotlers-Ln-Pittsburgh-PA-15235/11531703_zpid/","","","145000","152900","1314","48400","08/19/2022","1350","sqft","107.41","1.62","acres","89340.73","3","2","","Joanne Watterson","No","No","","119 Stotlers Ln","Pittsburgh","15235","PA","USA","40.48145","-79.80025"
"https://www.zillow.com/homedetails/1258-10th-Ave-Natrona-Heights-PA-15065/11301351_zpid/","","","147000","154900","1500","107800","08/15/2022","1485","sqft","98.99","4791.6","sqft","30.68","3","2","","Derek Eisenberg","No","No","","1258 10th Ave","Natrona Heights","15065","PA","USA","40.612236","-79.73335"
"https://www.zillow.com/homedetails/1098-Burtner-Rd-Natrona-Heights-PA-15065/11332090_zpid/","","","145880","153700","2250","140100","08/15/2022","2057","sqft","70.92","0.29","acres","497714.09","3","3","","Heidi Powell","No","No","","1098 Burtner Rd","Natrona Heights","15065","PA","USA","40.629658","-79.72226"
"https://www.zillow.com/homedetails/5804-Holsing-St-McKeesport-PA-15135/11575826_zpid/","","","145000","152800","1303","66000","08/15/2022","1346","sqft","107.73","0.49","acres","294476.04","3","1","","Dan Haeck","No","No","","5804 Holsing St","McKeesport","15135","PA","USA","40.30971","-79.82327"
"https://www.zillow.com/homedetails/3403-Quay-St-White-Oak-PA-15131/11500017_zpid/","","","148000","155900","1494","73100","08/12/2022","","","","4356","sqft","33.98","3","2","","Rosemarie Stashko","No","No","","3403 Quay St","White Oak","15131","PA","USA","40.357193","-79.81746"
"https://www.zillow.com/homedetails/1409-Oak-St-Cheswick-PA-15024/11530603_zpid/","","","145000","152700","1288","78200","08/02/2022","973","sqft","149.02","6250.86","sqft","23.2","2","2","","Connie Rusek","No","No","","1409 Oak St","Cheswick","15024","PA","USA","40.540287","-79.799805"
"https://www.zillow.com/homedetails/5334-Greenridge-Dr-Pittsburgh-PA-15236/11429962_zpid/","","","147000","181600","1450","79500","07/29/2022","1302","sqft","112.9","6499.15","sqft","22.62","3","1","","Roberta Allen","No","No","","5334 Greenridge Dr","Pittsburgh","15236","PA","USA","40.355278","-80.007904"
"https://www.zillow.com/homedetails/429-Elmore-Ave-West-Mifflin-PA-15122/11423342_zpid/","","","145000","152600","1356","55100","07/28/2022","1000","sqft","145","7405.2","sqft","19.58","3","1","","","No","No","","429 Elmore Ave","West Mifflin","15122","PA","USA","40.372524","-79.862885"
"https://www.zillow.com/homedetails/7222-Noblestown-Rd-Oakdale-PA-15071/59849285_zpid/","","","146500","222600","1185","77900","07/26/2022","1152","sqft","127.17","5.7","acres","25701.75","2","1","","","No","No","","7222 Noblestown Rd","Oakdale","15071","PA","USA","40.396862","-80.19271"
"https://www.zillow.com/homedetails/519-Rothey-Dr-Elizabeth-PA-15037/11266371_zpid/","","","147500","155200","1395","96500","07/25/2022","","","","7800","sqft","18.91","3","2","","Richard Charles","No","No","","519 Rothey Dr","Elizabeth","15037","PA","USA","40.26864","-79.878975"
"https://www.zillow.com/homedetails/424-E-7th-Ave-Tarentum-PA-15084/11279565_zpid/","","","146500","154200","1350","68800","07/25/2022","1800","sqft","81.39","3310.56","sqft","44.25","4","2","","Janet Ryan","No","No","","424 E 7th Ave","Tarentum","15084","PA","USA","40.603928","-79.75167"
"https://www.zillow.com/homedetails/100-Maytide-St-Pittsburgh-PA-15227/11303712_zpid/","","","145000","152500","1379","42700","07/22/2022","1348","sqft","107.57","4260.17","sqft","34.04","4","1","","Kassie Cable","No","No","","100 Maytide St","Pittsburgh","15227","PA","USA","40.384613","-79.980545"
"https://www.zillow.com/homedetails/2436-Cobden-St-Pittsburgh-PA-15203/11307967_zpid/","","","147500","155200","1200","65100","07/22/2022","1220","sqft","120.9","2404.51","sqft","61.34","2","1","","Darla Jobkar","No","No","","2436 Cobden St","Pittsburgh","15203","PA","USA","40.419853","-79.97108"
"https://www.zillow.com/homedetails/904-State-Ave-Coraopolis-PA-15108/11478509_zpid/","","","145000","152500","1450","66100","07/22/2022","1689","sqft","85.85","5697.65","sqft","25.45","3","1","","Michael Cowan","No","No","","904 State Ave","Coraopolis","15108","PA","USA","40.517807","-80.1668"
"https://www.zillow.com/homedetails/717-Maple-Ave-Pittsburgh-PA-15238/11414842_zpid/","","","147500","155100","1348","30600","07/14/2022","910","sqft","162.09","2212.85","sqft","66.66","2","2","","Shannon Meli","No","No","","717 Maple Ave","Pittsburgh","15238","PA","USA","40.493446","-79.860535"
"https://www.zillow.com/homedetails/61-Welsh-Way-Pittsburgh-PA-15203/11475156_zpid/","","","149000","210100","1749","67400","07/12/2022","1190","sqft","125.21","2000","sqft","74.5","4","2","","","No","No","","61 Welsh Way","Pittsburgh","15203","PA","USA","40.42398","-79.98735"
"https://www.zillow.com/homedetails/1347-Coronado-Rd-McKeesport-PA-15133/11466055_zpid/","","","145000","152400","1495","68500","07/11/2022","1164","sqft","124.57","5985.14","sqft","24.23","4","2","","Laurie Picone","No","No","","1347 Coronado Rd","McKeesport","15133","PA","USA","40.336864","-79.87199"
"https://www.zillow.com/homedetails/118-Rockwood-St-Monroeville-PA-15146/11571872_zpid/","","","145250","152600","1200","71900","07/08/2022","1010","sqft","143.81","7980.19","sqft","18.2","2","1","","Dina Angotti","No","No","","118 Rockwood St","Monroeville","15146","PA","USA","40.422432","-79.78702"
"https://www.zillow.com/homedetails/114-Carmella-Dr-White-Oak-PA-15131/11540576_zpid/","","","145000","152300","1312","76400","07/06/2022","","","","7535.88","sqft","19.24","3","1","","Jeff Weiner","No","No","","114 Carmella Dr","White Oak","15131","PA","USA","40.355556","-79.815056"
"https://www.zillow.com/homedetails/804-Bower-Hill-Rd-Bridgeville-PA-15017/11399886_zpid/","","","147000","154400","1617","82800","07/05/2022","1265","sqft","116.21","5257.69","sqft","27.96","2","1","","Kevin Shaner","No","No","","804 Bower Hill Rd","Bridgeville","15017","PA","USA","40.359932","-80.10138"
"https://www.zillow.com/homedetails/1704-Washington-St-Carnegie-PA-15106/11253647_zpid/","","","149000","156500","1200","79400","07/01/2022","990","sqft","150.51","4046.72","sqft","36.82","2","1","","Isaac Wilson","No","No","","1704 Washington St","Carnegie","15106","PA","USA","40.391663","-80.08697"
"https://www.zillow.com/homedetails/810-Macfarlane-Dr-Pittsburgh-PA-15235/11453617_zpid/","","","149000","156500","1800","89900","06/30/2022","1338","sqft","111.36","6303.13","sqft","23.64","3","3","","Melissa Barker","No","No","","810 Macfarlane Dr","Pittsburgh","15235","PA","USA","40.451862","-79.842865"
"https://www.zillow.com/homedetails/1415-Amanda-St-Pittsburgh-PA-15210/11556183_zpid/","","","146000","153300","1292","30000","06/30/2022","950","sqft","153.68","2500.34","sqft","58.39","2","1","","Frankie Jo Kunselman","No","No","","1415 Amanda St","Pittsburgh","15210","PA","USA","40.401802","-79.98815"
"https://www.zillow.com/homedetails/1514-Cumberland-St-Pittsburgh-PA-15205/59835354_zpid/","","","148000","155400","1625","88800","06/29/2022","1323","sqft","111.87","2465.5","sqft","60.03","3","2","","Mary Dowd","No","No","","1514 Cumberland St","Pittsburgh","15205","PA","USA","40.43819","-80.05674"
"https://www.zillow.com/homedetails/1213-4th-Ave-Coraopolis-PA-15108/11438378_zpid/","","","147000","154300","1500","57300","06/24/2022","1340","sqft","109.7","3750.52","sqft","39.19","3","2","","Gina Mercorelli-Diaz","No","No","","1213 4th Ave","Coraopolis","15108","PA","USA","40.517254","-80.15985"
"https://www.zillow.com/homedetails/224-Marie-St-Glassport-PA-15045/11466459_zpid/","","","149000","156400","1099","38200","06/24/2022","1508","sqft","98.81","6599.34","sqft","22.58","4","1","","Jana Hatok","No","No","","224 Marie St","Glassport","15045","PA","USA","40.337227","-79.888405"
"https://www.zillow.com/homedetails/1627-Dagmar-Ave-Pittsburgh-PA-15216/11445398_zpid/","","","148500","212600","1495","60400","06/23/2022","1256","sqft","118.23","0.25","acres","594000","3","2","","Cathy Wanserski","No","No","","1627 Dagmar Ave","Pittsburgh","15216","PA","USA","40.409733","-80.0225"
"https://www.zillow.com/homedetails/1118-Milan-Ave-Pittsburgh-PA-15226/11648911_zpid/","","","147500","154800","1400","87500","06/23/2022","1278","sqft","115.41","3598.06","sqft","40.99","3","1","","Timothy Reitmeyer","No","No","","1118 Milan Ave","Pittsburgh","15226","PA","USA","40.393604","-80.0139"
"https://www.zillow.com/homedetails/1946-Pioneer-Ave-Pittsburgh-PA-15226/11561836_zpid/","","","148500","","1599","62900","06/22/2022","","","","3149.39","sqft","47.15","3","2","","Kim Van Horn","No","No","","1946 Pioneer Ave","Pittsburgh","15226","PA","USA","40.403103","-80.01596"
"https://www.zillow.com/homedetails/1016-Scotia-Hollow-Rd-Finleyville-PA-15332/11250557_zpid/","","","145500","152700","1069","97800","06/21/2022","1352","sqft","107.62","0.25","acres","574144.4","2","1","","","No","No","","1016 Scotia Hollow Rd","Finleyville","15332","PA","USA","40.280643","-79.90852"
"https://www.zillow.com/homedetails/9722-Glendale-Rd-Pittsburgh-PA-15235/11415694_zpid/","","","145000","158000","1542","64000","06/16/2022","1445","sqft","100.35","0.34","acres","421023.86","3","2","","","No","No","","9722 Glendale Rd","Pittsburgh","15235","PA","USA","40.463707","-79.85867"
"https://www.zillow.com/homedetails/100-W-Undercliff-St-Pittsburgh-PA-15223/11410731_zpid/","","","147000","286900","3847","184100","06/10/2022","3340","sqft","44.01","6526","sqft","22.53","7","3","","","No","No","","100 W Undercliff St","Pittsburgh","15223","PA","USA","40.516056","-79.959816"
"https://www.zillow.com/homedetails/126-Sumner-Ave-Wilkinsburg-PA-15221/11456349_zpid/","","","145000","152100","996","77000","06/10/2022","1008","sqft","143.85","3484.8","sqft","41.61","2","1","","Christopher Passaro","No","No","","126 Sumner Ave","Wilkinsburg","15221","PA","USA","40.41824","-79.8451"
"https://www.zillow.com/homedetails/365-Wheeler-Ave-Mc-Kees-Rocks-PA-15136/11265347_zpid/","","","146000","153100","1460","71700","06/08/2022","900","sqft","162.22","5000.69","sqft","29.2","2","2","","T. Richard Parobeck","No","No","","365 Wheeler Ave","Mc Kees Rocks","15136","PA","USA","40.48448","-80.077225"
"https://www.zillow.com/homedetails/1720-Highland-Ave-West-Mifflin-PA-15122/11424545_zpid/","","","145000","152100","1249","69900","06/08/2022","1426","sqft","101.68","4874.36","sqft","29.75","2","1","","Lillian Denhardt","No","No","","1720 Highland Ave","West Mifflin","15122","PA","USA","40.363228","-79.8601"
"https://www.zillow.com/homedetails/2230-Hawthorne-Ave-Pittsburgh-PA-15218/11382779_zpid/","","","147000","154100","1429","26000","06/02/2022","1078","sqft","136.36","2626.67","sqft","55.96","2","1","","Jason Carr","No","No","","2230 Hawthorne Ave","Pittsburgh","15218","PA","USA","40.421196","-79.88188"
"https://www.zillow.com/homedetails/57-Warren-St-Pittsburgh-PA-15205/11584948_zpid/","","","148500","155700","1300","60000","06/02/2022","1344","sqft","110.49","2953.37","sqft","50.28","2","1","","Nicholas Fix","No","No","","57 Warren St","Pittsburgh","15205","PA","USA","40.434673","-80.07154"
"https://www.zillow.com/homedetails/725-Garfield-St-Springdale-PA-15144/11595947_zpid/","","","147500","154600","1363","82800","06/01/2022","","","","4203.54","sqft","35.09","3","2","","Amy Johnson","No","No","","725 Garfield St","Springdale","15144","PA","USA","40.539272","-79.78099"
"https://www.zillow.com/homedetails/408-1st-Ave-Carnegie-PA-15106/11254138_zpid/","","","145000","152000","1495","53300","05/31/2022","1154","sqft","125.65","5519.05","sqft","26.27","2","1","","Mary Hagan","No","No","","408 1st Ave","Carnegie","15106","PA","USA","40.401974","-80.09054"
"https://www.zillow.com/homedetails/3418-Laketon-Rd-Pittsburgh-PA-15235/11451738_zpid/","","","145000","152000","1498","56600","05/31/2022","1100","sqft","131.82","7000.09","sqft","20.71","3","2","","Jaclyn Hobbs","No","No","","3418 Laketon Rd","Pittsburgh","15235","PA","USA","40.458206","-79.84623"
"https://www.zillow.com/homedetails/309-Barckhoff-St-Pittsburgh-PA-15235/11567536_zpid/","","","145000","152000","1394","48900","05/31/2022","1116","sqft","129.93","5614.88","sqft","25.82","3","2","","Susan Gill","No","No","","309 Barckhoff St","Pittsburgh","15235","PA","USA","40.495094","-79.7901"
"https://www.zillow.com/homedetails/519-Center-Hill-Rd-Pittsburgh-PA-15239/11626437_zpid/","","","147000","154100","1363","90800","05/31/2022","874","sqft","168.19","8751.2","sqft","16.8","2","2","","Nikki Tiani Moroney","No","No","","519 Center Hill Rd","Pittsburgh","15239","PA","USA","40.47671","-79.75671"
"https://www.zillow.com/homedetails/1716-Ohio-Ave-West-Mifflin-PA-15122/11424155_zpid/","","","145000","152000","1494","57600","05/26/2022","1013","sqft","143.14","6660.32","sqft","21.77","3","2","","Joseph Backo","No","No","","1716 Ohio Ave","West Mifflin","15122","PA","USA","40.367317","-79.86051"
"https://www.zillow.com/homedetails/1245-Havelock-St-Pittsburgh-PA-15234/11357056_zpid/","","","145000","152000","1650","80800","05/23/2022","1176","sqft","123.3","0.99","acres","146779.14","3","2","","","No","No","","1245 Havelock St","Pittsburgh","15234","PA","USA","40.369545","-80.00878"
"https://www.zillow.com/homedetails/4229-Dunkeld-Way-Pittsburgh-PA-15201/11513494_zpid/","","","149000","156200","1773","55400","05/20/2022","","","","871.2","sqft","171.03","2","1","","Carol Tomayko","No","No","","4229 Dunkeld Way","Pittsburgh","15201","PA","USA","40.46836","-79.956406"
"https://www.zillow.com/homedetails/1845-Bluff-St-West-Mifflin-PA-15122/11424025_zpid/","","","145100","152100","1505","72800","05/19/2022","","","","6300","sqft","23.03","3","2","","Kenneth Conley","No","No","","1845 Bluff St","West Mifflin","15122","PA","USA","40.36687","-79.86442"
"https://www.zillow.com/homedetails/509-Woodbine-St-McKeesport-PA-15132/11541906_zpid/","","","147000","154100","1232","77800","05/18/2022","1240","sqft","118.55","7701.41","sqft","19.09","2","2","","Tammy Fazio","No","No","","509 Woodbine St","McKeesport","15132","PA","USA","40.319675","-79.832954"
"https://www.zillow.com/homedetails/1113-Schweitzer-Elizabeth-McKeesport-PA-15135/2065297581_zpid/","","","145000","","1350","","05/18/2022","","","","","","","3","3","","Lisa Bliss","No","No","","1113 Schweitzer Elizabeth","McKeesport","15135","PA","USA","",""
"https://www.zillow.com/homedetails/400-27th-St-McKeesport-PA-15132/11502311_zpid/","","","145000","152000","1099","32100","05/17/2022","1408","sqft","102.98","3375.9","sqft","42.95","4","2","","Lori Husok","No","No","","400 27th St","McKeesport","15132","PA","USA","40.334198","-79.84621"
"https://www.zillow.com/homedetails/210-Lenox-Ave-Pittsburgh-PA-15221/11456325_zpid/","","","145000","159800","1394","30600","05/16/2022","1633","sqft","88.79","3301.85","sqft","43.91","4","2","","Chad Church","No","No","","210 Lenox Ave","Pittsburgh","15221","PA","USA","40.418655","-79.846275"
"https://www.zillow.com/homedetails/1245-Havelock-Castle-Pittsburgh-PA-15243/2064729060_zpid/","","","145000","152000","1900","","05/13/2022","1176","sqft","123.3","0.88","acres","164772.73","3","2","","Melissa Shipley","No","No","","1245 Havelock Castle","Pittsburgh","15243","PA","USA","",""
"https://www.zillow.com/homedetails/223-Pennoak-Dr-Pittsburgh-PA-15235/11451917_zpid/","","","147232","154300","1165","55300","05/11/2022","966","sqft","152.41","6049","sqft","24.34","2","1","","","No","No","","223 Pennoak Dr","Pittsburgh","15235","PA","USA","40.46021","-79.83922"
"https://www.zillow.com/homedetails/1114-Dallas-Ave-Natrona-Heights-PA-15065/11320233_zpid/","","","146000","153000","1150","71700","05/10/2022","1420","sqft","102.82","4356","sqft","33.52","3","2","","Jordan Schramm","No","No","","1114 Dallas Ave","Natrona Heights","15065","PA","USA","40.62409","-79.726166"
"https://www.zillow.com/homedetails/1304-Rossner-Ave-Duquesne-PA-15110/11423798_zpid/","","","147000","154100","1499","39200","05/09/2022","1520","sqft","96.71","4051.08","sqft","36.29","3","2","","Andrew Dellavecchia","No","No","","1304 Rossner Ave","Duquesne","15110","PA","USA","40.368237","-79.8575"
"https://www.zillow.com/homedetails/406-Cedarhurst-Dr-North-Versailles-PA-15137/11498134_zpid/","","","148000","155100","1257","25000","05/09/2022","1178","sqft","125.64","6359.76","sqft","23.27","3","1","","Daniel Demers","No","No","","406 Cedarhurst Dr","North Versailles","15137","PA","USA","40.36704","-79.827"
"https://www.zillow.com/homedetails/304-Grant-St-Morgan-PA-15064/59854857_zpid/","","","146000","243000","2166","110900","05/03/2022","1837","sqft","79.48","8712","sqft","16.76","3","2","","Laura Underhill","No","No","","304 Grant St","Morgan","15064","PA","USA","40.35499","-80.145836"
"https://www.zillow.com/homedetails/219-Washington-Ave-Homestead-PA-15120/11347858_zpid/","","","145000","152000","1340","61700","05/02/2022","","","","8001","sqft","18.12","3","1","","Philomena Gross","No","No","","219 Washington Ave","Homestead","15120","PA","USA","40.397827","-79.89069"
"https://www.zillow.com/homedetails/3806-Greensburg-Pike-Pittsburgh-PA-15221/11454856_zpid/","","","145000","152000","1557","96900","04/29/2022","1188","sqft","122.05","6185.52","sqft","23.44","3","2","","Dana Pavlik","No","No","","3806 Greensburg Pike","Pittsburgh","15221","PA","USA","40.429974","-79.84882"
"https://www.zillow.com/homedetails/641-Lynda-Ln-North-Versailles-PA-15137/11497711_zpid/","","","145000","152000","1314","56700","04/29/2022","1089","sqft","133.15","7949.7","sqft","18.24","3","1","","Linda Carpenter","No","No","","641 Lynda Ln","North Versailles","15137","PA","USA","40.374268","-79.82663"
"https://www.zillow.com/homedetails/244-Lilac-Dr-Monroeville-PA-15146/11600882_zpid/","","","147500","154600","1195","84800","04/29/2022","","","","8886.24","sqft","16.6","2","1","","Julie DiLucia","No","No","","244 Lilac Dr","Monroeville","15146","PA","USA","40.440174","-79.77307"
"https://www.zillow.com/homedetails/4609-E-Willock-Rd-Pittsburgh-PA-15227/11354711_zpid/","","","145000","152000","1500","83500","04/28/2022","768","sqft","188.8","6725.66","sqft","21.56","3","1","","Brian Gierl","No","No","","4609 E Willock Rd","Pittsburgh","15227","PA","USA","40.365334","-79.9701"
"https://www.zillow.com/homedetails/110-Windsor-Dr-Pittsburgh-PA-15235/11493738_zpid/","","","148000","155200","1300","81900","04/28/2022","1144","sqft","129.37","5998.21","sqft","24.67","3","1","","Roxanne Mirabile","No","No","","110 Windsor Dr","Pittsburgh","15235","PA","USA","40.45339","-79.81783"
"https://www.zillow.com/homedetails/224-Newburn-Ave-Pittsburgh-PA-15227/11306092_zpid/","","","145000","152000","1300","76400","04/27/2022","1000","sqft","145","4469.26","sqft","32.44","2","2","","Dawn Simko","No","No","","224 Newburn Ave","Pittsburgh","15227","PA","USA","40.380196","-79.984024"
"https://www.zillow.com/homedetails/134-Pennoak-Dr-Pittsburgh-PA-15235/11451918_zpid/","","","147232","154400","1300","54600","04/27/2022","","","","","","","3","1","","Susan Kaczorek","No","No","","134 Pennoak Dr","Pittsburgh","15235","PA","USA","40.45946","-79.841156"
"https://www.zillow.com/homedetails/108-Hornaday-Rd-Pittsburgh-PA-15210/11557346_zpid/","","","145000","152100","1790","102200","04/22/2022","2700","sqft","53.7","6163","sqft","23.53","4","2","","","No","No","","108 Hornaday Rd","Pittsburgh","15210","PA","USA","40.394535","-79.985466"
"https://www.zillow.com/homedetails/5164-Natrona-Way-Pittsburgh-PA-15201/11612827_zpid/","","","146000","295600","1584","42700","04/22/2022","1155","sqft","126.41","797.15","sqft","183.15","2","1","","Marc Rasschaert","No","No","","5164 Natrona Way","Pittsburgh","15201","PA","USA","40.479095","-79.9534"
"https://www.zillow.com/homedetails/2152-Lucina-Ave-Pittsburgh-PA-15210/11647395_zpid/","","","145000","159600","1419","48100","04/15/2022","1100","sqft","131.82","2613.6","sqft","55.48","3","1","","Jason Wilcox","No","No","","2152 Lucina Ave","Pittsburgh","15210","PA","USA","40.39006","-79.99313"
"https://www.zillow.com/homedetails/302-Macfarlane-Dr-Pittsburgh-PA-15235/11451865_zpid/","","","145000","150500","1548","32200","04/14/2022","1638","sqft","88.52","5998.21","sqft","24.17","4","3","","Moran Tuti","No","No","","302 Macfarlane Dr","Pittsburgh","15235","PA","USA","40.457973","-79.84089"
"https://www.zillow.com/homedetails/1901-Meadville-St-Pittsburgh-PA-15214/11506157_zpid/","","","145000","144500","1300","40400","04/12/2022","","","","896","sqft","161.83","2","1","","Michael Bassilios","No","No","","1901 Meadville St","Pittsburgh","15214","PA","USA","40.46256","-80.005905"
"https://www.zillow.com/homedetails/1019-Franklin-St-McKeesport-PA-15132/11500204_zpid/","","","145000","152200","1214","60800","04/11/2022","1488","sqft","97.45","6655.97","sqft","21.78","3","2","","Keith Soles","No","No","","1019 Franklin St","McKeesport","15132","PA","USA","40.35403","-79.82597"
"https://www.zillow.com/homedetails/1719-Payne-St-North-Versailles-PA-15137/11573199_zpid/","","","145000","152700","1305","74200","04/08/2022","","","","8250","sqft","17.58","3","1","","Scott Ludwick","No","No","","1719 Payne St","North Versailles","15137","PA","USA","40.366512","-79.78824"
"https://www.zillow.com/homedetails/400-Westwood-St-Pittsburgh-PA-15211/11516829_zpid/","","","149000","156400","1088","46400","04/05/2022","728","sqft","204.67","1677.06","sqft","88.85","2","2","","Leann Monz","No","No","","400 Westwood St","Pittsburgh","15211","PA","USA","40.424023","-80.006165"
"https://www.zillow.com/homedetails/404-Bark-St-Pittsburgh-PA-15214/11505453_zpid/","","","146000","153900","1358","54400","04/04/2022","1240","sqft","117.74","2178","sqft","67.03","3","1","","Kristin Devine","No","No","","404 Bark St","Pittsburgh","15214","PA","USA","40.46776","-80.00575"
"https://www.zillow.com/homedetails/540-5th-Ave-Elizabeth-PA-15037/11266760_zpid/","","","145000","154900","1266","102600","03/31/2022","2002","sqft","72.43","","","","3","2","","Luann Fraicola","No","No","","540 5th Ave","Elizabeth","15037","PA","USA","40.269478","-79.88833"
"https://www.zillow.com/homedetails/1815-S-Canal-St-Pittsburgh-PA-15215/11334296_zpid/","","","145000","152800","1249","76900","03/30/2022","868","sqft","167.05","1454.9","sqft","99.66","2","1","","Meredith Ward","No","No","","1815 S Canal St","Pittsburgh","15215","PA","USA","40.496006","-79.920944"
"https://www.zillow.com/homedetails/901-Grandview-Ave-East-Pittsburgh-PA-15112/11458510_zpid/","","","146000","154700","1500","57100","03/30/2022","1324","sqft","110.27","6808.43","sqft","21.44","3","2","","Roxanne Humes","No","No","","901 Grandview Ave","East Pittsburgh","15112","PA","USA","40.399","-79.83873"
"https://www.zillow.com/homedetails/2637-Messinger-Ln-White-Oak-PA-15131/121886931_zpid/","","","145000","153500","1133","56800","03/30/2022","1170","sqft","123.93","0.25","acres","574257.43","3","2","","Luann Fraicola","No","No","","2637 Messinger Ln","White Oak","15131","PA","USA","40.336235","-79.785736"
"https://www.zillow.com/homedetails/411-Governor-Dr-Allison-Park-PA-15101/11561062_zpid/","","","145000","276300","1994","130700","03/29/2022","1470","sqft","98.64","0.26","acres","563946.43","3","1.5","","","No","No","","411 Governor Dr","Allison Park","15101","PA","USA","40.554005","-79.961006"
"https://www.zillow.com/homedetails/1112-Highland-St-Tarentum-PA-15084/11279157_zpid/","","","145000","154100","1150","66300","03/28/2022","1479","sqft","98.04","3118.9","sqft","46.49","3","2","","Robert Singer","No","No","","1112 Highland St","Tarentum","15084","PA","USA","40.608383","-79.75313"
"https://www.zillow.com/homedetails/1304-Walnut-Ave-North-Versailles-PA-15137/11538776_zpid/","","","145000","154100","1500","77600","03/28/2022","1232","sqft","117.69","7200","sqft","20.14","3","2","","","No","No","","1304 Walnut Ave","North Versailles","15137","PA","USA","40.374783","-79.800186"
"https://www.zillow.com/homedetails/168-Rose-Ave-Penn-Hills-PA-15235/11452590_zpid/","","","145000","153600","1300","56200","03/25/2022","1197","sqft","121.14","5998.21","sqft","24.17","3","1","","Demetri Samaha","No","No","","168 Rose Ave","Penn Hills","15235","PA","USA","40.453854","-79.83441"
"https://www.zillow.com/homedetails/1167-Race-St-Mc-Kees-Rocks-PA-15136/11593934_zpid/","","","148000","156200","1364","51500","03/25/2022","1400","sqft","105.71","2613.6","sqft","56.63","3","1","","Christian Wilhelm","No","No","","1167 Race St","Mc Kees Rocks","15136","PA","USA","40.4707","-80.07665"
"https://www.zillow.com/homedetails/8-Sands-Ave-Ambridge-PA-15003/11641802_zpid/","","","145000","154800","1400","66900","03/24/2022","1296","sqft","111.88","8873.17","sqft","16.34","3","1","","Carol Miller","No","No","","8 Sands Ave","Ambridge","15003","PA","USA","40.58805","-80.2025"
"https://www.zillow.com/homedetails/1304-Walnut-St-North-Versailles-PA-15137/2067699197_zpid/","","","145000","157000","1450","","03/23/2022","1232","sqft","117.69","7200.47","sqft","20.14","3","2","","Alecia DiMatteo","No","No","","1304 Walnut St","North Versailles","15137","PA","USA","40.37474","-79.80019"
"https://www.zillow.com/homedetails/6134-Hallwood-Rd-Verona-PA-15147/11490433_zpid/","","","146600","156900","1164","59000","03/18/2022","950","sqft","154.32","0.39","acres","375608.51","2","1","","Jennifer Mascaro","No","No","","6134 Hallwood Rd","Verona","15147","PA","USA","40.49406","-79.8327"
"https://www.zillow.com/homedetails/611-5th-Ave-Carnegie-PA-15106/11254072_zpid/","","","147000","162100","1800","58200","03/17/2022","1170","sqft","125.64","2395.8","sqft","61.36","3","2","","Kassie Cable","No","No","","611 5th Ave","Carnegie","15106","PA","USA","40.403397","-80.09503"
"https://www.zillow.com/homedetails/612-Pillow-Ave-Cheswick-PA-15024/11529861_zpid/","","","146000","154700","999","73900","03/17/2022","","","","","","","2","1","","Felix Krynicky","No","No","","612 Pillow Ave","Cheswick","15024","PA","USA","40.54782","-79.80427"
"https://www.zillow.com/homedetails/1422-Park-Blvd-Pittsburgh-PA-15216/11655772_zpid/","","","145000","163600","1214","70300","03/14/2022","984","sqft","147.36","3000","sqft","48.33","2","1","","","No","No","","1422 Park Blvd","Pittsburgh","15216","PA","USA","40.391743","-80.03964"
"https://www.zillow.com/homedetails/524-Spikenard-St-Carnegie-PA-15106/11254714_zpid/","","","145000","167600","1610","82200","03/11/2022","1224","sqft","118.46","5279.47","sqft","27.46","4","2","","Ellise Nottingham","No","No","","524 Spikenard St","Carnegie","15106","PA","USA","40.398727","-80.08899"
"https://www.zillow.com/homedetails/2838-Dwight-Ave-Pittsburgh-PA-15216/11570805_zpid/","","","145000","161800","1250","85100","03/11/2022","","","","2450","sqft","59.18","2","1","","Amanda Dickens","No","No","","2838 Dwight Ave","Pittsburgh","15216","PA","USA","40.400105","-80.03847"
"https://www.zillow.com/homedetails/2403-Kingwood-St-Pittsburgh-PA-15234/11306152_zpid/","","","145900","154600","1091","40000","03/09/2022","918","sqft","158.93","6499.15","sqft","22.45","2","1","","Shelley McClellan","No","No","","2403 Kingwood St","Pittsburgh","15234","PA","USA","40.378773","-79.995575"
"https://www.zillow.com/homedetails/3431-Duquesne-Ave-West-Mifflin-PA-15122/11348927_zpid/","","","147000","154800","1245","50900","03/03/2022","1124","sqft","130.78","","","","2","2","","Theresa White","No","No","","3431 Duquesne Ave","West Mifflin","15122","PA","USA","40.39174","-79.88691"
"https://www.zillow.com/homedetails/331-Albert-St-Turtle-Creek-PA-15145/11496133_zpid/","","","145000","151000","1329","48400","03/03/2022","1320","sqft","109.85","","","","4","2","","Deborah Kane","No","No","","331 Albert St","Turtle Creek","15145","PA","USA","40.40704","-79.8196"
"https://www.zillow.com/homedetails/627-Gail-Dr-Verona-PA-15147/11531328_zpid/","","","148400","178800","1795","102400","03/03/2022","","","","","","","3","3","","Jeremy Wells","No","No","","627 Gail Dr","Verona","15147","PA","USA","40.496796","-79.815926"
"https://www.zillow.com/homedetails/1049-Colony-Dr-Pittsburgh-PA-15205/306759974_zpid/","","","147500","","1608","1300","03/01/2022","","","","8593","sqft","17.17","","","","","No","No","","1049 Colony Dr","Pittsburgh","15205","PA","USA","40.42975","-80.14919"
"https://www.zillow.com/homedetails/322-Shaw-Ave-Springdale-PA-15144/11564277_zpid/","","","145000","157300","1400","77200","02/28/2022","1175","sqft","123.4","6412.03","sqft","22.61","3","1","","Alisha Schweiger","No","No","","322 Shaw Ave","Springdale","15144","PA","USA","40.54288","-79.78979"
"https://www.zillow.com/homedetails/18-Wilkins-Rd-Pittsburgh-PA-15221/11418933_zpid/","","","149000","182400","1374","108700","02/26/2022","1560","sqft","95.51","6534","sqft","22.8","4","2","","Sabrina Geraci","No","No","","18 Wilkins Rd","Pittsburgh","15221","PA","USA","40.43303","-79.86082"
"https://www.zillow.com/homedetails/330-Wilcox-St-Carnegie-PA-15106/11255263_zpid/","","","147500","156800","1200","70100","02/25/2022","1104","sqft","133.61","2204.14","sqft","66.92","3","1","","Rich Vargo","No","No","","330 Wilcox St","Carnegie","15106","PA","USA","40.41261","-80.088135"
"https://www.zillow.com/homedetails/4108-Grizella-St-Pittsburgh-PA-15214/11327818_zpid/","","","145000","163800","1325","64300","02/25/2022","1630","sqft","88.96","2500","sqft","58","3","1","","Corey Burns","No","No","","4108 Grizella St","Pittsburgh","15214","PA","USA","40.494064","-80.016846"
"https://www.zillow.com/homedetails/203-Orchard-Ave-Cheswick-PA-15024/11530234_zpid/","","","146000","156400","1041","64000","02/25/2022","","","","4380","sqft","33.33","3","2","","","No","No","","203 Orchard Ave","Cheswick","15024","PA","USA","40.543","-79.81112"
"https://www.zillow.com/homedetails/925-Elizabeth-St-Pittsburgh-PA-15221/11455157_zpid/","","","145000","166100","1314","89500","02/23/2022","1248","sqft","116.19","7457.47","sqft","19.44","3","1","","Cassidy Ringler","No","No","","925 Elizabeth St","Pittsburgh","15221","PA","USA","40.427174","-79.83935"
"https://www.zillow.com/homedetails/519-Morrow-Ave-Carnegie-PA-15106/11256471_zpid/","","","149000","178300","1595","99900","02/18/2022","1432","sqft","104.05","5248.98","sqft","28.39","3","1","","Jennifer Drass","No","No","","519 Morrow Ave","Carnegie","15106","PA","USA","40.41419","-80.08578"
"https://www.zillow.com/homedetails/601-Oakwood-Ave-Pittsburgh-PA-15202/11368472_zpid/","","","145000","195100","1670","114000","02/18/2022","","","","5400","sqft","26.85","3","2","","Michelle Petty","No","No","","601 Oakwood Ave","Pittsburgh","15202","PA","USA","40.504845","-80.069176"
"https://www.zillow.com/homedetails/434-Iberia-St-Pittsburgh-PA-15211/11474948_zpid/","","","145361","187900","1533","20000","02/14/2022","","","","2575","sqft","56.45","3","1","","Melissa Watkins","No","No","","434 Iberia St","Pittsburgh","15211","PA","USA","40.424244","-79.999374"
"https://www.zillow.com/homedetails/1358-Harris-Ave-Pittsburgh-PA-15205/11476751_zpid/","","","146000","178400","1381","74600","02/14/2022","875","sqft","166.86","5410.15","sqft","26.99","3","1","","William Higgins","No","No","","1358 Harris Ave","Pittsburgh","15205","PA","USA","40.43364","-80.05397"
"https://www.zillow.com/homedetails/1807-Cedaridge-Dr-South-Park-PA-15129/11251563_zpid/","","","145000","264400","1700","144200","02/09/2022","1464","sqft","99.04","9100","sqft","15.93","3","1.5","","","No","No","","1807 Cedaridge Dr","South Park","15129","PA","USA","40.285667","-79.9867"
"https://www.zillow.com/homedetails/211-Alden-Rd-Carnegie-PA-15106/11256091_zpid/","","","145000","219200","1792","124100","02/08/2022","1080","sqft","134.26","0.35","acres","414177.05","3","2","","","No","No","","211 Alden Rd","Carnegie","15106","PA","USA","40.422276","-80.089905"
"https://www.zillow.com/homedetails/1520-Creedmoor-Ave-Pittsburgh-PA-15226/11650123_zpid/","","","146000","184500","1394","82400","02/04/2022","1248","sqft","116.99","3301.85","sqft","44.22","3","2","","Timothy Myers","No","No","","1520 Creedmoor Ave","Pittsburgh","15226","PA","USA","40.3883","-80.0115"
"https://www.zillow.com/homedetails/7416-Park-Ave-Pittsburgh-PA-15218/11345727_zpid/","","","149000","167800","1813","44300","01/31/2022","","","","","","","3","3","","Patricia Peck","No","No","","7416 Park Ave","Pittsburgh","15218","PA","USA","40.419167","-79.887726"
"https://www.zillow.com/homedetails/131-2nd-Ave-West-Mifflin-PA-15122/11348854_zpid/","","","145000","148400","1200","80800","01/28/2022","1252","sqft","115.81","3998.81","sqft","36.26","3","2","","Izzy Zehner","No","No","","131 2nd Ave","West Mifflin","15122","PA","USA","40.38956","-79.88598"
"https://www.zillow.com/homedetails/30-Main-St-Ambridge-PA-15003/11614316_zpid/","","","145000","297600","3081","900","01/28/2022","1144","sqft","126.75","3929.11","sqft","36.9","2","1","","Colleen Murray","No","No","","30 Main St","Ambridge","15003","PA","USA","40.57898","-80.21813"
"https://www.zillow.com/homedetails/1324-Tyndall-St-Pittsburgh-PA-15204/11478985_zpid/","","","145000","170300","1398","70800","01/27/2022","1000","sqft","145","5000","sqft","29","3","1","","","No","No","","1324 Tyndall St","Pittsburgh","15204","PA","USA","40.451008","-80.06248"
"https://www.zillow.com/homedetails/6-6th-St-Leetsdale-PA-15056/11587406_zpid/","","","145000","219400","1503","88700","01/24/2022","1972","sqft","73.53","0.32","acres","452514.69","4","1.5","","","No","No","","6 6th St","Leetsdale","15056","PA","USA","40.55995","-80.21367"
"https://www.zillow.com/homedetails/539-Pacific-Ave-Pittsburgh-PA-15221/11455911_zpid/","","","145000","168500","1164","64700","01/20/2022","1504","sqft","96.41","3300","sqft","43.94","3","2","","","No","No","","539 Pacific Ave","Pittsburgh","15221","PA","USA","40.419243","-79.84659"
"https://www.zillow.com/homedetails/3735-Willett-Rd-Pittsburgh-PA-15227/11353216_zpid/","","","149000","178100","1511","86600","01/19/2022","","","","6120","sqft","24.35","3","1","","Brian Schmidt","No","No","","3735 Willett Rd","Pittsburgh","15227","PA","USA","40.374374","-79.95639"
"https://www.zillow.com/homedetails/613-Montclair-St-Pittsburgh-PA-15217/11545356_zpid/","","","145000","293400","1532","147200","01/19/2022","1760","sqft","82.39","3634","sqft","39.9","4","1","","","No","No","","613 Montclair St","Pittsburgh","15217","PA","USA","40.420464","-79.935646"
"https://www.zillow.com/homedetails/1426-Trance-Dr-Pittsburgh-PA-15234/11357301_zpid/","","","148000","","1435","93000","01/14/2022","594","sqft","249.16","","","","1","1","","Jane York","No","No","","1426 Trance Dr","Pittsburgh","15234","PA","USA","40.365616","-80.00831"
"https://www.zillow.com/homedetails/1341-Marlboro-Ave-Pittsburgh-PA-15221/11381077_zpid/","","","146000","151800","1314","40800","01/14/2022","1260","sqft","115.87","2835.76","sqft","51.49","3","1","","Jaton Hopkins","No","No","","1341 Marlboro Ave","Pittsburgh","15221","PA","USA","40.43662","-79.871284"
"https://www.zillow.com/homedetails/169-National-Dr-Monroeville-PA-15146/11600947_zpid/","","","145000","176600","1498","99000","01/13/2022","","","","10050","sqft","14.43","4","1","","Erin Cleary Taylor","No","No","","169 National Dr","Monroeville","15146","PA","USA","40.434875","-79.77532"
"https://www.zillow.com/homedetails/314-Midland-Ave-Carnegie-PA-15106/11255587_zpid/","","","145000","183400","1419","104500","01/12/2022","1551","sqft","93.49","3145.03","sqft","46.1","3","1","","Melanie Marsh","No","No","","314 Midland Ave","Carnegie","15106","PA","USA","40.407192","-80.093216"
"https://www.zillow.com/homedetails/421-Guylyn-Dr-Pittsburgh-PA-15235/11532431_zpid/","","","149000","160700","1507","58000","01/11/2022","1392","sqft","107.04","7373","sqft","20.21","3","1.5","","","No","No","","421 Guylyn Dr","Pittsburgh","15235","PA","USA","40.46864","-79.802414"
"https://www.zillow.com/homedetails/1806-Horizon-Dr-White-Oak-PA-15131/11540881_zpid/","","","147000","168000","1314","88400","01/11/2022","888","sqft","165.54","0.3","acres","491638.8","2","2","","Donna Hornicak","No","No","","1806 Horizon Dr","White Oak","15131","PA","USA","40.346058","-79.80762"
"https://www.zillow.com/homedetails/105-Imogene-Rd-Pittsburgh-PA-15217/11640242_zpid/","","","145000","237900","1530","72000","01/07/2022","1323","sqft","109.6","6703.88","sqft","21.63","3","1","","Kristen Stoltz","No","No","","105 Imogene Rd","Pittsburgh","15217","PA","USA","40.413326","-79.9231"
"https://www.zillow.com/homedetails/1905-Arlington-Ave-Pittsburgh-PA-15210/11308306_zpid/","","","145000","166300","1200","81100","01/06/2022","1284","sqft","112.93","4700.12","sqft","30.85","3","1","","Rick Schweikert","No","No","","1905 Arlington Ave","Pittsburgh","15210","PA","USA","40.418064","-79.98046"
"https://www.zillow.com/homedetails/2657-Sunset-Dr-West-Mifflin-PA-15122/11389901_zpid/","","","146000","172800","1341","63500","01/06/2022","1125","sqft","129.78","0.26","acres","559815.95","3","1","","Francis Barry","No","No","","2657 Sunset Dr","West Mifflin","15122","PA","USA","40.36","-79.877464"
"https://www.zillow.com/homedetails/139-Pennoak-Dr-Pittsburgh-PA-15235/11451912_zpid/","","","148000","161900","1494","58100","01/06/2022","1152","sqft","128.47","6085.33","sqft","24.32","3","2","","","No","No","","139 Pennoak Dr","Pittsburgh","15235","PA","USA","40.45982","-79.84083"
"https://www.zillow.com/homedetails/803-Garden-City-Dr-Monroeville-PA-15146/11569404_zpid/","","","145000","190700","1747","99400","01/04/2022","1292","sqft","112.23","10880","sqft","13.33","3","1.5","","","No","No","","803 Garden City Dr","Monroeville","15146","PA","USA","40.45072","-79.78733"
"https://www.zillow.com/homedetails/4745-Lougean-Ave-Pittsburgh-PA-15207/11296929_zpid/","","","148000","181100","1317","70600","01/03/2022","1316","sqft","112.46","6750","sqft","21.93","3","1","","","No","No","","4745 Lougean Ave","Pittsburgh","15207","PA","USA","40.376617","-79.91081"
"https://www.zillow.com/homedetails/1146-Brinton-Avenue-Ext-Braddock-PA-15104/11457283_zpid/","","","146000","142900","1250","34300","01/03/2022","1164","sqft","125.43","0.61","acres","239349.67","3","2","","","No","No","","1146 Brinton Avenue Ext","Braddock","15104","PA","USA","40.40767","-79.84652"
"https://www.zillow.com/homedetails/320-Fernhill-Ave-Pittsburgh-PA-15226/11565809_zpid/","","","145000","205800","1500","102300","01/03/2022","1384","sqft","104.77","3001.28","sqft","48.31","3","1","","Mica Dawkins","No","No","","320 Fernhill Ave","Pittsburgh","15226","PA","USA","40.40086","-80.01723"
"https://www.zillow.com/homedetails/1146-Brinton-Avenue-Ext-N-Braddock-PA-15104/2067322017_zpid/","","","146000","","1134","","01/03/2022","1164","sqft","125.43","9600.62","sqft","15.21","3","2","","Frank Amato","No","No","# N","1146 Brinton Avenue Ext #N","Braddock","15104","PA","USA","",""
"https://www.zillow.com/homedetails/2408-S-Braddock-Ave-Pittsburgh-PA-15218/11383467_zpid/","","","147000","169800","1367","62700","12/30/2021","1300","sqft","113.08","0.65","acres","227062.09","3","1","","Mica Dawkins","No","No","","2408 S Braddock Ave","Pittsburgh","15218","PA","USA","40.418045","-79.88073"
