Property URL,MLS ID,Number of days on Zillow,Property price (USD),Zestimate (USD),Rent zestimate (USD per month),Tax assessed value (USD),Sold date (MM/DD/YYYY),Living area,Living area unit,Price per living area unit (USD),Lot/land area,Lot/land area unit,Price per lot/land area unit (USD),Bedrooms,Bathrooms,Broker name,Broker agent,Is owner occupied,Property owned by Zillow,Property unit number,Street address,City,Zip,State,Country,Latitude,Longitude
"https://www.zillow.com/homedetails/5049-Amberson-Pl-Pittsburgh-PA-15232/11529106_zpid/","","","2200000","2200000","13498","681500","10/13/2023","5335","sqft","412.37","","","","6","7","","Mary Anne Hanna Lang","No","No","","5049 Amberson Pl","Pittsburgh","15232","PA","USA","40.450188","-79.941154"
"https://www.zillow.com/homedetails/808-Whitetail-Cir-Wexford-PA-15090/242630598_zpid/","","","1775000","1775000","9315","34800","10/13/2023","6500","sqft","273.08","4.25","acres","417381.9","6","5","","Nicholas Fix","No","No","","808 Whitetail Cir","Wexford","15090","PA","USA","40.65993","-80.058784"
"https://www.zillow.com/homedetails/5640-N-Montour-Rd-Gibsonia-PA-15044/121887465_zpid/","","","3245000","3245000","31366","2834300","10/02/2023","9252","sqft","350.73","163","acres","19907.98","5","7","","Gia Albanowski","No","No","","5640 N Montour Rd","Gibsonia","15044","PA","USA","40.643696","-79.97557"
"https://www.zillow.com/homedetails/1732-Sturbridge-Dr-Sewickley-PA-15143/333136875_zpid/","","","2113870","","1887","23800","09/29/2023","7000","sqft","301.98","2.45","acres","863332.65","6","6","","Adam Longshore","No","No","","1732 Sturbridge Dr","Sewickley","15143","PA","USA","40.568","-80.087975"
"https://www.zillow.com/homedetails/625-East-Dr-Sewickley-PA-15143/11518716_zpid/","","","2000000","1999900","12296","767600","09/28/2023","","","","0.34","acres","5866823.12","6","6","","Liza Christ","No","No","","625 East Dr","Sewickley","15143","PA","USA","40.54859","-80.184975"
"https://www.zillow.com/homedetails/89-1st-St-Oakmont-PA-15139/300248798_zpid/","","","2085000","","1395","1300","09/22/2023","5100","sqft","408.82","7095.92","sqft","293.83","4","6","","Lori Hummel","No","No","","89 1st St","Oakmont","15139","PA","USA","40.512386","-79.84789"
"https://www.zillow.com/homedetails/665-Chilliwack-Ln-Mars-PA-16046/164593212_zpid/","","","1950000","1949700","11762","696200","09/01/2023","5304","sqft","367.65","0.49","acres","4016477.86","6","5","","Angela Hoying Pulkowski","No","No","","665 Chilliwack Ln","Mars","16046","PA","USA","40.66389","-80.086174"
"https://www.zillow.com/homedetails/1342-Inverness-Ave-Pittsburgh-PA-15217/11630531_zpid/","","","2200000","2200400","13271","827400","08/28/2023","6317","sqft","348.27","0.32","acres","6845052.89","5","6","","Susan Silversmith","No","No","","1342 Inverness Ave","Pittsburgh","15217","PA","USA","40.44214","-79.93145"
"https://www.zillow.com/homedetails/45-Stonedale-Rd-Sewickley-PA-15143/304678757_zpid/","","","3750000","3749900","22633","443500","08/08/2023","3600","sqft","1041.67","69.37","acres","54058.81","4","4","","Liza Christ","No","No","","45 Stonedale Rd","Sewickley","15143","PA","USA","40.55368","-80.125374"
"https://www.zillow.com/homedetails/630-Canterbury-Ln-Sewickley-PA-15143/11519114_zpid/","","","2358576","2357500","7834","802100","08/02/2023","3803","sqft","620.19","0.54","acres","4354109.62","5","5","","","No","No","","630 Canterbury Ln","Sewickley","15143","PA","USA","40.544865","-80.182556"
"https://www.zillow.com/homedetails/130-Buckthorn-Rd-Baden-PA-15005/59848226_zpid/","","","2200000","2200200","13284","1237400","08/02/2023","6888","sqft","319.4","7","acres","314285.71","6","5.5","","","No","No","","130 Buckthorn Rd","Baden","15005","PA","USA","40.646736","-80.12953"
"https://www.zillow.com/homedetails/130-Buckthorn-Dr-Wexford-PA-15090/2060118621_zpid/","","","2200000","","1999","","07/28/2023","7450","sqft","295.3","7.13","acres","308555.4","5","7","","Michelle Bushee","No","No","","130 Buckthorn Dr","Wexford","15090","PA","USA","",""
"https://www.zillow.com/homedetails/15-The-Estate-At-Hunt-Club-Ln-Pittsburgh-PA-15215/2061610377_zpid/","","","1970000","","1448","","07/19/2023","9236","sqft","213.3","3.19","acres","618524.33","5","6","","Lori Hummel","No","No","","15 The Estate At Hunt Club Ln","Pittsburgh","15215","PA","USA","",""
"https://www.zillow.com/homedetails/106-Herman-Ave-Wilmerding-PA-15148/2070808676_zpid/","","","1800000","","1055","","07/14/2023","","","","","","","","","","","No","No","","106 Herman Ave","Wilmerding","15148","PA","USA","40.392838","-79.80895"
"https://www.zillow.com/homedetails/2002-Mallard-Ln-Baden-PA-15005/333136986_zpid/","","","1759900","","1759","4400","07/05/2023","","","","0.49","acres","3591632.65","5","5","","Kevin Mihm","No","No","","2002 Mallard Ln","Baden","15005","PA","USA","40.656487","-80.138916"
"https://www.zillow.com/homedetails/422-Oliver-Rd-Sewickley-PA-15143/11555231_zpid/","","","2724500","2731300","16483","1325600","07/03/2023","7738","sqft","352.09","101","sqft","26975.25","5","4.5","","","No","No","","422 Oliver Rd","Sewickley","15143","PA","USA","40.552784","-80.19384"
"https://www.zillow.com/homedetails/401-Water-Works-Rd-Sewickley-PA-15143/11519293_zpid/","","","2195000","2313000","14098","724700","06/28/2023","","","","7.2","acres","304861.11","4","6","","","No","No","","401 Water Works Rd","Sewickley","15143","PA","USA","40.544548","-80.15596"
"https://www.zillow.com/homedetails/5920-Braeburn-Pl-Pittsburgh-PA-15232/11629193_zpid/","","","2251629","","14426","1325000","06/28/2023","7026","sqft","320.47","43.56","sqft","51690.29","6","6","","Roslyn Neiman","No","No","","5920 Braeburn Pl","Pittsburgh","15232","PA","USA","40.448322","-79.9219"
"https://www.zillow.com/homedetails/2-Deer-Hollow-Dr-Presto-PA-15142/59844655_zpid/","","","2300000","2252300","13563","2182100","06/22/2023","10332","sqft","222.61","14","acres","164285.71","4","7","","Dave McSwigan","No","No","","2 Deer Hollow Dr","Presto","15142","PA","USA","40.38261","-80.1346"
"https://www.zillow.com/homedetails/324-Thorn-St-Sewickley-PA-15143/11518438_zpid/","","","1800000","1807200","10907","969100","06/20/2023","6288","sqft","286.26","6250.86","sqft","287.96","7","9","","Angela Hoying Pulkowski","No","No","","324 Thorn St","Sewickley","15143","PA","USA","40.540443","-80.184006"
"https://www.zillow.com/homedetails/1583-Hastings-Mill-Rd-Pittsburgh-PA-15241/11510790_zpid/","","","2500000","2513500","15023","905200","06/15/2023","6114","sqft","408.9","0.57","acres","4356159.61","5","6","","Karen Marshall","No","No","","1583 Hastings Mill Rd","Pittsburgh","15241","PA","USA","40.32674","-80.09016"
"https://www.zillow.com/homedetails/776-Valleyview-Rd-Pittsburgh-PA-15243/11658455_zpid/","","","2600000","2614500","15625","1099300","06/14/2023","","","","0.41","acres","6394490.9","5","6","","Kathy McKenna","No","No","","776 Valleyview Rd","Pittsburgh","15243","PA","USA","40.38955","-80.062996"
"https://www.zillow.com/homedetails/1024-Goldeneye-Dr-Baden-PA-15005/300248482_zpid/","","","1775000","1787100","10786","1050000","06/07/2023","4600","sqft","385.87","0.45","acres","3912276.83","6","7","","Angela Hoying Pulkowski","No","No","","1024 Goldeneye Dr","Baden","15005","PA","USA","40.657032","-80.1404"
"https://www.zillow.com/homedetails/400-Centennial-Ave-10-Sewickley-PA-15143/300319792_zpid/","","","1974816","","1373","21000","06/05/2023","","","","","","","","","","","No","No","# 10","400 Centennial Ave #10","Sewickley","15143","PA","USA","40.541817","-80.18078"
"https://www.zillow.com/homedetails/206-Woodland-Rd-Sewickley-PA-15143/11555418_zpid/","","","2200000","2217200","13384","990000","06/01/2023","6140","sqft","358.31","1.18","acres","1867572.16","7","6","","Kathryn Brandt","No","No","","206 Woodland Rd","Sewickley","15143","PA","USA","40.552017","-80.187065"
"https://www.zillow.com/homedetails/10475-Grubbs-Rd-Wexford-PA-15090/11297843_zpid/","","","1750000","1764200","10649","936800","05/31/2023","7596","sqft","230.38","1.25","acres","1398545.51","4","6","","Luz Campbell","No","No","","10475 Grubbs Rd","Wexford","15090","PA","USA","40.60857","-80.03709"
"https://www.zillow.com/homedetails/640-Pine-Rd-Sewickley-PA-15143/11519025_zpid/","","","3050000","3079100","18588","1328600","05/26/2023","7764","sqft","392.84","0.89","acres","3420648.82","7","5.5","","","No","No","","640 Pine Rd","Sewickley","15143","PA","USA","40.54624","-80.182106"
"https://www.zillow.com/homedetails/825-Fox-Chapel-Rd-Pittsburgh-PA-15238/11446375_zpid/","","","2000000","2028300","12246","1300000","05/10/2023","","","","3.32","acres","602409.64","5","7","","Trudy Ward","No","No","","825 Fox Chapel Rd","Pittsburgh","15238","PA","USA","40.52895","-79.87771"
"https://www.zillow.com/homedetails/111-Serenity-Ln-Gibsonia-PA-15044/300248728_zpid/","","","2389000","","2070","23500","05/09/2023","","","","3.98","acres","600251.26","4","6","","Dina Spagnolo","No","No","","111 Serenity Ln","Gibsonia","15044","PA","USA","40.64711","-80.01337"
"https://www.zillow.com/homedetails/23-Linden-Pl-Sewickley-PA-15143/11518865_zpid/","","","2000000","2029400","12252","1400000","05/08/2023","4583","sqft","436.4","0.4","acres","5003752.81","6","7","","Liz Fecko","No","No","","23 Linden Pl","Sewickley","15143","PA","USA","40.54322","-80.189"
"https://www.zillow.com/homedetails/2-Beaver-St-Sewickley-PA-15143/11518913_zpid/","","","2800000","2445000","14762","1161000","05/05/2023","6718","sqft","416.79","0.77","acres","3625064.73","6","5","","Kathleen Barge","No","No","","2 Beaver St","Sewickley","15143","PA","USA","40.544586","-80.18758"
"https://www.zillow.com/homedetails/306-Grant-St-Sewickley-PA-15143/11518955_zpid/","","","2160000","2210100","13346","1428700","04/14/2023","6592","sqft","327.67","0.71","acres","3042253.52","7","5","","Michael Reed","No","No","","306 Grant St","Sewickley","15143","PA","USA","40.54163","-80.18675"
"https://www.zillow.com/homedetails/341-Fairview-Rd-Pittsburgh-PA-15238/164402271_zpid/","","","6350175","6497200","39357","2450000","04/06/2023","12437","sqft","510.59","3","acres","2116725","4","6","","Max Hofmann","No","No","","341 Fairview Rd","Pittsburgh","15238","PA","USA","40.535343","-79.88384"
"https://www.zillow.com/homedetails/111-Haverford-Rd-Pittsburgh-PA-15238/11444530_zpid/","","","1709465","1752200","10606","826500","04/03/2023","4248","sqft","402.42","3.51","acres","487304.73","5","5","","Jeffrey Varga","No","No","","111 Haverford Rd","Pittsburgh","15238","PA","USA","40.52775","-79.907974"
"https://www.zillow.com/homedetails/5051-Castleman-St-Pittsburgh-PA-15232/11529233_zpid/","","","1750000","1793800","10858","1048800","04/03/2023","2464","sqft","710.23","8044","sqft","217.55","2","2.5","","","No","No","","5051 Castleman St","Pittsburgh","15232","PA","USA","40.449318","-79.94046"
"https://www.zillow.com/homedetails/5131-Pembroke-Pl-Pittsburgh-PA-15232/11529234_zpid/","","","2962050","3039000","18400","1014300","04/03/2023","5713","sqft","518.48","0.43","acres","6941408.33","7","5","","","No","No","","5131 Pembroke Pl","Pittsburgh","15232","PA","USA","40.450207","-79.93875"
"https://www.zillow.com/homedetails/4865-S-Montour-Rd-Gibsonia-PA-15044/2065563779_zpid/","","","2999999","3076200","18635","","03/31/2023","","","","22","acres","136363.59","4","4","","Gia Albanowski","No","No","","4865 S Montour Rd","Gibsonia","15044","PA","USA","40.601505","-79.983765"
"https://www.zillow.com/homedetails/4-Thawmont-Dr-Sewickley-PA-15143/11519061_zpid/","","","1745500","1791900","10850","1008500","03/29/2023","5459","sqft","319.75","5.53","acres","315419.51","5","8","","Erin Adams","No","No","","4 Thawmont Dr","Sewickley","15143","PA","USA","40.54722","-80.16922"
"https://www.zillow.com/homedetails/321-Woodland-Rd-Sewickley-PA-15143/11555400_zpid/","","","3400000","3500700","21210","970000","03/20/2023","6000","sqft","566.67","1.3","acres","2615384.62","4","6","","","No","No","","321 Woodland Rd","Sewickley","15143","PA","USA","40.552284","-80.189064"
"https://www.zillow.com/homedetails/10754-Babcock-Blvd-Gibsonia-PA-15044/248642879_zpid/","","","2150000","2247600","13677","11500","01/27/2023","7902","sqft","272.08","2.01","acres","1070717.13","5","7","","Michelle Bushee","No","No","","10754 Babcock Blvd","Gibsonia","15044","PA","USA","40.622295","-80.001076"
"https://www.zillow.com/homedetails/720-Amberson-Ave-Pittsburgh-PA-15232/11529223_zpid/","","","1835000","2247800","13286","2177500","01/17/2023","6890","sqft","266.33","0.41","acres","4475609.76","8","6","","","No","No","","720 Amberson Ave","Pittsburgh","15232","PA","USA","40.44958","-79.94044"
"https://www.zillow.com/homedetails/330-Shields-Ln-Sewickley-PA-15143/11555130_zpid/","","","4475000","4702700","28664","1774900","12/30/2022","10223","sqft","437.74","1.9","acres","2355263.16","6","8","","Robyn Jones","No","No","","330 Shields Ln","Sewickley","15143","PA","USA","40.556515","-80.19854"
"https://www.zillow.com/homedetails/12-W-Woodland-Rd-Pittsburgh-PA-15232/11629516_zpid/","","","2378159","2499300","15234","1194900","12/29/2022","6978","sqft","340.81","871.2","sqft","2729.75","8","6","","Roslyn Neiman","No","No","","12 W Woodland Rd","Pittsburgh","15232","PA","USA","40.445843","-79.92369"
"https://www.zillow.com/homedetails/1160-Beechwood-Blvd-Pittsburgh-PA-15206/11629224_zpid/","","","3000000","3155700","19234","1892800","12/22/2022","11782","sqft","254.63","1.2","acres","2500000","5","7","","Susan Silversmith","No","No","","1160 Beechwood Blvd","Pittsburgh","15206","PA","USA","40.44999","-79.91887"
"https://www.zillow.com/homedetails/400-Centennial-Ave-2-Sewickley-PA-15143/300319862_zpid/","","","2740000","","1368","21000","12/16/2022","3315","sqft","826.55","","","","2","2.5","","","No","No","# 2","400 Centennial Ave #2","Sewickley","15143","PA","USA","40.541817","-80.18078"
"https://www.zillow.com/homedetails/1130-Shady-Ave-Pittsburgh-PA-15232/11629216_zpid/","","","3735000","3933000","23973","885700","12/13/2022","8427","sqft","443.22","1","acres","3735000","6","7","","Roslyn Neiman","No","No","","1130 Shady Ave","Pittsburgh","15232","PA","USA","40.44911","-79.92173"
"https://www.zillow.com/homedetails/141-Beech-Ridge-Dr-Sewickley-PA-15143/11642101_zpid/","","","2650000","3082700","18267","2681200","12/13/2022","22000","sqft","120.45","7.94","acres","333711.12","6","10","","","No","No","","141 Beech Ridge Dr","Sewickley","15143","PA","USA","40.58661","-80.16043"
"https://www.zillow.com/homedetails/938-Blackburn-Rd-Sewickley-PA-15143/304678995_zpid/","","","3000000","3173800","19240","824600","11/28/2022","4138","sqft","724.99","22","acres","136363.64","4","4","","Liza Christ","No","No","","938 Blackburn Rd","Sewickley","15143","PA","USA","40.56131","-80.13306"
"https://www.zillow.com/homedetails/540-Pearce-Mill-Rd-Wexford-PA-15090/304678619_zpid/","","","6345000","1522000","9503","505200","11/23/2022","2800","sqft","2266.07","82.3","acres","77095.99","3","2.5","","","No","No","","540 Pearce Mill Rd","Wexford","15090","PA","USA","40.651035","-80.03358"
"https://www.zillow.com/homedetails/61-1st-St-Oakmont-PA-15139/300249164_zpid/","","","2028425","","1259","1200","11/18/2022","5500","sqft","368.8","5227.2","sqft","388.05","4","4","","Deborah Donahue-Kane","No","No","","61 1st St","Oakmont","15139","PA","USA","40.511066","-79.84751"
"https://www.zillow.com/homedetails/660-Washington-Rd-Pittsburgh-PA-15228/306750490_zpid/","","","4200000","1377600","7960","1100000","11/14/2022","","","","0.5","acres","8472745.8","","","","","No","No","","660 Washington Rd","Pittsburgh","15228","PA","USA","40.380924","-80.04467"
"https://www.zillow.com/homedetails/121-Evergreen-Rd-Pittsburgh-PA-15238/11411986_zpid/","","","1950000","2059100","12536","793100","11/08/2022","3699","sqft","527.17","2.02","acres","965346.53","4","4","","Stephanie Veenis","No","No","","121 Evergreen Rd","Pittsburgh","15238","PA","USA","40.517002","-79.88164"
"https://www.zillow.com/homedetails/2670-Merryoak-Ln-Pittsburgh-PA-15241/11582668_zpid/","","","1950000","2059900","12537","1500000","11/01/2022","7084","sqft","275.27","1.55","acres","1260585.69","6","8","","Stacy Romanias","No","No","","2670 Merryoak Ln","Pittsburgh","15241","PA","USA","40.310368","-80.10052"
"https://www.zillow.com/homedetails/3-Spanish-Tract-Rd-Sewickley-PA-15143/11614746_zpid/","","","1750000","1432900","8457","556400","11/01/2022","4276","sqft","409.26","32.44","acres","53942.44","4","3.5","","","No","No","","3 Spanish Tract Rd","Sewickley","15143","PA","USA","40.567657","-80.18307"
"https://www.zillow.com/homedetails/808-Devonshire-St-Pittsburgh-PA-15213/11529109_zpid/","","","1975000","1866000","11014","799200","10/28/2022","5791","sqft","341.05","0.28","acres","7168784.03","6","5","","MaryAnn Bacharach","No","No","","808 Devonshire St","Pittsburgh","15213","PA","USA","40.448444","-79.94461"
"https://www.zillow.com/homedetails/1000-Meridian-Dr-Presto-PA-15142/87987689_zpid/","","","1735000","1515900","9223","865800","10/28/2022","5986","sqft","289.84","0.82","acres","2115853.66","5","8","","Joann Robb","No","No","","1000 Meridian Dr","Presto","15142","PA","USA","40.385666","-80.12807"
"https://www.zillow.com/homedetails/856-Canterbury-Ln-Pittsburgh-PA-15232/11529183_zpid/","","","1875000","1980800","12050","681000","10/27/2022","3135","sqft","598.09","43.56","sqft","43044.08","4","4","","Roslyn Neiman","No","No","","856 Canterbury Ln","Pittsburgh","15232","PA","USA","40.448215","-79.94126"
"https://www.zillow.com/homedetails/107-Bluebird-Ln-Wexford-PA-15090/164562603_zpid/","","","2068000","2183100","13282","1359700","10/17/2022","10736","sqft","192.62","3","acres","688759.37","6","8","","Maria Werner","No","No","","107 Bluebird Ln","Wexford","15090","PA","USA","40.61633","-80.037575"
"https://www.zillow.com/homedetails/1315-Inverness-Ave-Pittsburgh-PA-15217/11629687_zpid/","","","1850000","1953000","11876","822100","10/11/2022","5714","sqft","323.77","0.37","acres","5044995.91","6","5","","Julie Rost","No","No","","1315 Inverness Ave","Pittsburgh","15217","PA","USA","40.443085","-79.931046"
"https://www.zillow.com/homedetails/506-Devonshire-St-Pittsburgh-PA-15213/11528252_zpid/","","","2093000","2214200","13423","1405000","09/28/2022","4152","sqft","504.09","435.6","sqft","4804.87","5","5","","Roslyn Neiman","No","No","","506 Devonshire St","Pittsburgh","15213","PA","USA","40.451084","-79.94554"
"https://www.zillow.com/homedetails/5816-Solway-St-Pittsburgh-PA-15217/11630797_zpid/","","","2318500","2452800","14869","975800","09/28/2022","5864","sqft","395.38","8712","sqft","266.13","6","6","","Roslyn Neiman","No","No","","5816 Solway St","Pittsburgh","15217","PA","USA","40.44245","-79.9229"
"https://www.zillow.com/homedetails/1410-Virginia-Ct-Pittsburgh-PA-15241/164713167_zpid/","","","1715000","1813400","10992","951600","09/23/2022","7685","sqft","223.16","1","acres","1715343.07","7","7","","Julie Welter","No","No","","1410 Virginia Ct","Pittsburgh","15241","PA","USA","40.3229","-80.09485"
"https://www.zillow.com/homedetails/216-Hillcrest-Rd-Pittsburgh-PA-15238/11374486_zpid/","","","1800000","1903100","11536","937500","09/22/2022","4649","sqft","387.18","2","acres","898652.02","4","5","","Mikal Merlina","No","No","","216 Hillcrest Rd","Pittsburgh","15238","PA","USA","40.5043","-79.87478"
"https://www.zillow.com/homedetails/126-Parkview-Dr-Sewickley-PA-15143/2133122168_zpid/","","","2100000","2450800","13710","","08/26/2022","","","","10.08","acres","208333.71","6","8.5","","","No","No","","126 Parkview Dr","Sewickley","15143","PA","USA","40.565517","-80.11759"
"https://www.zillow.com/homedetails/126-Park-View-Dr-Sewickley-PA-15143/11588630_zpid/","","","2100000","2214400","13412","1328000","08/22/2022","10201","sqft","205.86","10.06","acres","208668.69","6","10","","Michael Miller","No","No","","126 Park View Dr","Sewickley","15143","PA","USA","40.56548","-80.11652"
"https://www.zillow.com/homedetails/104-Eagle-Ridge-Dr-LOT-17-Cranberry-Township-PA-16066/2077463805_zpid/","","","1729706","1820700","11034","","08/11/2022","","","","","","","5","6","","","No","No","Lot 17","104 Eagle Ridge Dr LOT 17","Cranberry Township","16066","PA","USA","",""
"https://www.zillow.com/homedetails/1240-Turnberry-Dr-Pittsburgh-PA-15241/11582663_zpid/","","","1950000","2054200","12436","938000","08/08/2022","5690","sqft","342.71","0.82","acres","2380661.7","4","7","","Dustin Hook","No","No","","1240 Turnberry Dr","Pittsburgh","15241","PA","USA","40.31135","-80.10244"
"https://www.zillow.com/homedetails/1228-Bennington-Ave-Pittsburgh-PA-15217/11529805_zpid/","","","1750000","1842100","11149","777000","07/29/2022","","","","9583.2","sqft","182.61","5","6","","Andrea Ehrenreich","No","No","","1228 Bennington Ave","Pittsburgh","15217","PA","USA","40.44334","-79.93345"
"https://www.zillow.com/homedetails/110-Green-Leaf-Ln-Pittsburgh-PA-15238/11593370_zpid/","","","3000000","3157900","19113","330000","07/29/2022","","","","13","acres","230769.23","4","5","","Jane Herrmann","No","No","","110 Green Leaf Ln","Pittsburgh","15238","PA","USA","40.568","-79.89596"
"https://www.zillow.com/homedetails/622-East-Dr-Sewickley-PA-15143/11518721_zpid/","","","2500000","2631200","15925","1030000","07/27/2022","6764","sqft","369.6","0.73","acres","3447511.71","6","8","","","No","No","","622 East Dr","Sewickley","15143","PA","USA","40.548004","-80.184906"
"https://www.zillow.com/homedetails/455-Maple-Ln-Sewickley-PA-15143/11555210_zpid/","","","2000000","2104100","12735","567300","07/22/2022","7222","sqft","276.93","1.72","acres","1164822.36","7","5","","Kathryn Brandt","No","No","","455 Maple Ln","Sewickley","15143","PA","USA","40.553143","-80.2"
"https://www.zillow.com/homedetails/660-Chilliwack-Ln-Mars-PA-16046/164593221_zpid/","","","2125000","2232800","13531","964400","07/22/2022","7465","sqft","284.66","0.54","acres","3906190.66","5","4.5","","","No","No","","660 Chilliwack Ln","Mars","16046","PA","USA","40.662304","-80.08489"
"https://www.zillow.com/homedetails/1430-Hollow-Tree-Dr-Pittsburgh-PA-15241/164680100_zpid/","","","2250000","2364100","14327","1015500","07/22/2022","7908","sqft","284.52","0.53","acres","4279193.61","5","8","","Michael Wright","No","No","","1430 Hollow Tree Dr","Pittsburgh","15241","PA","USA","40.31198","-80.102325"
"https://www.zillow.com/homedetails/814-Saint-James-St-Pittsburgh-PA-15232/11529378_zpid/","","","2245000","2361700","14294","1249900","07/21/2022","5410","sqft","414.97","9038.7","sqft","248.38","6","5","","Joe Yost","No","No","","814 Saint James St","Pittsburgh","15232","PA","USA","40.450157","-79.93687"
"https://www.zillow.com/homedetails/121-1-2-Springhouse-Ln-Pittsburgh-PA-15238/11412056_zpid/","","","1894118","1991100","12052","953900","07/12/2022","4262","sqft","444.42","2.11","acres","898964.4","5","6","","Julie Rost","No","No","","121 1/2 Springhouse Ln","Pittsburgh","15238","PA","USA","40.513123","-79.8765"
"https://www.zillow.com/homedetails/5305-Westminster-Pl-Pittsburgh-PA-15232/11529371_zpid/","","","1825000","1916800","11601","511700","07/01/2022","3325","sqft","548.87","5127.01","sqft","355.96","4","3","","Angela Hoying Pulkowski","No","No","","5305 Westminster Pl","Pittsburgh","15232","PA","USA","40.449924","-79.936"
"https://www.zillow.com/homedetails/611-West-Dr-Sewickley-PA-15143/11518733_zpid/","","","3008000","3158700","19120","1950000","06/28/2022","5728","sqft","525.14","0.65","acres","4597279.54","5","7","","Liza Christ","No","No","","611 West Dr","Sewickley","15143","PA","USA","40.54883","-80.18671"
"https://www.zillow.com/homedetails/97-Pink-House-Ln-Sewickley-PA-15143/92345841_zpid/","","","2800000","2938100","17791","2821900","06/17/2022","","","","6.58","acres","425836.08","6","8","","Liza Christ","No","No","","97 Pink House Ln","Sewickley","15143","PA","USA","40.558727","-80.151886"
"https://www.zillow.com/homedetails/2201-Tree-Top-Ln-Pittsburgh-PA-15241/245270554_zpid/","","","1759999","1844800","11178","1108200","06/07/2022","7000","sqft","251.43","1.3","acres","1353845.38","5","6","","Diana Mathison","No","No","","2201 Tree Top Ln","Pittsburgh","15241","PA","USA","40.339005","-80.089325"
"https://www.zillow.com/homedetails/455-Backbone-Rd-Sewickley-PA-15143/11519015_zpid/","","","3125000","3275200","19844","1600000","05/26/2022","7842","sqft","398.5","11.25","acres","277777.78","6","9","","Kathleen Barge","No","No","","455 Backbone Rd","Sewickley","15143","PA","USA","40.549107","-80.17531"
"https://www.zillow.com/homedetails/4015-Freeport-Rd-Natrona-Heights-PA-15065/304650764_zpid/","","","4000000","","5091","2786100","05/24/2022","","","","2.64","acres","1517333.87","","","","","No","No","","4015 Freeport Rd","Natrona Heights","15065","PA","USA","40.64683","-79.71002"
"https://www.zillow.com/homedetails/9290-Peebles-Rd-Allison-Park-PA-15101/164509242_zpid/","","","1796000","","1685","2500","05/18/2022","","","","1","acres","1796000","","","","","No","No","","9290 Peebles Rd","Allison park","15101","PA","USA","40.57369","-79.9996"
"https://www.zillow.com/homedetails/3896-Bigelow-Blvd-Pittsburgh-PA-15213/306751478_zpid/","","","31850000","33383800","202290","12323400","05/12/2022","","","","4.03","acres","7913043.48","","","","","No","No","","3896 Bigelow Blvd","Pittsburgh","15213","PA","USA","40.45536","-79.955376"
"https://www.zillow.com/homedetails/203-Fairview-Rd-Pittsburgh-PA-15238/11487759_zpid/","","","1880000","1972100","11949","873000","04/20/2022","5460","sqft","344.32","3.01","acres","623755.81","5","7","","Julie Rost","No","No","","203 Fairview Rd","Pittsburgh","15238","PA","USA","40.530308","-79.877785"
"https://www.zillow.com/homedetails/70-Fair-Oaks-Dr-Pittsburgh-PA-15238/11487635_zpid/","","","2250000","2316800","14311","900000","04/08/2022","4885","sqft","460.59","0.84","acres","2679528.4","4","4","","Jeannine Mullen","No","No","","70 Fair Oaks Dr","Pittsburgh","15238","PA","USA","40.538136","-79.882355"
"https://www.zillow.com/homedetails/1531-Roosevelt-Rd-Pittsburgh-PA-15237/11521385_zpid/","","","1800000","1897200","11455","1382600","03/31/2022","7886","sqft","228.25","14","acres","128571.43","4","6","","Robyn Jones","No","No","","1531 Roosevelt Rd","Pittsburgh","15237","PA","USA","40.545444","-80.10122"
"https://www.zillow.com/homedetails/110-Orchard-Dr-Gibsonia-PA-15044/242630749_zpid/","","","1850000","1966500","11810","1237000","03/01/2022","5770","sqft","320.62","1.5","acres","1233333.33","4","7","","Kevin Mihm","No","No","","110 Orchard Dr","Gibsonia","15044","PA","USA","40.671143","-80.02671"
"https://www.zillow.com/homedetails/106-Stoney-Camp-Ln-Pittsburgh-PA-15238/11444549_zpid/","","","1750516","1900300","11316","1146900","02/11/2022","11000","sqft","159.14","2.03","acres","862323.15","6","10","","Roslyn Neiman","No","No","","106 Stoney Camp Ln","Pittsburgh","15238","PA","USA","40.52411","-79.90996"
"https://www.zillow.com/homedetails/13085-Perry-Hwy-Wexford-PA-15090/2076556612_zpid/","","","1750000","","2100","","01/31/2022","","","","","","","","","","","No","No","","13085 Perry Hwy","Wexford","15090","PA","USA","40.645386","-80.07275"
"https://www.zillow.com/homedetails/171-Buckthorn-Rd-Baden-PA-15005/59848262_zpid/","","","2400000","2554400","15632","1572800","01/21/2022","5754","sqft","417.1","6.2","acres","387096.77","6","10","","Michelle Bushee","No","No","","171 Buckthorn Rd","Baden","15005","PA","USA","40.65063","-80.13049"
"https://www.zillow.com/homedetails/90-Pink-House-Ln-Sewickley-PA-15143/11555496_zpid/","","","2350000","2378500","14598","867300","01/14/2022","5590","sqft","420.39","5.01","acres","469342.92","6","7","","Meg Smith","No","No","","90 Pink House Ln","Sewickley","15143","PA","USA","40.55816","-80.15579"
"https://www.zillow.com/homedetails/201-Raynor-Ln-Pittsburgh-PA-15238/11444581_zpid/","","","1850000","1923600","11306","997300","01/13/2022","5288","sqft","349.85","3.98","acres","464475.3","4","3.5","","","No","No","","201 Raynor Ln","Pittsburgh","15238","PA","USA","40.52867","-79.88571"
"https://www.zillow.com/homedetails/1635-W-Carson-St-Pittsburgh-PA-15219/2075360938_zpid/","","","1750000","","1814","","12/29/2021","","","","","","","","","","","No","No","","1635 W Carson St","Pittsburgh","15219","PA","USA","40.44226","-80.02364"
"https://www.zillow.com/homedetails/515-Seabright-Rd-Mc-Donald-PA-15057/11657294_zpid/","","","1745000","1729200","10677","618300","12/20/2021","5000","sqft","349","75","acres","23266.67","4","5","","Susan Accetta","No","No","","515 Seabright Rd","Mc Donald","15057","PA","USA","40.425617","-80.277725"
"https://www.zillow.com/homedetails/10-W-Woodland-Rd-Pittsburgh-PA-15232/11629517_zpid/","","","1778400","1992200","11939","957900","12/17/2021","6071","sqft","292.93","9743.85","sqft","182.52","4","5","","Roslyn Neiman","No","No","","10 W Woodland Rd","Pittsburgh","15232","PA","USA","40.446163","-79.92384"
"https://www.zillow.com/homedetails/2203-S-Villa-Dr-Gibsonia-PA-15044/54623813_zpid/","","","1705000","1686100","10337","864400","12/17/2021","7446","sqft","228.98","1.01","acres","1689791.87","3","6","","Deborah Platts","No","No","","2203 S Villa Dr","Gibsonia","15044","PA","USA","40.606136","-79.985565"
"https://www.zillow.com/homedetails/3421-Bates-St-Pittsburgh-PA-15213/11412987_zpid/","","","6208368","","2028","399500","12/13/2021","1260","sqft","4927.28","1444","sqft","4299.42","3","1","","","No","No","","3421 Bates St","Pittsburgh","15213","PA","USA","40.43577","-79.956566"
"https://www.zillow.com/homedetails/392-Coltart-Ave-Pittsburgh-PA-15213/11412993_zpid/","","","6208368","","1394","113500","12/13/2021","1064","sqft","5834.93","1273","sqft","4876.96","2","1","","","No","No","","392 Coltart Ave","Pittsburgh","15213","PA","USA","40.435802","-79.956474"
"https://www.zillow.com/homedetails/3403-Bates-St-Pittsburgh-PA-15213/11413592_zpid/","","","6208368","","1366","59300","12/13/2021","1087","sqft","5711.47","1500","sqft","4138.91","2","1","","","No","No","","3403 Bates St","Pittsburgh","15213","PA","USA","40.435383","-79.9566"
"https://www.zillow.com/homedetails/3405-Bates-St-Pittsburgh-PA-15213/11413593_zpid/","","","6208368","","1364","179800","12/13/2021","1032","sqft","6015.86","1500","sqft","4138.91","2","1","","","No","No","","3405 Bates St","Pittsburgh","15213","PA","USA","40.4354","-79.9565"
"https://www.zillow.com/homedetails/3407-Bates-St-Pittsburgh-PA-15213/11413594_zpid/","","","6208368","","1366","125000","12/13/2021","1087","sqft","5711.47","1500","sqft","4138.91","2","1","","","No","No","","3407 Bates St","Pittsburgh","15213","PA","USA","40.435467","-79.95657"
"https://www.zillow.com/homedetails/3409-Bates-St-Pittsburgh-PA-15213/11413595_zpid/","","","6208368","","1358","125000","12/13/2021","1076","sqft","5769.86","1500","sqft","4138.91","2","1","","","No","No","","3409 Bates St","Pittsburgh","15213","PA","USA","40.4355","-79.95655"
"https://www.zillow.com/homedetails/3411-Bates-St-Pittsburgh-PA-15213/11413596_zpid/","","","6208368","","1739","125000","12/13/2021","1027","sqft","6045.15","1500","sqft","4138.91","2","2","","","No","No","","3411 Bates St","Pittsburgh","15213","PA","USA","40.435543","-79.95654"
"https://www.zillow.com/homedetails/3413-Bates-St-Pittsburgh-PA-15213/11413597_zpid/","","","6208368","","1366","179800","12/13/2021","1087","sqft","5711.47","1500","sqft","4138.91","2","1","","","No","No","","3413 Bates St","Pittsburgh","15213","PA","USA","40.435566","-79.95644"
"https://www.zillow.com/homedetails/3417-Bates-St-Pittsburgh-PA-15213/11413600_zpid/","","","6208368","","1366","125000","12/13/2021","1087","sqft","5711.47","1500","sqft","4138.91","2","1","","","No","No","","3417 Bates St","Pittsburgh","15213","PA","USA","40.43564","-79.95641"
"https://www.zillow.com/homedetails/3419-Bates-St-Pittsburgh-PA-15213/11413601_zpid/","","","6208368","","1364","125000","12/13/2021","1087","sqft","5711.47","1550","sqft","4005.4","2","1","","","No","No","","3419 Bates St","Pittsburgh","15213","PA","USA","40.4357","-79.95648"
"https://www.zillow.com/homedetails/1706-Hastings-Mill-Rd-Pittsburgh-PA-15241/11551286_zpid/","","","2400000","2127900","12917","921400","12/10/2021","5891","sqft","407.4","2.5","acres","960000","4","7","","Lisa McLaughlin","No","No","","1706 Hastings Mill Rd","Pittsburgh","15241","PA","USA","40.32436","-80.08658"
"https://www.zillow.com/homedetails/550-Macleod-Dr-Gibsonia-PA-15044/87994148_zpid/","","","1825000","1826200","11049","932300","12/01/2021","6000","sqft","304.17","1.78","acres","1025857.22","5","7","","Daniel Demers","No","No","","550 Macleod Dr","Gibsonia","15044","PA","USA","40.665417","-80.009"
"https://www.zillow.com/homedetails/820-Devonshire-St-Pittsburgh-PA-15213/11529097_zpid/","","","1760930","1983000","11856","851200","11/30/2021","5921","sqft","297.4","0.38","acres","4632807.16","6","4","","MaryAnn Bacharach","No","No","","820 Devonshire St","Pittsburgh","15213","PA","USA","40.4482","-79.944595"
"https://www.zillow.com/homedetails/117-Woodland-Rd-Pittsburgh-PA-15232/11629513_zpid/","","","2800000","3444900","20973","2787200","11/19/2021","","","","","","","5","7","","Molly Howard","No","No","","117 Woodland Rd","Pittsburgh","15232","PA","USA","40.44564","-79.922905"
"https://www.zillow.com/homedetails/57-Pink-House-Ln-Sewickley-PA-15143/11555495_zpid/","","","3775000","3467200","20373","1647100","10/08/2021","8295","sqft","455.09","5","acres","755000","5","8","","Susan Reuter","No","No","","57 Pink House Ln","Sewickley","15143","PA","USA","40.559433","-80.157776"
"https://www.zillow.com/homedetails/5901-Braeburn-Pl-Pittsburgh-PA-15232/11629191_zpid/","","","3715050","3641300","21644","1400000","10/04/2021","9196","sqft","403.99","2311.92","sqft","1606.91","7","7","","Roslyn Neiman","No","No","","5901 Braeburn Pl","Pittsburgh","15232","PA","USA","40.448853","-79.922386"
"https://www.zillow.com/homedetails/850-Osage-Rd-Pittsburgh-PA-15243/11252835_zpid/","","","2200000","2064400","12628","825000","10/01/2021","","","","","","","5","6","","Cindy Sunseri","No","No","","850 Osage Rd","Pittsburgh","15243","PA","USA","40.389565","-80.06637"
"https://www.zillow.com/homedetails/6570-Beacon-St-Pittsburgh-PA-15217/11289513_zpid/","","","1750000","1832700","11060","677100","10/01/2021","","","","0.82","acres","2134927.41","7","5","","Melissa Reich","No","No","","6570 Beacon St","Pittsburgh","15217","PA","USA","40.43428","-79.91381"
"https://www.zillow.com/homedetails/371-Fairview-Rd-Pittsburgh-PA-15238/11487594_zpid/","","","2534653","2633100","15796","1095900","09/21/2021","6700","sqft","378.31","7.56","acres","335302.61","5","6","","Stephanie Veenis","No","No","","371 Fairview Rd","Pittsburgh","15238","PA","USA","40.536293","-79.88452"
"https://www.zillow.com/homedetails/552-Macleod-Dr-Gibsonia-PA-15044/164306011_zpid/","","","3300000","3211000","19293","1350000","09/17/2021","12584","sqft","262.24","1.44","acres","2299170.91","7","11","","Zita Billmann","No","No","","552 Macleod Dr","Gibsonia","15044","PA","USA","40.6661","-80.008514"
"https://www.zillow.com/homedetails/8-Thawmont-Dr-Sewickley-PA-15143/11519059_zpid/","","","2269000","2488100","14993","1453000","09/08/2021","5026","sqft","451.45","5.48","acres","414051.09","5","5","","Angela Hoying Pulkowski","No","No","","8 Thawmont Dr","Sewickley","15143","PA","USA","40.545135","-80.16813"
"https://www.zillow.com/homedetails/924-S-Aiken-Ave-Pittsburgh-PA-15232/11529357_zpid/","","","1800000","1928600","11445","874500","09/07/2021","5084","sqft","354.05","8032.46","sqft","224.09","6","5","","Julie Rost","No","No","","924 S Aiken Ave","Pittsburgh","15232","PA","USA","40.44912","-79.93502"
"https://www.zillow.com/homedetails/558-Macleod-Dr-Gibsonia-PA-15044/164319343_zpid/","","","1750000","1886000","11308","1190000","09/07/2021","6938","sqft","252.23","1.22","acres","1434426.23","5","6","","Kim Marie Angiulli","No","No","","558 Macleod Dr","Gibsonia","15044","PA","USA","40.668705","-80.005745"
"https://www.zillow.com/homedetails/4270-Muirfield-Cir-Presto-PA-15142/87992054_zpid/","","","1812500","1820300","10963","983900","09/01/2021","","","","0.75","acres","2416666.67","4","5","","Danielle Mach","No","No","","4270 Muirfield Cir","Presto","15142","PA","USA","40.387714","-80.12181"
"https://www.zillow.com/homedetails/620-West-Dr-Sewickley-PA-15143/62979496_zpid/","","","2075000","2282700","13954","1510000","08/20/2021","4761","sqft","435.83","","","","5","7","","Kathleen Barge","No","No","","620 West Dr","Sewickley","15143","PA","USA","40.54872","-80.185684"
"https://www.zillow.com/homedetails/432-Woodland-Rd-Sewickley-PA-15143/11555151_zpid/","","","3025000","3129900","18793","1181400","08/05/2021","8836","sqft","342.35","4.85","acres","623711.34","6","9","","Liza Christ","No","No","","432 Woodland Rd","Sewickley","15143","PA","USA","40.556183","-80.19115"
"https://www.zillow.com/homedetails/1-Whispering-Pines-Ln-Pittsburgh-PA-15238/164643147_zpid/","","","2375000","2760000","16491","2213100","07/29/2021","8784","sqft","270.38","3.24","acres","733024.69","5","6","","Nettie Mercer","No","No","","1 Whispering Pines Ln","Pittsburgh","15238","PA","USA","40.53421","-79.889984"
"https://www.zillow.com/homedetails/429-431-Broad-St-Sewickley-PA-15143/2076556444_zpid/","","","2900000","","1490","","07/28/2021","","","","","","","","","","","No","No","","429-431 Broad St","Sewickley","15143","PA","USA","",""
"https://www.zillow.com/homedetails/5563-Northumberland-St-Pittsburgh-PA-15217/11630593_zpid/","","","3150000","3463500","20936","2249100","07/20/2021","9510","sqft","331.23","1.13","acres","2782685.51","6","6","","Nettie Mercer","No","No","","5563 Northumberland St","Pittsburgh","15217","PA","USA","40.441105","-79.92897"
"https://www.zillow.com/homedetails/123-Summer-Pl-Gibsonia-PA-15044/87988968_zpid/","","","2175800","2326300","14159","1400000","07/19/2021","9418","sqft","231.03","1.82","acres","1196809.68","6","10","","Dan Kite","No","No","","123 Summer Pl","Gibsonia","15044","PA","USA","40.648792","-80.014534"
"https://www.zillow.com/homedetails/98-Legacy-Dr-Sewickley-PA-15143/164483611_zpid/","","","1875000","2014300","11995","1520625","07/19/2021","5218","sqft","359.33","2","acres","937500","5","5","","John Guss","No","No","","98 Legacy Dr","Sewickley","15143","PA","USA","40.568863","-80.12278"
"https://www.zillow.com/homedetails/999-Elmhurst-Rd-Pittsburgh-PA-15215/11336084_zpid/","","","2875000","3045800","18360","1760000","06/28/2021","5500","sqft","522.73","","","","5","5","","Julie Rost","No","No","","999 Elmhurst Rd","Pittsburgh","15215","PA","USA","40.49816","-79.893265"
"https://www.zillow.com/homedetails/143-North-Dr-Pittsburgh-PA-15238/11412141_zpid/","","","2450000","2440700","14695","925900","06/24/2021","5800","sqft","422.41","1.3","acres","1884615.38","5","6","","Elizabeth Kofmehl","No","No","","143 North Dr","Pittsburgh","15238","PA","USA","40.512005","-79.87768"
"https://www.zillow.com/homedetails/215-Boyds-Run-Rd-Presto-PA-15142/87991625_zpid/","","","4300000","4115600","25440","1957600","06/23/2021","20000","sqft","215","39","acres","110256.41","8","9","","Jeff Stephan","No","No","","215 Boyds Run Rd","Presto","15142","PA","USA","40.38358","-80.133606"
"https://www.zillow.com/homedetails/755-Chestnut-Rd-Sewickley-PA-15143/11555169_zpid/","","","3175000","3300600","19710","1050000","06/15/2021","7342","sqft","432.44","8.2","acres","387195.12","5","7","","Nicole Kriebel","No","No","","755 Chestnut Rd","Sewickley","15143","PA","USA","40.55776","-80.183975"
"https://www.zillow.com/homedetails/340-Fox-Hunt-Rd-Pittsburgh-PA-15238/87994571_zpid/","","","3985000","4261600","26057","2758400","06/08/2021","11762","sqft","338.8","35","acres","113857.14","6","8","","Matt Spaeth","No","No","","340 Fox Hunt Rd","Pittsburgh","15238","PA","USA","40.55723","-79.91449"
"https://www.zillow.com/homedetails/241-Freeport-Rd-Pittsburgh-PA-15215/2076558062_zpid/","","","1925000","","1409","","04/30/2021","","","","","","","","","","","No","No","","241 Freeport Rd","Pittsburgh","15215","PA","USA","40.48982","-79.90389"
"https://www.zillow.com/homedetails/111-Birch-Dr-Wexford-PA-15090/300248662_zpid/","","","1900000","1965500","11910","1220800","04/26/2021","8065","sqft","235.59","0.5","acres","3800000","5","6","","Darren Cottrill","No","No","","111 Birch Dr","Wexford","15090","PA","USA","40.65579","-80.03531"
"https://www.zillow.com/homedetails/5036-Amberson-Pl-Pittsburgh-PA-15232/11529112_zpid/","","","2600000","2647900","15891","1481700","04/23/2021","","","","0.28","acres","9437386.57","4","5","","Melissa Reich","No","No","","5036 Amberson Pl","Pittsburgh","15232","PA","USA","40.449657","-79.94136"
"https://www.zillow.com/homedetails/6131-Turnberry-Dr-Presto-PA-15142/72261819_zpid/","","","1720000","1927900","11527","1312600","04/23/2021","8000","sqft","215","","","","5","7","","Phillip Anthony","No","No","","6131 Turnberry Dr","Presto","15142","PA","USA","40.384666","-80.12809"
"https://www.zillow.com/homedetails/Garnett-Pittsburgh-PA-15232/316691760_zpid/","","","3800000","1742500","11117","1360234","04/22/2021","3689","sqft","1030.09","798.52","acres","4758.8","","","","","No","No","","Garnett","Pittsburgh","15232","PA","USA","40.452477","-79.93187"
"https://www.zillow.com/homedetails/707-Amberson-Ave-Pittsburgh-PA-15232/11528625_zpid/","","","2500000","2735500","16464","1038800","04/21/2021","6732","sqft","371.36","0.27","acres","9200743.49","3","5","","Diana Mathison","No","No","","707 Amberson Ave","Pittsburgh","15232","PA","USA","40.450428","-79.94001"
"https://www.zillow.com/homedetails/705-Copper-Creek-Ln-Wexford-PA-15090/164593031_zpid/","","","2791490","3261300","19247","1694000","04/05/2021","11229","sqft","248.6","11.03","acres","253081.6","7","8","","Jonathan Moritz","No","No","","705 Copper Creek Ln","Wexford","15090","PA","USA","40.659405","-80.13223"
"https://www.zillow.com/homedetails/5120-Holyrood-Rd-Pittsburgh-PA-15213/11529692_zpid/","","","2622000","3434800","20875","2300000","03/12/2021","11272","sqft","232.61","0.76","acres","3444028.59","5","6","","","No","No","","5120 Holyrood Rd","Pittsburgh","15213","PA","USA","40.445297","-79.93896"
"https://www.zillow.com/homedetails/2-Edgemoor-Ln-Pittsburgh-PA-15238/11487409_zpid/","","","2300000","2862500","17327","2272000","02/26/2021","9000","sqft","255.56","9.3","acres","247232.08","7","9","","Trudy Ward","No","No","","2 Edgemoor Ln","Pittsburgh","15238","PA","USA","40.535194","-79.90754"
"https://www.zillow.com/homedetails/1073-Dorset-Rd-Pittsburgh-PA-15213/11529501_zpid/","","","1820000","2154400","13006","685900","02/12/2021","7700","sqft","236.36","","","","6","7","","Leah George","No","No","","1073 Dorset Rd","Pittsburgh","15213","PA","USA","40.445576","-79.93753"
"https://www.zillow.com/homedetails/1100-Shady-Ave-Pittsburgh-PA-15232/11629214_zpid/","","","2221951","1901900","11471","894800","02/05/2021","5248","sqft","423.39","1.22","acres","1821271.31","7","6","","Nettie Mercer","No","No","","1100 Shady Ave","Pittsburgh","15232","PA","USA","40.449585","-79.92131"
"https://www.zillow.com/homedetails/1909-New-Texas-Rd-Pittsburgh-PA-15239/2076156361_zpid/","","","1875000","","1597","","12/21/2020","","","","","","","","","","","No","No","","1909 New Texas Rd","Pittsburgh","15239","PA","USA","40.45051","-79.715096"
"https://www.zillow.com/homedetails/427-Woodland-Rd-Sewickley-PA-15143/11555224_zpid/","","","2060000","2478300","15138","1442000","12/18/2020","7460","sqft","276.14","2","acres","1030000","5","7","","Roslyn Neiman","No","No","","427 Woodland Rd","Sewickley","15143","PA","USA","40.554016","-80.19296"
"https://www.zillow.com/homedetails/319-Scaife-Rd-Sewickley-PA-15143/11521128_zpid/","","","1838650","2149500","12991","1312500","12/15/2020","5421","sqft","339.17","5.01","acres","366997.02","4","5","","","No","No","","319 Scaife Rd","Sewickley","15143","PA","USA","40.54543","-80.13714"
"https://www.zillow.com/homedetails/95-Woodland-Rd-Pittsburgh-PA-15232/11628990_zpid/","","","1850000","2255100","13627","1618800","12/15/2020","5281","sqft","350.31","1","acres","1850000","6","5","","","No","No","","95 Woodland Rd","Pittsburgh","15232","PA","USA","40.450436","-79.92319"
"https://www.zillow.com/homedetails/95-E-Woodland-Rd-Pittsburgh-PA-15232/2079487857_zpid/","","","1850000","2303000","13666","","12/15/2020","5281","sqft","350.31","1","acres","1850000","6","5","","Denise Serbin","No","No","","95 E Woodland Rd","Pittsburgh","15232","PA","USA","40.450558","-79.92345"
"https://www.zillow.com/homedetails/104-Audubon-Rd-Sewickley-PA-15143/119344814_zpid/","","","2157222","2504200","15121","1500000","12/10/2020","","","","39.27","acres","54933.08","5","5","","Liza Christ","No","No","","104 Audubon Rd","Sewickley","15143","PA","USA","40.57466","-80.13537"
"https://www.zillow.com/homedetails/1445-Bennington-Ave-Pittsburgh-PA-15217/11631005_zpid/","","","1762312","2074400","12541","1542000","12/04/2020","5448","sqft","323.48","0.26","acres","6854577.99","7","8","","Cheryl Gerson","No","No","","1445 Bennington Ave","Pittsburgh","15217","PA","USA","40.44058","-79.93114"
"https://www.zillow.com/homedetails/716-Copper-Creek-Ln-Wexford-PA-15090/119346136_zpid/","","","1796000","2152900","13059","1571500","11/19/2020","9611","sqft","186.87","3.05","acres","588852.46","5","6","","Ashley Fullerton","No","No","","716 Copper Creek Ln","Wexford","15090","PA","USA","40.65266","-80.132195"
"https://www.zillow.com/homedetails/2716-W-Hardies-Rd-Gibsonia-PA-15044/304889657_zpid/","","","2050000","2016100","12054","1332500","11/13/2020","3903","sqft","525.24","63.44","acres","32312.47","5","3.5","","","No","No","","2716 W Hardies Rd","Gibsonia","15044","PA","USA","40.609104","-79.95556"
"https://www.zillow.com/homedetails/615-East-Dr-Sewickley-PA-15143/11518718_zpid/","","","2470000","2920900","17970","1934000","11/04/2020","7903","sqft","312.54","0.41","acres","6085588.24","5","3.5","","","No","No","","615 East Dr","Sewickley","15143","PA","USA","40.548164","-80.18568"
"https://www.zillow.com/homedetails/430-Winterberry-Ln-Pittsburgh-PA-15238/11444616_zpid/","","","2100000","2341300","14015","1837500","11/02/2020","8505","sqft","246.91","3.49","acres","601719.2","6","8","","Julie Rost","No","No","","430 Winterberry Ln","Pittsburgh","15238","PA","USA","40.52318","-79.89651"