Property URL,MLS ID,Number of days on Zillow,Property price (USD),Zestimate (USD),Rent zestimate (USD per month),Tax assessed value (USD),Sold date (MM/DD/YYYY),Living area,Living area unit,Price per living area unit (USD),Lot/land area,Lot/land area unit,Price per lot/land area unit (USD),Bedrooms,Bathrooms,Broker name,Broker agent,Is owner occupied,Property owned by Zillow,Property unit number,Street address,City,Zip,State,Country,Latitude,Longitude
"https://www.zillow.com/homedetails/1414-Scott-St-McKeesport-PA-15132/11462345_zpid/","","","25000","","1134","23300","10/13/2023","1080","sqft","23.15","2700.72","sqft","9.26","3","1","","Cory Fast","No","No","","1414 Scott St","McKeesport","15132","PA","USA","40.343185","-79.84712"
"https://www.zillow.com/homedetails/1511-Sumac-St-McKeesport-PA-15132/11462634_zpid/","","","25000","","942","27200","10/13/2023","1311","sqft","19.07","2051.68","sqft","12.19","2","1","","Cory Fast","No","No","","1511 Sumac St","McKeesport","15132","PA","USA","40.342518","-79.841034"
"https://www.zillow.com/homedetails/2611-Cleveland-St-McKeesport-PA-15132/11501753_zpid/","","","25000","","1308","35200","10/13/2023","1411","sqft","17.72","2500.34","sqft","10","3","1","","Cory Fast","No","No","","2611 Cleveland St","McKeesport","15132","PA","USA","40.334755","-79.83283"
"https://www.zillow.com/homedetails/2414-Delaware-Ave-Pittsburgh-PA-15218/11382916_zpid/","","","30220","30200","1150","67900","10/11/2023","","","","4748.04","sqft","6.36","2","1","","Teena Masters","No","No","","2414 Delaware Ave","Pittsburgh","15218","PA","USA","40.42296","-79.87693"
"https://www.zillow.com/homedetails/2814-B-St-McKeesport-PA-15133/11503755_zpid/","","","29000","29000","1087","51900","10/04/2023","","","","6600","sqft","4.39","2","2","Ashland Auction Group LLC","","No","No","","2814 B St","McKeesport","15133","PA","USA","40.32774","-79.85216"
"https://www.zillow.com/homedetails/323-Foster-Rd-North-Versailles-PA-15137/11538864_zpid/","","","31000","31000","1099","34800","10/04/2023","909","sqft","34.1","7875.65","sqft","3.94","2","1","","Darli Walker","No","No","","323 Foster Rd","North Versailles","15137","PA","USA","40.371887","-79.801506"
"https://www.zillow.com/homedetails/1316-Franklin-Ave-Pittsburgh-PA-15221/11380563_zpid/","","","30000","30000","1434","24700","09/28/2023","1440","sqft","20.83","3001.28","sqft","10","3","2","","Joi Edmonds","No","No","","1316 Franklin Ave","Pittsburgh","15221","PA","USA","40.43844","-79.87236"
"https://www.zillow.com/homedetails/906-Liberty-St-Duquesne-PA-15110/11422721_zpid/","","","30000","30000","1497","33600","09/21/2023","1152","sqft","26.04","2657.16","sqft","11.29","2","2","","Michael Watson","No","No","","906 Liberty St","Duquesne","15110","PA","USA","40.38282","-79.85842"
"https://www.zillow.com/homedetails/14-5th-St-Dravosburg-PA-15034/11426694_zpid/","","","32500","32500","1096","34000","09/20/2023","1576","sqft","20.62","3598.06","sqft","9.03","3","1","","Mike Fink","No","No","","14 5th St","Dravosburg","15034","PA","USA","40.351814","-79.891556"
"https://www.zillow.com/homedetails/907-Smithton-Ave-Pittsburgh-PA-15212/11606176_zpid/","","","29000","29000","1250","33900","09/20/2023","1122","sqft","25.85","5662.8","sqft","5.12","2","1","","Robert Moncavage","No","No","","907 Smithton Ave","Pittsburgh","15212","PA","USA","40.474926","-80.02337"
"https://www.zillow.com/homedetails/1-Saint-Ave-Sutersville-PA-15083/294916577_zpid/","","","30000","30100","1257","5380","09/20/2023","","","","4125","sqft","7.27","","","","","No","No","","1 Saint Ave","Sutersville","15083","PA","USA","40.244316","-79.8101"
"https://www.zillow.com/homedetails/747-Frederick-St-Mc-Kees-Rocks-PA-15136/11602813_zpid/","","","29500","29500","1310","34600","09/18/2023","1227","sqft","24.04","5998.21","sqft","4.92","3","1","","Tina Nobers","No","No","","747 Frederick St","Mc Kees Rocks","15136","PA","USA","40.472775","-80.0655"
"https://www.zillow.com/homedetails/62-Rostock-St-Pittsburgh-PA-15212/11394295_zpid/","","","30000","30000","1522","20700","09/13/2023","1180","sqft","25.42","2896.74","sqft","10.36","2","2","","James Dunn","No","No","","62 Rostock St","Pittsburgh","15212","PA","USA","40.46237","-79.99671"
"https://www.zillow.com/homedetails/1231-Morrow-St-Pittsburgh-PA-15221/11380971_zpid/","","","30000","30000","1335","31200","08/23/2023","","","","1263.24","sqft","23.75","3","1","","Myles Mazzanti","No","No","","1231 Morrow St","Pittsburgh","15221","PA","USA","40.436604","-79.87454"
"https://www.zillow.com/homedetails/2513-Grove-Rd-South-Park-PA-15129/11638194_zpid/","","","30000","30000","1594","50200","08/21/2023","1920","sqft","15.63","0.27","acres","113036.93","3","1","","Michael Pohlot","No","No","","2513 Grove Rd","South Park","15129","PA","USA","40.29186","-80.01269"
"https://www.zillow.com/homedetails/1066-Cleveland-Ave-Brackenridge-PA-15014/11280506_zpid/","","","31000","142000","900","52400","08/18/2023","882","sqft","35.15","3994.45","sqft","7.76","2","2","","Michael Pohlot","No","No","","1066 Cleveland Ave","Brackenridge","15014","PA","USA","40.608276","-79.73811"
"https://www.zillow.com/homedetails/6012-Rockcliff-Rd-Verona-PA-15147/11490968_zpid/","","","32550","98300","1127","46300","08/11/2023","825","sqft","39.45","10597","sqft","3.07","2","1","","","No","No","","6012 Rockcliff Rd","Verona","15147","PA","USA","40.484856","-79.83069"
"https://www.zillow.com/homedetails/746-Memory-Ln-McKeesport-PA-15133/11542986_zpid/","","","29000","71500","857","50400","08/11/2023","728","sqft","39.84","6548","sqft","4.43","1","1","","","No","No","","746 Memory Ln","McKeesport","15133","PA","USA","40.32144","-79.86035"
"https://www.zillow.com/homedetails/Manhattan-St-Pittsburgh-PA-15233/164594491_zpid/","","","30000","","1500","2800","08/11/2023","","","","1728","sqft","17.36","","","","","No","No","","Manhattan St","Pittsburgh","15233","PA","USA","40.456238","-80.027275"
"https://www.zillow.com/homedetails/136-2nd-St-Pittsburgh-PA-15225/11367366_zpid/","","","30000","","1400","71500","08/09/2023","1356","sqft","22.12","2500","sqft","12","3","1","","","No","No","","136 2nd St","Pittsburgh","15225","PA","USA","40.5096","-80.1258"
"https://www.zillow.com/homedetails/1005-Broadway-St-East-Mc-Keesport-PA-15035/11537614_zpid/","","","33000","90500","1200","53700","08/09/2023","1378","sqft","23.95","","","","3","2","","","No","No","","1005 Broadway St","East Mc Keesport","15035","PA","USA","40.383358","-79.809845"
"https://www.zillow.com/homedetails/428-Ardary-St-Pittsburgh-PA-15206/11622720_zpid/","","","30000","101100","1455","36200","08/09/2023","1120","sqft","26.79","2863","sqft","10.48","2","1","","","No","No","","428 Ardary St","Pittsburgh","15206","PA","USA","40.46808","-79.932205"
"https://www.zillow.com/homedetails/809-Coalmont-St-Braddock-PA-15104/11421597_zpid/","","","25000","","1280","27300","08/08/2023","1206","sqft","20.73","1440","sqft","17.36","3","1","","","No","No","","809 Coalmont St","Braddock","15104","PA","USA","40.40692","-79.86302"
"https://www.zillow.com/homedetails/Nickson-Rd-Coraopolis-PA-15108/164654884_zpid/","","","26000","","1680","32900","08/08/2023","","","","2","acres","13000","","","","","No","No","","Nickson Rd","Coraopolis","15108","PA","USA","40.446754","-80.19029"
"https://www.zillow.com/homedetails/1060-3rd-Ave-Brackenridge-PA-15014/11280575_zpid/","","","30000","","900","44700","08/07/2023","1080","sqft","27.78","5475","sqft","5.48","2","1","","","No","No","","1060 3rd Ave","Brackenridge","15014","PA","USA","40.606197","-79.73721"
"https://www.zillow.com/homedetails/8306-Pierce-St-Verona-PA-15147/11415006_zpid/","","","30000","30000","1342","18500","08/07/2023","1734","sqft","17.3","2613.6","sqft","11.48","3","1","","Molly Finley","No","No","","8306 Pierce St","Verona","15147","PA","USA","40.47525","-79.86517"
"https://www.zillow.com/homedetails/1025-8th-Ave-Elizabeth-PA-15037/11288791_zpid/","","","32000","32000","900","51400","08/04/2023","864","sqft","37.04","7200","sqft","4.44","2","1","","","No","No","","1025 8th Ave","Elizabeth","15037","PA","USA","40.265427","-79.890495"
"https://www.zillow.com/homedetails/1232-Broadway-St-East-Mc-Keesport-PA-15035/11537857_zpid/","","","29900","","1275","62500","08/04/2023","1637","sqft","18.27","7248.38","sqft","4.13","3","1","","Libby Sosinski","No","No","","1232 Broadway St","East Mc Keesport","15035","PA","USA","40.38059","-79.81337"
"https://www.zillow.com/homedetails/2308-Grandview-Ave-McKeesport-PA-15132/11463878_zpid/","","","25000","","3285","18000","08/03/2023","3914","sqft","6.39","4500","sqft","5.56","7","4","","","No","No","","2308 Grandview Ave","McKeesport","15132","PA","USA","40.33685","-79.83557"
"https://www.zillow.com/homedetails/201-The-Blvd-Pittsburgh-PA-15210/11556544_zpid/","","","30000","30000","2394","87000","08/03/2023","2816","sqft","10.65","7849","sqft","3.82","3","3","","","No","No","","201 The Blvd","Pittsburgh","15210","PA","USA","40.401638","-79.986176"
"https://www.zillow.com/homedetails/621-E-14th-Ave-Homestead-PA-15120/11292697_zpid/","","","33000","33000","981","21000","08/02/2023","1693","sqft","19.49","2970.79","sqft","11.11","2","2","","Jesse Wig","No","No","","621 E 14th Ave","Homestead","15120","PA","USA","40.395584","-79.90072"
"https://www.zillow.com/homedetails/512-E-10th-Ave-Tarentum-PA-15084/11279128_zpid/","","","25000","25000","900","30900","08/01/2023","1232","sqft","20.29","3439","sqft","7.27","2","1","","","No","No","","512 E 10th Ave","Tarentum","15084","PA","USA","40.60655","-79.75323"
"https://www.zillow.com/homedetails/309-Fairview-Ave-Glassport-PA-15045/11466378_zpid/","","","31705","31700","999","19800","07/31/2023","1092","sqft","29.03","4650","sqft","6.82","2","1","","","No","No","","309 Fairview Ave","Glassport","15045","PA","USA","40.33765","-79.887596"
"https://www.zillow.com/homedetails/851-Climax-St-Pittsburgh-PA-15210/11315578_zpid/","","","26000","26000","1214","21900","07/27/2023","1588","sqft","16.37","1563","sqft","16.63","2","1","","","No","No","","851 Climax St","Pittsburgh","15210","PA","USA","40.420162","-79.991745"
"https://www.zillow.com/homedetails/121-W-15th-Ave-Homestead-PA-15120/11293877_zpid/","","","30000","","1170","24200","07/25/2023","1074","sqft","27.93","2748","sqft","10.92","2","1","","","No","No","","121 W 15th Ave","Homestead","15120","PA","USA","40.401505","-79.90779"
"https://www.zillow.com/homedetails/3107-Fadette-St-Pittsburgh-PA-15204/11479057_zpid/","","","33000","","1448","40800","07/25/2023","1764","sqft","18.71","","","","4","1","","","No","No","","3107 Fadette St","Pittsburgh","15204","PA","USA","40.451447","-80.06475"
"https://www.zillow.com/homedetails/517-Cedarhurst-Dr-North-Versailles-PA-15137/11498016_zpid/","","","28500","83400","1200","51100","07/25/2023","960","sqft","29.69","4704","sqft","6.06","3","1","","","No","No","","517 Cedarhurst Dr","North Versailles","15137","PA","USA","40.370033","-79.827255"
"https://www.zillow.com/homedetails/3308-Liberty-Way-McKeesport-PA-15133/11543007_zpid/","","","25000","25000","839","40100","07/25/2023","676","sqft","36.98","8188","sqft","3.05","1","1","","","No","No","","3308 Liberty Way","McKeesport","15133","PA","USA","40.320892","-79.8587"
"https://www.zillow.com/homedetails/2419-Diehl-Ave-Pittsburgh-PA-15210/11645224_zpid/","","","25000","","1435","53500","07/25/2023","1980","sqft","12.63","6098.4","sqft","4.1","3","2","","Kathy Armstrong","No","No","","2419 Diehl Ave","Pittsburgh","15210","PA","USA","40.39114","-79.979706"
"https://www.zillow.com/homedetails/2924-Stafford-St-Pittsburgh-PA-15204/11483284_zpid/","","","25000","68800","1395","30700","07/24/2023","1084","sqft","23.06","5000","sqft","5","3","1","","","No","No","","2924 Stafford St","Pittsburgh","15204","PA","USA","40.456657","-80.05022"
"https://www.zillow.com/homedetails/312-Oregon-St-Pittsburgh-PA-15204/11482310_zpid/","","","27000","27000","999","35700","07/19/2023","1710","sqft","15.79","2874.96","sqft","9.39","2","1","","Jerome Koch","No","No","","312 Oregon St","Pittsburgh","15204","PA","USA","40.461548","-80.053696"
"https://www.zillow.com/homedetails/1068-Brackenridge-Ave-Brackenridge-PA-15014/11280945_zpid/","","","25000","","1084","17600","07/18/2023","2006","sqft","12.46","0.25","acres","99452.05","3","1","","","No","No","","1068 Brackenridge Ave","Brackenridge","15014","PA","USA","40.605232","-79.73661"
"https://www.zillow.com/homedetails/1112-Stieren-Ave-Brackenridge-PA-15014/11280921_zpid/","","","25000","","900","33700","07/17/2023","982","sqft","25.46","1720","sqft","14.53","2","1","","","No","No","","1112 Stieren Ave","Brackenridge","15014","PA","USA","40.60446","-79.73498"
"https://www.zillow.com/homedetails/839-Railroad-St-Mc-Kees-Rocks-PA-15136/11488063_zpid/","","","32500","134100","997","38100","07/14/2023","1208","sqft","26.9","5488.56","sqft","5.92","2","1","","Jeffrey Bowser","No","No","","839 Railroad St","Mc Kees Rocks","15136","PA","USA","40.467995","-80.06379"
"https://www.zillow.com/homedetails/206-Crissada-Ave-Carnegie-PA-15106/164568653_zpid/","","","30000","","1250","23700","07/13/2023","","","","0.29","acres","103714.29","","","","","No","No","","206 Crissada Ave","Carnegie","15106","PA","USA","40.4043","-80.10168"
"https://www.zillow.com/homedetails/State-Route-31-West-Newton-PA-15089/294916730_zpid/","","","27500","","1094","9720","07/13/2023","","","","10388","sqft","2.65","","","","","No","No","","State Route 31","West Newton","15089","PA","USA","40.22705","-79.799545"
"https://www.zillow.com/homedetails/3004-Frederick-St-Pittsburgh-PA-15212/11498285_zpid/","","","30000","30000","1698","36200","07/12/2023","1950","sqft","15.38","1219","sqft","24.61","4","2","","","No","No","","3004 Frederick St","Pittsburgh","15212","PA","USA","40.47188","-80.029976"
"https://www.zillow.com/homedetails/1906-Meadow-St-McKeesport-PA-15132/11463365_zpid/","","","25200","","1200","35900","07/10/2023","1088","sqft","23.16","4400","sqft","5.73","3","1","","","No","No","","1906 Meadow St","McKeesport","15132","PA","USA","40.33935","-79.84044"
"https://www.zillow.com/homedetails/132-Overland-Ave-Duquesne-PA-15110/11423005_zpid/","","","33000","","995","19000","07/06/2023","1104","sqft","29.89","2613.6","sqft","12.63","2","2","","Robert Moncavage","No","No","","132 Overland Ave","Duquesne","15110","PA","USA","40.37953","-79.85732"
"https://www.zillow.com/homedetails/5011-Gertrude-St-Pittsburgh-PA-15207/11550414_zpid/","","","28500","28500","1194","16600","07/05/2023","1064","sqft","26.79","1650.92","sqft","17.26","2","1","","Libby Sosinski","No","No","","5011 Gertrude St","Pittsburgh","15207","PA","USA","40.408623","-79.94176"
"https://www.zillow.com/homedetails/7804-Edgewood-Ave-Pittsburgh-PA-15218/11344799_zpid/","","","30000","","1326","56200","07/03/2023","1260","sqft","23.81","3000","sqft","10","3","1","","","No","No","","7804 Edgewood Ave","Pittsburgh","15218","PA","USA","40.42473","-79.88565"
"https://www.zillow.com/homedetails/346-W-14th-Ave-Homestead-PA-15120/11293584_zpid/","","","27507","","1064","10600","06/30/2023","896","sqft","30.7","2178","sqft","12.63","2","1","","","No","No","","346 W 14th Ave","Homestead","15120","PA","USA","40.40001","-79.91039"
"https://www.zillow.com/homedetails/921-Island-Ave-Mc-Kees-Rocks-PA-15136/11602570_zpid/","","","32000","","948","21100","06/30/2023","1080","sqft","29.63","2500.34","sqft","12.8","2","1","","Douglas Brewster","No","No","","921 Island Ave","Mc Kees Rocks","15136","PA","USA","40.475044","-80.064995"
"https://www.zillow.com/homedetails/87-Walnut-St-Natrona-Heights-PA-15065/11302221_zpid/","","","28500","28600","1259","16700","06/29/2023","1816","sqft","15.69","3750","sqft","7.6","4","1.5","","","No","No","","87 Walnut St","Natrona Heights","15065","PA","USA","40.613422","-79.724625"
"https://www.zillow.com/homedetails/323-Coal-St-Pittsburgh-PA-15221/11342871_zpid/","","","25000","73200","1584","20000","06/28/2023","1968","sqft","12.7","4529","sqft","5.52","3","2","","","No","No","","323 Coal St","Pittsburgh","15221","PA","USA","40.435833","-79.882996"
"https://www.zillow.com/homedetails/1399-Leaside-Dr-Pittsburgh-PA-15207/11351781_zpid/","","","29750","","1400","59100","06/26/2023","1258","sqft","23.65","8877.53","sqft","3.35","3","2","","Libby Sosinski","No","No","","1399 Leaside Dr","Pittsburgh","15207","PA","USA","40.37036","-79.90993"
"https://www.zillow.com/homedetails/203-Marshall-Dr-McKeesport-PA-15132/11501938_zpid/","","","30000","176600","1500","122500","06/22/2023","1700","sqft","17.65","9717","sqft","3.09","3","2","","","No","No","","203 Marshall Dr","McKeesport","15132","PA","USA","40.33177","-79.82471"
"https://www.zillow.com/homedetails/428-Ohio-Ave-Glassport-PA-15045/11504556_zpid/","","","25000","25100","1084","38100","06/21/2023","","","","2744.28","sqft","9.11","2","2","","Bill Holden","No","No","","428 Ohio Ave","Glassport","15045","PA","USA","40.328102","-79.89172"
"https://www.zillow.com/homedetails/2319-Olympia-St-McKeesport-PA-15132/11463791_zpid/","","","26000","62700","851","32500","06/20/2023","912","sqft","28.51","1715","sqft","15.16","2","1","","","No","No","","2319 Olympia St","McKeesport","15132","PA","USA","40.33623","-79.837616"
"https://www.zillow.com/homedetails/403-North-Ave-Pittsburgh-PA-15209/164551676_zpid/","","","25000","","1411","800","06/20/2023","","","","2444","sqft","10.23","","","","","No","No","","403 North Ave","Pittsburgh","15209","PA","USA","40.482403","-79.97396"
"https://www.zillow.com/homedetails/3326-New-England-Rd-West-Mifflin-PA-15122/164635139_zpid/","","","29800","","1473","6000","06/20/2023","","","","6","acres","4966.67","","","","","No","No","","3326 New England Rd","West mifflin","15122","PA","USA","40.341236","-79.935585"
"https://www.zillow.com/homedetails/6558-Deary-St-Pittsburgh-PA-15206/11284785_zpid/","","","31000","69900","1200","30000","06/16/2023","1008","sqft","30.75","3200","sqft","9.69","2","1","","","No","No","","6558 Deary St","Pittsburgh","15206","PA","USA","40.465916","-79.90424"
"https://www.zillow.com/homedetails/1467-Mill-St-Pittsburgh-PA-15221/11378932_zpid/","","","28000","","1302","25900","06/16/2023","1232","sqft","22.73","3750.52","sqft","7.47","3","1","","Libby Sosinski","No","No","","1467 Mill St","Pittsburgh","15221","PA","USA","40.447437","-79.879"
"https://www.zillow.com/homedetails/303-Crossland-Ave-McKeesport-PA-15133/11503238_zpid/","","","28800","28900","890","35700","06/16/2023","868","sqft","33.18","0.25","acres","115009.9","2","1","","","No","No","","303 Crossland Ave","McKeesport","15133","PA","USA","40.334602","-79.86244"
"https://www.zillow.com/homedetails/Logan-Rd-Bethel-Park-PA-15102/164679335_zpid/","","","27000","","1595","20000","06/13/2023","","","","0.32","acres","83972.58","","","","","No","No","","Logan Rd","Bethel park","15102","PA","USA","40.312874","-80.03602"
"https://www.zillow.com/homedetails/3017-Zephyr-Ave-Pittsburgh-PA-15204/11483095_zpid/","","","33000","","1399","59000","06/12/2023","1977","sqft","16.69","2700.72","sqft","12.22","3","2","","Jeffrey Bowser","No","No","","3017 Zephyr Ave","Pittsburgh","15204","PA","USA","40.45666","-80.05409"
"https://www.zillow.com/homedetails/313-Marie-St-Glassport-PA-15045/11466393_zpid/","","","30000","48300","1399","48600","06/09/2023","1672","sqft","17.94","3301.85","sqft","9.09","3","2","","Tina Nobers","No","No","","313 Marie St","Glassport","15045","PA","USA","40.338184","-79.88834"
"https://www.zillow.com/homedetails/229-Greenfield-Ave-East-Pittsburgh-PA-15112/11457147_zpid/","","","27000","","1300","51200","06/08/2023","1960","sqft","13.78","8250","sqft","3.27","3","1","","","No","No","","229 Greenfield Ave","East Pittsburgh","15112","PA","USA","40.409725","-79.83928"
"https://www.zillow.com/homedetails/30-Welsh-Way-Pittsburgh-PA-15203/11475145_zpid/","","","28500","28700","1627","50100","06/08/2023","1448","sqft","19.68","5501.63","sqft","5.18","4","2","","Jennifer Faure","No","No","","30 Welsh Way","Pittsburgh","15203","PA","USA","40.424774","-79.98749"
"https://www.zillow.com/homedetails/943-Hilltop-St-Homestead-PA-15120/11346368_zpid/","","","30000","","1392","17600","06/05/2023","","","","9583.2","sqft","3.13","2","1","","Alyxie Hill","No","No","","943 Hilltop St","Homestead","15120","PA","USA","40.406776","-79.89231"
"https://www.zillow.com/homedetails/8218-Rolfe-St-Pittsburgh-PA-15221/11377986_zpid/","","","27000","","1199","33500","06/05/2023","1003","sqft","26.92","6160","sqft","4.38","2","1","","","No","No","","8218 Rolfe St","Pittsburgh","15221","PA","USA","40.453823","-79.87709"
"https://www.zillow.com/homedetails/540-542-Reed-St-Clairton-PA-15025/11633174_zpid/","","","30000","","1646","24600","06/05/2023","1056","sqft","28.41","5000","sqft","6","3","3","","","No","No","","540-542 Reed St","Clairton","15025","PA","USA","40.29692","-79.92372"
"https://www.zillow.com/homedetails/7027-Lemington-Ave-Pittsburgh-PA-15206/11337220_zpid/","","","27000","27200","1214","15600","06/02/2023","1248","sqft","21.63","1942","sqft","13.9","2","1","","","No","No","","7027 Lemington Ave","Pittsburgh","15206","PA","USA","40.470985","-79.89763"
"https://www.zillow.com/homedetails/1704-Ellsworth-Ave-Carnegie-PA-15106/11253307_zpid/","","","27789","99900","927","53400","06/01/2023","540","sqft","51.46","3000","sqft","9.26","1","1","","","No","No","","1704 Ellsworth Ave","Carnegie","15106","PA","USA","40.392143","-80.09113"
"https://www.zillow.com/homedetails/1816-Wesley-St-McKeesport-PA-15132/11463526_zpid/","","","33000","","890","20200","05/31/2023","870","sqft","37.93","2500.34","sqft","13.2","2","1","","Ryan Shedlock","No","No","","1816 Wesley St","McKeesport","15132","PA","USA","40.340008","-79.83521"
"https://www.zillow.com/homedetails/13-Industry-St-Pittsburgh-PA-15210/11323924_zpid/","","","26300","","1164","21900","05/30/2023","1575","sqft","16.7","2250","sqft","11.69","2","1","","","No","No","","13 Industry St","Pittsburgh","15210","PA","USA","40.41943","-80.00821"
"https://www.zillow.com/homedetails/609-6th-Ave-Carnegie-PA-15106/11255759_zpid/","","","30000","","1250","56200","05/23/2023","1313","sqft","22.85","2250","sqft","13.33","2","1","","","No","No","","609 6th Ave","Carnegie","15106","PA","USA","40.40426","-80.095825"
"https://www.zillow.com/homedetails/202-E-21st-Ave-Homestead-PA-15120/11294190_zpid/","","","25000","","1200","41400","05/23/2023","1047","sqft","23.88","3300","sqft","7.58","2","2","","","No","No","","202 E 21st Ave","Homestead","15120","PA","USA","40.39884","-79.901115"
"https://www.zillow.com/homedetails/628-Tokay-St-Pittsburgh-PA-15221/11378212_zpid/","","","26000","26300","1314","28100","05/23/2023","1890","sqft","13.76","5000","sqft","5.2","3","1","","","No","No","","628 Tokay St","Pittsburgh","15221","PA","USA","40.452667","-79.87772"
"https://www.zillow.com/homedetails/1103-Park-St-McKeesport-PA-15132/11425870_zpid/","","","30000","","1351","10000","05/23/2023","","","","2613.6","sqft","11.48","4","2","","Myles Mazzanti","No","No","","1103 Park St","McKeesport","15132","PA","USA","40.346455","-79.85041"
"https://www.zillow.com/homedetails/211-Wilkins-Ave-East-Pittsburgh-PA-15112/11457187_zpid/","","","25000","119500","1294","73800","05/23/2023","1953","sqft","12.8","4950","sqft","5.05","3","1","","","No","No","","211 Wilkins Ave","East Pittsburgh","15112","PA","USA","40.41041","-79.8375"
"https://www.zillow.com/homedetails/1100-Coal-St-Pittsburgh-PA-15221/11379813_zpid/","","","25000","","1290","25800","05/22/2023","1454","sqft","17.19","1398.28","sqft","17.88","3","2","","Cheryl McConnell","No","No","","1100 Coal St","Pittsburgh","15221","PA","USA","40.442753","-79.87869"
"https://www.zillow.com/homedetails/217-Carson-St-Springdale-PA-15144/11563868_zpid/","","","29980","168900","1394","71600","05/19/2023","1128","sqft","26.58","6574","sqft","4.56","3","1","","","No","No","","217 Carson St","Springdale","15144","PA","USA","40.54903","-79.78631"
"https://www.zillow.com/homedetails/518-Kemp-St-Pittsburgh-PA-15220/11355951_zpid/","","","33000","33400","988","34500","05/18/2023","544","sqft","60.66","2016","sqft","16.37","1","1","","","No","No","","518 Kemp St","Pittsburgh","15220","PA","USA","40.43061","-80.04335"
"https://www.zillow.com/homedetails/309-Jacob-Dr-Pittsburgh-PA-15235/11451093_zpid/","","","25000","135600","1350","64100","05/18/2023","1232","sqft","20.29","7392","sqft","3.38","3","1","","","No","No","","309 Jacob Dr","Pittsburgh","15235","PA","USA","40.467068","-79.84174"
"https://www.zillow.com/homedetails/McNees-Ln-Imperial-PA-15126/164681148_zpid/","","","30000","","1794","32800","05/18/2023","","","","1","acres","30072.49","","","","","No","No","","McNees Ln","Imperial","15126","PA","USA","40.45103","-80.227196"
"https://www.zillow.com/homedetails/14-6th-St-Dravosburg-PA-15034/11426743_zpid/","","","28000","63300","1167","22500","05/17/2023","1414","sqft","19.8","7329","sqft","3.82","3","1","","","No","No","","14 6th St","Dravosburg","15034","PA","USA","40.352703","-79.890976"
"https://www.zillow.com/homedetails/1708-Grandview-Ave-Braddock-PA-15104/11458166_zpid/","","","25000","25300","983","19800","05/16/2023","1088","sqft","22.98","2779.13","sqft","9","2","1","","Marrae Hill","No","No","","1708 Grandview Ave","Braddock","15104","PA","USA","40.400555","-79.83992"
"https://www.zillow.com/homedetails/2402-Helen-St-Mc-Kees-Rocks-PA-15136/11320872_zpid/","","","26000","26300","1400","53200","05/12/2023","1385","sqft","18.77","0.28","acres","91520","3","1","","","No","No","","2402 Helen St","Mc Kees Rocks","15136","PA","USA","40.453667","-80.11381"
"https://www.zillow.com/homedetails/2117-Rose-St-Pittsburgh-PA-15219/164542460_zpid/","","","25000","","1599","14300","05/12/2023","","","","2142","sqft","11.67","","","","","No","No","","2117 Rose St","Pittsburgh","15219","PA","USA","40.443924","-79.97739"
"https://www.zillow.com/homedetails/518-Kearns-Ave-Pittsburgh-PA-15220/2060321506_zpid/","","","33000","33400","1250","","05/12/2023","544","sqft","60.66","2016.83","sqft","16.36","2","2","","Pamela Auld","No","No","","518 Kearns Ave","Pittsburgh","15220","PA","USA","40.430626","-80.04339"
"https://www.zillow.com/homedetails/5217-Broad-St-Pittsburgh-PA-15224/11520170_zpid/","","","30001","","1870","72200","05/11/2023","1821","sqft","16.48","2500.34","sqft","12","4","1","","Libby Sosinski","No","No","","5217 Broad St","Pittsburgh","15224","PA","USA","40.466175","-79.938835"
"https://www.zillow.com/homedetails/134-Jucunda-St-Pittsburgh-PA-15210/11316402_zpid/","","","30000","30400","1327","12000","05/10/2023","1629","sqft","18.42","2500.34","sqft","12","3","1","","Jennifer Cash Wade","No","No","","134 Jucunda St","Pittsburgh","15210","PA","USA","40.41722","-79.989494"
"https://www.zillow.com/homedetails/325-W-7th-Ave-Tarentum-PA-15084/11259886_zpid/","","","32000","32400","1200","24300","05/09/2023","1642","sqft","19.49","2520","sqft","12.7","3","1","","","No","No","","325 W 7th Ave","Tarentum","15084","PA","USA","40.598633","-79.76322"
"https://www.zillow.com/homedetails/279-Advent-St-Pittsburgh-PA-15220/11367180_zpid/","","","28000","","1314","29500","05/09/2023","1122","sqft","24.96","3201.66","sqft","8.75","2","1","","John Curry","No","No","","279 Advent St","Pittsburgh","15220","PA","USA","40.44426","-80.0339"
"https://www.zillow.com/homedetails/520-Cathedral-Ave-Pittsburgh-PA-15210/11435027_zpid/","","","30000","","1435","38600","05/09/2023","2011","sqft","14.92","3223","sqft","9.31","3","1.5","","","No","No","","520 Cathedral Ave","Pittsburgh","15210","PA","USA","40.411846","-79.97861"
"https://www.zillow.com/homedetails/613-S-5th-St-Duquesne-PA-15110/11459555_zpid/","","","30000","30400","1200","11500","05/09/2023","1125","sqft","26.67","3510","sqft","8.55","2","2","","","No","No","","613 S 5th St","Duquesne","15110","PA","USA","40.366123","-79.847725"
"https://www.zillow.com/homedetails/911-Vermont-Ave-Glassport-PA-15045/11543888_zpid/","","","30000","30500","1078","50100","05/04/2023","1602","sqft","18.73","5998.21","sqft","5","3","1","","Robert Kuzynski","No","No","","911 Vermont Ave","Glassport","15045","PA","USA","40.320606","-79.889175"
"https://www.zillow.com/homedetails/101-Doney-St-Duquesne-PA-15110/11423801_zpid/","","","25000","25400","1394","36900","05/02/2023","1508","sqft","16.58","5906","sqft","4.23","3","1.5","","","No","No","","101 Doney St","Duquesne","15110","PA","USA","40.367786","-79.85755"
"https://www.zillow.com/homedetails/734-Ohio-Ave-Glassport-PA-15045/246259548_zpid/","","","28000","","1090","34600","05/02/2023","1288","sqft","21.74","2748.64","sqft","10.19","3","1","","Kevin Shaner","No","No","","734 Ohio Ave","Glassport","15045","PA","USA","40.323082","-79.89166"
"https://www.zillow.com/homedetails/236-Bausman-St-Pittsburgh-PA-15210/11316962_zpid/","","","25000","25400","1321","25100","04/28/2023","1499","sqft","16.68","2400.16","sqft","10.42","3","1","","Billy Burleson","No","No","","236 Bausman St","Pittsburgh","15210","PA","USA","40.4141","-79.9923"
"https://www.zillow.com/homedetails/729-Midland-St-Pittsburgh-PA-15221/11380426_zpid/","","","27900","","1335","21700","04/28/2023","","","","2178","sqft","12.81","3","1","","Dustin Nulf","No","No","","729 Midland St","Pittsburgh","15221","PA","USA","40.43903","-79.87458"
"https://www.zillow.com/homedetails/2320-Jenny-Lind-St-McKeesport-PA-15132/11463634_zpid/","","","30000","30500","1092","18000","04/28/2023","1668","sqft","17.99","2874.96","sqft","10.43","3","1","","Craig Kostelac","No","No","","2320 Jenny Lind St","McKeesport","15132","PA","USA","40.33842","-79.84896"
"https://www.zillow.com/homedetails/115-Cutler-St-Mc-Kees-Rocks-PA-15136/11487924_zpid/","","","28000","28500","1114","23300","04/28/2023","1400","sqft","20","3001.28","sqft","9.33","3","1","","Douglas Brewster","No","No","","115 Cutler St","Mc Kees Rocks","15136","PA","USA","40.471306","-80.06198"
"https://www.zillow.com/homedetails/308-Erie-Ave-Glassport-PA-15045/11504480_zpid/","","","25000","25400","1006","39600","04/26/2023","860","sqft","29.07","3000","sqft","8.33","1","1.5","","","No","No","","308 Erie Ave","Glassport","15045","PA","USA","40.33044","-79.890686"
"https://www.zillow.com/homedetails/624-Michigan-Ave-Glassport-PA-15045/11543390_zpid/","","","27000","85900","1099","52800","04/26/2023","1276","sqft","21.16","2750","sqft","9.82","3","1","","","No","No","","624 Michigan Ave","Glassport","15045","PA","USA","40.325085","-79.891136"
"https://www.zillow.com/homedetails/505-Bellwood-Rd-West-Mifflin-PA-15122/52560648_zpid/","","","32000","","1099","32200","04/25/2023","1008","sqft","31.75","5662.8","sqft","5.65","2","1","","Robert Moncavage","No","No","","505 Bellwood Rd","West Mifflin","15122","PA","USA","40.384663","-79.892265"
"https://www.zillow.com/homedetails/7333-Hilliards-St-Pittsburgh-PA-15206/11338404_zpid/","","","29778","","1300","39600","04/21/2023","1622","sqft","18.36","4750","sqft","6.27","2","1","","","No","No","","7333 Hilliards St","Pittsburgh","15206","PA","USA","40.46433","-79.89155"
"https://www.zillow.com/homedetails/7123-Mount-Vernon-St-Pittsburgh-PA-15208/11338779_zpid/","","","29349","","1388","16800","04/21/2023","1593","sqft","18.42","2325","sqft","12.62","4","1","","","No","No","","7123 Mount Vernon St","Pittsburgh","15208","PA","USA","40.46203","-79.89642"
"https://www.zillow.com/homedetails/6930-Hartman-Ln-Pittsburgh-PA-15206/11336648_zpid/","","","28900","29500","1464","55000","04/20/2023","1152","sqft","25.09","3249.58","sqft","8.89","2","1","","Libby Sosinski","No","No","","6930 Hartman Ln","Pittsburgh","15206","PA","USA","40.47346","-79.89658"
"https://www.zillow.com/homedetails/401-Fairview-Ave-Pittsburgh-PA-15220/11367198_zpid/","","","27000","","1185","8800","04/20/2023","894","sqft","30.2","2400.16","sqft","11.25","2","1","","Rachel Novalesi","No","No","","401 Fairview Ave","Pittsburgh","15220","PA","USA","40.445114","-80.035164"
"https://www.zillow.com/homedetails/3214-Virginia-Ave-West-Mifflin-PA-15122/11348493_zpid/","","","29000","29600","1195","18000","04/19/2023","1184","sqft","24.49","5750","sqft","5.04","2","1","","","No","No","","3214 Virginia Ave","West Mifflin","15122","PA","USA","40.39319","-79.89048"
"https://www.zillow.com/homedetails/2662-S-18th-St-Pittsburgh-PA-15210/11315901_zpid/","","","25000","","1425","46700","04/18/2023","1288","sqft","19.41","2613.6","sqft","9.57","3","1","","Thom McDonell","No","No","","2662 S 18th St","Pittsburgh","15210","PA","USA","40.420197","-79.987015"
"https://www.zillow.com/homedetails/205-Crestview-Rd-Pittsburgh-PA-15235/11491438_zpid/","","","31000","31600","1117","54000","04/17/2023","1292","sqft","23.99","4469.26","sqft","6.94","2","1","","Karen Wantland","No","No","","205 Crestview Rd","Pittsburgh","15235","PA","USA","40.478577","-79.824486"
"https://www.zillow.com/homedetails/60-Lafferty-Ave-Pittsburgh-PA-15210/11324487_zpid/","","","25000","","1464","23900","04/12/2023","1628","sqft","15.36","3001.28","sqft","8.33","3","1","","Haldis Larsen","No","No","","60 Lafferty Ave","Pittsburgh","15210","PA","USA","40.417442","-80.007515"
"https://www.zillow.com/homedetails/2917-Jenny-Lind-St-McKeesport-PA-15132/11463304_zpid/","","","25750","","1069","23400","04/11/2023","1344","sqft","19.16","2875","sqft","8.96","3","2","","","No","No","","2917 Jenny Lind St","McKeesport","15132","PA","USA","40.339256","-79.8424"
"https://www.zillow.com/homedetails/302-Laurel-St-Mc-Kees-Rocks-PA-15136/11488097_zpid/","","","27000","27600","964","17000","04/11/2023","480","sqft","56.25","1237.1","sqft","21.83","2","1","","Kathleen Doehring","No","No","","302 Laurel St","Mc Kees Rocks","15136","PA","USA","40.46745","-80.06088"
"https://www.zillow.com/homedetails/3014-Wadlow-St-Pittsburgh-PA-15212/11606301_zpid/","","","25000","25600","1028","31400","04/07/2023","1598","sqft","15.64","2827.04","sqft","8.84","2","1","","Tina Nobers","No","No","","3014 Wadlow St","Pittsburgh","15212","PA","USA","40.47238","-80.02919"
"https://www.zillow.com/homedetails/801-Waddell-Ave-Clairton-PA-15025/11633509_zpid/","","","28250","","1096","34300","04/07/2023","1600","sqft","17.66","3598.06","sqft","7.85","4","1","","Gary Craig","No","No","","801 Waddell Ave","Clairton","15025","PA","USA","40.294994","-79.89099"
"https://www.zillow.com/homedetails/120-W-James-St-Homestead-PA-15120/11294907_zpid/","","","25000","210100","1442","78000","04/06/2023","1800","sqft","13.89","7501.03","sqft","3.33","3","2","","","No","No","","120 W James St","Homestead","15120","PA","USA","40.391865","-79.9015"
"https://www.zillow.com/homedetails/119-Cherry-Valley-Rd-Pittsburgh-PA-15221/11418778_zpid/","","","25000","25600","1550","59100","04/06/2023","2225","sqft","11.24","8379","sqft","2.98","3","1.5","","","No","No","","119 Cherry Valley Rd","Pittsburgh","15221","PA","USA","40.43432","-79.86141"
"https://www.zillow.com/homedetails/703-Municipal-St-Pittsburgh-PA-15204/11479227_zpid/","","","25000","102300","1200","50600","04/05/2023","732","sqft","34.15","3800","sqft","6.58","2","1","","","No","No","","703 Municipal St","Pittsburgh","15204","PA","USA","40.451847","-80.05256"
"https://www.zillow.com/homedetails/329-Pennsylvania-Ave-Clairton-PA-15025/11576301_zpid/","","","28250","87900","979","24900","04/05/2023","800","sqft","35.31","4595.58","sqft","6.15","2","1","","Patrick Conley","No","No","","329 Pennsylvania Ave","Clairton","15025","PA","USA","40.309666","-79.89589"
"https://www.zillow.com/homedetails/321-Pennsylvania-Ave-Clairton-PA-15025/11576305_zpid/","","","26750","81400","999","24500","04/05/2023","800","sqft","33.44","2326.1","sqft","11.5","2","1","","Patrick Conley","No","No","","321 Pennsylvania Ave","Clairton","15025","PA","USA","40.309795","-79.89574"
"https://www.zillow.com/homedetails/6635-Rowan-St-Pittsburgh-PA-15206/11285531_zpid/","","","29969","30700","1400","15900","03/31/2023","1636","sqft","18.32","3000","sqft","9.99","3","1","","","No","No","","6635 Rowan St","Pittsburgh","15206","PA","USA","40.46477","-79.903275"
"https://www.zillow.com/homedetails/2212-Chalfant-St-Pittsburgh-PA-15221/11417094_zpid/","","","32500","106400","1117","57700","03/31/2023","1039","sqft","31.28","5680","sqft","5.72","2","1","","","No","No","","2212 Chalfant St","Pittsburgh","15221","PA","USA","40.45189","-79.859314"
"https://www.zillow.com/homedetails/301-Longview-Ave-North-Versailles-PA-15137/11538539_zpid/","","","27000","","782","35700","03/31/2023","868","sqft","31.11","4159.98","sqft","6.49","1","1","","Tina Nobers","No","No","","301 Longview Ave","North Versailles","15137","PA","USA","40.37633","-79.81152"
"https://www.zillow.com/homedetails/1030-Chartiers-Ave-Mc-Kees-Rocks-PA-15136/11595107_zpid/","","","25000","","1400","31400","03/31/2023","1932","sqft","12.94","5454","sqft","4.58","3","1.5","","","No","No","","1030 Chartiers Ave","Mc Kees Rocks","15136","PA","USA","40.4654","-80.06772"
"https://www.zillow.com/homedetails/1210-Sylvan-Ave-Homestead-PA-15120/11293487_zpid/","","","31000","","1234","31600","03/30/2023","1360","sqft","22.79","2750","sqft","11.27","2","1","","","No","No","","1210 Sylvan Ave","Homestead","15120","PA","USA","40.400387","-79.9126"
"https://www.zillow.com/homedetails/1319-Hays-St-Homestead-PA-15120/11293635_zpid/","","","30000","","1134","24400","03/30/2023","1350","sqft","22.22","1760","sqft","17.05","2","1","","","No","No","","1319 Hays St","Homestead","15120","PA","USA","40.401333","-79.9093"
"https://www.zillow.com/homedetails/7612-Hamilton-Ave-Pittsburgh-PA-15208/11340320_zpid/","","","30000","","1608","21400","03/30/2023","1440","sqft","20.83","3001.28","sqft","10","3","2","","Yvette Carey","No","No","","7612 Hamilton Ave","Pittsburgh","15208","PA","USA","40.452866","-79.890625"
"https://www.zillow.com/homedetails/852-Lillian-St-Pittsburgh-PA-15210/11316343_zpid/","","","26500","","1399","40400","03/29/2023","1898","sqft","13.96","2488","sqft","10.65","4","1","","","No","No","","852 Lillian St","Pittsburgh","15210","PA","USA","40.418617","-79.99158"
"https://www.zillow.com/homedetails/655-Valemont-Dr-Verona-PA-15147/11531032_zpid/","","","25000","","1400","20200","03/28/2023","1044","sqft","23.95","9583","sqft","2.61","3","1","","","No","No","","655 Valemont Dr","Verona","15147","PA","USA","40.50205","-79.81581"
"https://www.zillow.com/homedetails/110-Jacqueline-Dr-Natrona-Heights-PA-15065/164585840_zpid/","","","25000","","863","30500","03/28/2023","","","","0.41","acres","60611.12","","","","","No","No","","110 Jacqueline Dr","Natrona heights","15065","PA","USA","40.64371","-79.70153"
"https://www.zillow.com/homedetails/96-Reel-Ave-Pittsburgh-PA-15237/11522164_zpid/","","","30000","245100","1996","91300","03/24/2023","1200","sqft","25","0.43","acres","69540.23","3","2","","","No","No","","96 Reel Ave","Pittsburgh","15237","PA","USA","40.543514","-80.03636"
"https://www.zillow.com/homedetails/731-School-St-Mc-Kees-Rocks-PA-15136/11602730_zpid/","","","31000","31900","990","39700","03/22/2023","1098","sqft","28.23","2500.34","sqft","12.4","2","1","","Shanna Funwela","No","No","","731 School St","Mc Kees Rocks","15136","PA","USA","40.473263","-80.06311"
"https://www.zillow.com/homedetails/307-Jucunda-St-Pittsburgh-PA-15210/11316241_zpid/","","","30000","","1340","47600","03/20/2023","1650","sqft","18.18","3123.25","sqft","9.61","3","1","","","No","No","","307 Jucunda St","Pittsburgh","15210","PA","USA","40.41745","-79.99354"
"https://www.zillow.com/homedetails/3362-Ajax-St-Pittsburgh-PA-15213/11403081_zpid/","","","28000","","1488","21700","03/20/2023","693","sqft","40.4","1258.88","sqft","22.24","2","2","","Charlotte Geringer","No","No","","3362 Ajax St","Pittsburgh","15213","PA","USA","40.45579","-79.963"
"https://www.zillow.com/homedetails/211-Avon-Rd-West-Mifflin-PA-15122/11348476_zpid/","","","26175","","1094","58900","03/17/2023","828","sqft","31.61","8712","sqft","3","2","1","","Mike Fink","No","No","","211 Avon Rd","West Mifflin","15122","PA","USA","40.3943","-79.89252"
"https://www.zillow.com/homedetails/29-Roanoke-St-Pittsburgh-PA-15203/164615322_zpid/","","","30000","","1235","3800","03/17/2023","","","","8805","sqft","3.41","","","","","No","No","","29 Roanoke St","Pittsburgh","15203","PA","USA","40.425926","-79.99356"
"https://www.zillow.com/homedetails/715-McLain-St-Pittsburgh-PA-15210/11474998_zpid/","","","30000","30900","1385","24900","03/15/2023","1150","sqft","26.09","3920.4","sqft","7.65","2","1","","Libby Sosinski","No","No","","715 McLain St","Pittsburgh","15210","PA","USA","40.42446","-79.99525"
"https://www.zillow.com/homedetails/2142-Walton-Ave-Pittsburgh-PA-15210/11647353_zpid/","","","25000","25800","920","45600","03/15/2023","852","sqft","29.34","3750","sqft","6.67","1","1","","","No","No","","2142 Walton Ave","Pittsburgh","15210","PA","USA","40.389664","-79.993935"
"https://www.zillow.com/homedetails/633-Valley-St-Oakmont-PA-15139/11448088_zpid/","","","30000","30900","1423","43100","03/14/2023","1254","sqft","23.92","1873.08","sqft","16.02","3","1","","John Mahoy","No","No","","633 Valley St","Oakmont","15139","PA","USA","40.512684","-79.837234"
"https://www.zillow.com/homedetails/14-School-St-Cuddy-PA-15031/11657599_zpid/","","","25000","25800","950","65300","03/14/2023","465","sqft","53.76","7800","sqft","3.21","1","1","","","No","No","","14 School St","Cuddy","15031","PA","USA","40.348347","-80.16157"
"https://www.zillow.com/homedetails/741-Frank-St-Pittsburgh-PA-15227/164292307_zpid/","","","33000","","1562","900","03/14/2023","","","","7206","sqft","4.58","","","","","No","No","","741 Frank St","Pittsburgh","15227","PA","USA","40.3676","-79.99219"
"https://www.zillow.com/homedetails/94-Beltzhoover-Ave-Pittsburgh-PA-15210/11314733_zpid/","","","30000","","1477","3100","03/13/2023","1924","sqft","15.59","3750","sqft","8","5","3","","","No","No","","94 Beltzhoover Ave","Pittsburgh","15210","PA","USA","40.422512","-79.99768"
"https://www.zillow.com/homedetails/1603-Abraham-St-McKeesport-PA-15132/11462835_zpid/","","","29500","75900","1099","32500","03/13/2023","1152","sqft","25.61","5000.69","sqft","5.9","2","1","","Matthew Shanty","No","No","","1603 Abraham St","McKeesport","15132","PA","USA","40.342102","-79.83544"
"https://www.zillow.com/homedetails/227-N-3rd-St-Clairton-PA-15025/11604900_zpid/","","","27000","92100","1200","39600","03/13/2023","1232","sqft","21.92","4800.31","sqft","5.62","2","1","","Libby Sosinski","No","No","","227 N 3rd St","Clairton","15025","PA","USA","40.304955","-79.887985"
"https://www.zillow.com/homedetails/105-Becks-Run-Rd-Coraopolis-PA-15108/11640851_zpid/","","","25000","25800","999","30000","03/13/2023","768","sqft","32.55","0.29","acres","86462.88","2","1","","","No","No","","105 Becks Run Rd","Coraopolis","15108","PA","USA","40.514427","-80.25941"
"https://www.zillow.com/homedetails/5723-Lauder-St-Pittsburgh-PA-15207/11352110_zpid/","","","28000","28900","1266","43600","03/10/2023","970","sqft","28.87","5998","sqft","4.67","3","1","","","No","No","","5723 Lauder St","Pittsburgh","15207","PA","USA","40.36658","-79.91433"
"https://www.zillow.com/homedetails/1023-Uvilla-St-Pittsburgh-PA-15220/11366665_zpid/","","","28500","77200","1117","29800","03/10/2023","792","sqft","35.98","2421.94","sqft","11.77","2","1","","Kathleen Doehring","No","No","","1023 Uvilla St","Pittsburgh","15220","PA","USA","40.44603","-80.039085"
"https://www.zillow.com/homedetails/1416-Clark-St-Pittsburgh-PA-15221/11379629_zpid/","","","29000","30000","1300","25400","03/08/2023","1000","sqft","29","6563","sqft","4.42","2","1.5","","","No","No","","1416 Clark St","Pittsburgh","15221","PA","USA","40.444042","-79.872505"
"https://www.zillow.com/homedetails/2072-Boggs-Ave-Pittsburgh-PA-15221/11417499_zpid/","","","28000","","1414","47200","03/08/2023","1324","sqft","21.15","3836","sqft","7.3","3","1.5","","","No","No","","2072 Boggs Ave","Pittsburgh","15221","PA","USA","40.448677","-79.860344"
"https://www.zillow.com/homedetails/3004-Marshall-Rd-Pittsburgh-PA-15214/11609810_zpid/","","","25000","","1385","33300","03/06/2023","","","","2500","sqft","10","3","1","","Alex Deacon","No","No","","3004 Marshall Rd","Pittsburgh","15214","PA","USA","40.47615","-80.01509"
"https://www.zillow.com/homedetails/3-Julian-Dr-Pittsburgh-PA-15235/11450921_zpid/","","","30000","185200","1633","45000","03/03/2023","1824","sqft","16.45","9126","sqft","3.29","4","2","","","No","No","","3 Julian Dr","Pittsburgh","15235","PA","USA","40.46878","-79.84227"
"https://www.zillow.com/homedetails/1121-Criss-St-Pittsburgh-PA-15204/11482508_zpid/","","","32500","","1076","12000","03/03/2023","","","","2700","sqft","12.04","2","1","","Christian Ivory","No","No","","1121 Criss St","Pittsburgh","15204","PA","USA","40.45771","-80.06608"
"https://www.zillow.com/homedetails/92-Euclid-Ave-Mc-Kees-Rocks-PA-15136/11264424_zpid/","","","30000","31100","1531","104700","03/02/2023","1628","sqft","18.43","4800","sqft","6.25","3","1.5","","","No","No","","92 Euclid Ave","Mc Kees Rocks","15136","PA","USA","40.485485","-80.0839"
"https://www.zillow.com/homedetails/913-Harkness-Ln-Sewickley-PA-15143/11480513_zpid/","","","31000","32100","900","92300","03/02/2023","550","sqft","56.36","2278.19","sqft","13.61","","","","Lorraine Easton","No","No","","913 Harkness Ln","Sewickley","15143","PA","USA","40.54006","-80.17003"
"https://www.zillow.com/homedetails/Boyds-Run-Rd-Presto-PA-15142/164589578_zpid/","","","30000","","1774","71600","03/02/2023","","","","9.22","acres","3253.8","","","","","No","No","","Boyds Run Rd","Presto","15142","PA","USA","40.376537","-80.12862"
"https://www.zillow.com/homedetails/2736-Stafford-St-Pittsburgh-PA-15204/11371281_zpid/","","","31000","","1440","40000","03/01/2023","1714","sqft","18.09","2500","sqft","12.4","3","1.5","","","No","No","","2736 Stafford St","Pittsburgh","15204","PA","USA","40.45533","-80.048874"
"https://www.zillow.com/homedetails/644-Madison-Ave-McKeesport-PA-15132/11425351_zpid/","","","30000","31100","1251","35600","03/01/2023","1722","sqft","17.42","0.3","acres","100000","3","1","","Matt O'Donnell","No","No","","644 Madison Ave","McKeesport","15132","PA","USA","40.34849","-79.85778"
"https://www.zillow.com/homedetails/331-Cline-St-East-Pittsburgh-PA-15112/11456670_zpid/","","","27137","","1300","50300","03/01/2023","1170","sqft","23.19","0.36","acres","75407.48","3","1","","","No","No","","331 Cline St","East Pittsburgh","15112","PA","USA","40.416","-79.83576"
"https://www.zillow.com/homedetails/37-W-Elizabeth-St-Pittsburgh-PA-15207/11550428_zpid/","","","27500","","1195","4000","02/28/2023","1008","sqft","27.28","871.2","sqft","31.57","2","1","","Gina Giampietro","No","No","","37 W Elizabeth St","Pittsburgh","15207","PA","USA","40.40669","-79.94482"
"https://www.zillow.com/homedetails/3807-Grant-St-South-Park-PA-15129/164543707_zpid/","","","25000","","1381","20300","02/28/2023","","","","0.33","acres","75625","","","","","No","No","","3807 Grant St","South Park","15129","PA","USA","40.285328","-80.011765"
"https://www.zillow.com/homedetails/Bryson-Rd-Gibsonia-PA-15044/164575629_zpid/","","","28500","","1320","18000","02/28/2023","","","","0.66","acres","42986.84","","","","","No","No","","Bryson Rd","Gibsonia","15044","PA","USA","40.629604","-79.88153"
"https://www.zillow.com/homedetails/1403-Woodland-Ave-Pittsburgh-PA-15212/11498659_zpid/","","","33000","","1314","64500","02/27/2023","1626","sqft","20.3","3598.06","sqft","9.17","3","1","","Billy Burleson","No","No","","1403 Woodland Ave","Pittsburgh","15212","PA","USA","40.46852","-80.03159"
"https://www.zillow.com/homedetails/111-Quincy-Ave-Pittsburgh-PA-15210/11436979_zpid/","","","25000","","1200","24600","02/24/2023","1096","sqft","22.81","2274","sqft","10.99","2","1","","","No","No","","111 Quincy Ave","Pittsburgh","15210","PA","USA","40.407604","-79.991104"
"https://www.zillow.com/homedetails/2919-Shadeland-Ave-Pittsburgh-PA-15212/11498214_zpid/","","","32500","33700","900","31200","02/23/2023","768","sqft","42.32","1899.22","sqft","17.11","1","1","","Monica Reynolds","No","No","","2919 Shadeland Ave","Pittsburgh","15212","PA","USA","40.47114","-80.03102"
"https://www.zillow.com/homedetails/1315-Centennial-St-McKeesport-PA-15132/11464395_zpid/","","","27000","","1096","12100","02/22/2023","1957","sqft","13.8","3484.8","sqft","7.75","3","2","","Keith Soles","No","No","","1315 Centennial St","McKeesport","15132","PA","USA","40.343716","-79.8588"
"https://www.zillow.com/homedetails/1316-Brinton-Ave-Braddock-PA-15104/11457663_zpid/","","","28650","29700","1200","26000","02/21/2023","1000","sqft","28.65","2750","sqft","10.42","2","2","","","No","No","","1316 Brinton Ave","Braddock","15104","PA","USA","40.40519","-79.84419"
"https://www.zillow.com/homedetails/102-Mawco-Dr-Monroeville-PA-15146/11572355_zpid/","","","26000","","1235","65800","02/21/2023","1172","sqft","22.18","0.34","acres","75691.41","3","1","","Harriett Koedel","No","No","","102 Mawco Dr","Monroeville","15146","PA","USA","40.398335","-79.78952"
"https://www.zillow.com/homedetails/1629-Lee-Ave-McKeesport-PA-15132/11464271_zpid/","","","30000","","1099","13300","02/16/2023","1328","sqft","22.59","3300","sqft","9.09","3","1","","","No","No","","1629 Lee Ave","McKeesport","15132","PA","USA","40.345226","-79.85307"
"https://www.zillow.com/homedetails/1717-Romine-Ave-McKeesport-PA-15133/11465002_zpid/","","","28000","29100","854","50600","02/13/2023","1472","sqft","19.02","3301.85","sqft","8.48","3","1","","Jon Gordon","No","No","","1717 Romine Ave","McKeesport","15133","PA","USA","40.33633","-79.86575"
"https://www.zillow.com/homedetails/1009-2nd-St-Mc-Kees-Rocks-PA-15136/11595184_zpid/","","","28850","30000","1192","53800","02/10/2023","1648","sqft","17.51","3544","sqft","8.14","3","1","","","No","No","","1009 2nd St","Mc Kees Rocks","15136","PA","USA","40.46683","-80.06732"
"https://www.zillow.com/homedetails/615-Excelsior-St-Pittsburgh-PA-15210/300328080_zpid/","","","30000","","1419","3500","02/08/2023","","","","3750","sqft","8","3","1","","","No","No","","615 Excelsior St","Pittsburgh","15210","PA","USA","40.422997","-79.996796"
"https://www.zillow.com/homedetails/441-Kingsboro-St-Pittsburgh-PA-15211/11314893_zpid/","","","25000","26100","1650","16400","02/06/2023","1831","sqft","13.65","2500","sqft","10","3","1","","","No","No","","441 Kingsboro St","Pittsburgh","15211","PA","USA","40.421917","-79.99879"
"https://www.zillow.com/homedetails/236-E-17th-Ave-Homestead-PA-15120/11293248_zpid/","","","26500","27700","1021","11500","02/01/2023","1092","sqft","24.27","2178","sqft","12.17","1","1","","","No","No","","236 E 17th Ave","Homestead","15120","PA","USA","40.402313","-79.90228"
"https://www.zillow.com/homedetails/2-Willow-St-Mc-Kees-Rocks-PA-15136/11594424_zpid/","","","31500","113200","1295","42400","02/01/2023","1104","sqft","28.53","9334.91","sqft","3.37","3","1","","Shanna Funwela","No","No","","2 Willow St","Mc Kees Rocks","15136","PA","USA","40.468807","-80.07933"
"https://www.zillow.com/homedetails/207-Steuben-St-Pittsburgh-PA-15220/11362353_zpid/","","","25000","","1400","23100","01/31/2023","1120","sqft","22.32","","","","3","1","","","No","No","","207 Steuben St","Pittsburgh","15220","PA","USA","40.441086","-80.03635"
"https://www.zillow.com/homedetails/144-Wynoka-St-Pittsburgh-PA-15210/11437485_zpid/","","","30000","","1394","20000","01/31/2023","1928","sqft","15.56","3881.2","sqft","7.73","3","1","","Billy Burleson","No","No","","144 Wynoka St","Pittsburgh","15210","PA","USA","40.40502","-79.98726"
"https://www.zillow.com/homedetails/1102-Oswin-St-Pittsburgh-PA-15220/11366971_zpid/","","","29000","","1591","9000","01/30/2023","1065","sqft","27.23","2199.78","sqft","13.18","2","2","","Billy Burleson","No","No","","1102 Oswin St","Pittsburgh","15220","PA","USA","40.44347","-80.04303"
"https://www.zillow.com/homedetails/2119-Columbia-Ave-Pittsburgh-PA-15218/11382291_zpid/","","","29137","123800","1094","54700","01/27/2023","879","sqft","33.15","3121","sqft","9.34","2","1","","","No","No","","2119 Columbia Ave","Pittsburgh","15218","PA","USA","40.423695","-79.88209"
"https://www.zillow.com/homedetails/213-Oak-St-West-Mifflin-PA-15122/11348212_zpid/","","","25000","26100","1249","45100","01/26/2023","768","sqft","32.55","7650","sqft","3.27","2","2","","","No","No","","213 Oak St","West Mifflin","15122","PA","USA","40.395374","-79.88655"
"https://www.zillow.com/homedetails/7727-Lyman-St-Pittsburgh-PA-15221/11341401_zpid/","","","27318","73200","1450","17400","01/25/2023","1742","sqft","15.68","2488","sqft","10.98","3","1","","","No","No","","7727 Lyman St","Pittsburgh","15221","PA","USA","40.443336","-79.89413"
"https://www.zillow.com/homedetails/1106-Jones-Ave-Braddock-PA-15104/11421781_zpid/","","","28574","","1106","18200","01/23/2023","936","sqft","30.53","8304","sqft","3.44","2","1","","","No","No","","1106 Jones Ave","Braddock","15104","PA","USA","40.40749","-79.856255"
"https://www.zillow.com/homedetails/226-E-16th-Ave-Homestead-PA-15120/11293440_zpid/","","","31086","32500","1374","19800","01/20/2023","1306","sqft","23.8","2200","sqft","14.13","3","1","","","No","No","","226 E 16th Ave","Homestead","15120","PA","USA","40.4026","-79.90342"
"https://www.zillow.com/homedetails/140-Greenfield-Ave-East-Pittsburgh-PA-15112/11457124_zpid/","","","33000","34600","1314","30100","01/20/2023","1170","sqft","28.21","2748.64","sqft","12.01","3","1","","Matthew Luciani","No","No","","140 Greenfield Ave","East Pittsburgh","15112","PA","USA","40.408924","-79.83787"
"https://www.zillow.com/homedetails/217-Bessemer-St-Verona-PA-15147/11567399_zpid/","","","29250","","1200","50000","01/19/2023","1080","sqft","27.08","2718.14","sqft","10.76","2","1","","Billy Burleson","No","No","","217 Bessemer St","Verona","15147","PA","USA","40.49841","-79.79446"
"https://www.zillow.com/homedetails/825-Forest-Ave-Homestead-PA-15120/11640394_zpid/","","","26500","27700","1200","25000","01/18/2023","1024","sqft","25.88","2200","sqft","12.05","2","1","","","No","No","","825 Forest Ave","Homestead","15120","PA","USA","40.400806","-79.91685"
"https://www.zillow.com/homedetails/145-Fall-Run-Rd-Glenshaw-PA-15116/11443517_zpid/","","","30000","31400","1400","66100","01/17/2023","1176","sqft","25.51","1","acres","30000","2","1","","","No","No","","145 Fall Run Rd","Glenshaw","15116","PA","USA","40.529137","-79.95076"
"https://www.zillow.com/homedetails/518-5th-Ave-Coraopolis-PA-15108/11480205_zpid/","","","25000","","1099","18200","01/17/2023","988","sqft","25.3","2350","sqft","10.64","2","1","","","No","No","","518 5th Ave","Coraopolis","15108","PA","USA","40.521397","-80.17476"
"https://www.zillow.com/homedetails/516-5th-Ave-Coraopolis-PA-15108/11480206_zpid/","","","25000","97300","1099","18200","01/17/2023","988","sqft","25.3","2350","sqft","10.64","2","1","","","No","No","","516 5th Ave","Coraopolis","15108","PA","USA","40.521427","-80.17482"
"https://www.zillow.com/homedetails/State-Route-4027-Irwin-PA-15642/333213261_zpid/","","","28000","","1376","1930","01/12/2023","","","","5.1","acres","5490.2","","","","","No","No","","State Route 4027","Irwin","15642","PA","USA","40.3496","-79.78295"
"https://www.zillow.com/homedetails/311-Marsonia-St-Pittsburgh-PA-15214/11506196_zpid/","","","30000","35700","1363","43200","01/11/2023","1520","sqft","19.74","2970.79","sqft","10.1","3","1","","Billy Burleson","No","No","","311 Marsonia St","Pittsburgh","15214","PA","USA","40.46388","-80.0059"
"https://www.zillow.com/homedetails/2657-Ellis-St-Pittsburgh-PA-15214/11610167_zpid/","","","28500","","1685","8000","01/11/2023","1440","sqft","19.79","3750.52","sqft","7.6","3","2","","Libby Sosinski","No","No","","2657 Ellis St","Pittsburgh","15214","PA","USA","40.47229","-80.01147"
"https://www.zillow.com/homedetails/511-Ormsby-Ave-Pittsburgh-PA-15210/11434925_zpid/","","","25900","98900","1099","25900","01/10/2023","645","sqft","40.16","6985","sqft","3.71","2","1","","","No","No","","511 Ormsby Ave","Pittsburgh","15210","PA","USA","40.41312","-79.97877"
"https://www.zillow.com/homedetails/321-Rochelle-St-Pittsburgh-PA-15210/11316866_zpid/","","","31500","213200","1350","50800","01/06/2023","1620","sqft","19.44","3123.25","sqft","10.09","4","2","","Anthony Johnson II","No","No","","321 Rochelle St","Pittsburgh","15210","PA","USA","40.41521","-79.99422"
"https://www.zillow.com/homedetails/1523-Grant-St-Braddock-PA-15104/11457912_zpid/","","","29830","31300","993","19000","01/06/2023","896","sqft","33.29","3300","sqft","9.04","2","1","","","No","No","","1523 Grant St","Braddock","15104","PA","USA","40.402214","-79.84377"
"https://www.zillow.com/homedetails/222-Sagamore-St-Pittsburgh-PA-15204/11488338_zpid/","","","31000","32500","1403","29400","01/06/2023","1080","sqft","28.7","3000","sqft","10.33","2","1.5","","","No","No","","222 Sagamore St","Pittsburgh","15204","PA","USA","40.463478","-80.054245"
"https://www.zillow.com/homedetails/223-Ulysses-St-Pittsburgh-PA-15211/11515266_zpid/","","","32100","155200","1435","64200","01/06/2023","1276","sqft","25.16","2082","sqft","15.42","2","1","","","No","No","","223 Ulysses St","Pittsburgh","15211","PA","USA","40.431957","-80.01258"
"https://www.zillow.com/homedetails/Clinton-Rd-Glenshaw-PA-15116/164625854_zpid/","","","25000","","1692","53400","01/06/2023","","","","4.7","acres","5319.15","","","","","No","No","","Clinton Rd","Glenshaw","15116","PA","USA","40.52715","-79.95827"
"https://www.zillow.com/homedetails/1407-Highland-Ave-Duquesne-PA-15110/11424169_zpid/","","","30000","31500","1250","33100","01/05/2023","1206","sqft","24.88","3514","sqft","8.54","3","1.5","","","No","No","","1407 Highland Ave","Duquesne","15110","PA","USA","40.36745","-79.85809"
"https://www.zillow.com/homedetails/151-Flowers-Ave-Pittsburgh-PA-15207/11550118_zpid/","","","25000","","1050","10000","01/04/2023","896","sqft","27.9","710","sqft","35.21","2","1","","","No","No","","151 Flowers Ave","Pittsburgh","15207","PA","USA","40.410458","-79.942635"
"https://www.zillow.com/homedetails/79-Haberman-Ave-Pittsburgh-PA-15211/11517110_zpid/","","","32500","147400","1498","34800","01/03/2023","1502","sqft","21.64","1669","sqft","19.47","3","1","","","No","No","","79 Haberman Ave","Pittsburgh","15211","PA","USA","40.423775","-80.002464"
"https://www.zillow.com/homedetails/3203-Virginia-Ave-West-Mifflin-PA-15122/11348528_zpid/","","","31500","","1300","39900","12/30/2022","","","","6525.29","sqft","4.83","3","1","","Elizabeth Kofmehl","No","No","","3203 Virginia Ave","West Mifflin","15122","PA","USA","40.393734","-79.89084"
"https://www.zillow.com/homedetails/411-Edison-St-West-Mifflin-PA-15122/11425159_zpid/","","","29000","30500","1394","52300","12/29/2022","1296","sqft","22.38","8400","sqft","3.45","3","1.5","","","No","No","","411 Edison St","West Mifflin","15122","PA","USA","40.36034","-79.85681"
"https://www.zillow.com/homedetails/417-Ohio-Ave-Glassport-PA-15045/11504634_zpid/","","","33000","45800","1250","45800","12/29/2022","1500","sqft","22","3001.28","sqft","11","4","2","","","No","No","","417 Ohio Ave","Glassport","15045","PA","USA","40.328503","-79.89126"
"https://www.zillow.com/homedetails/20-Penn-St-Natrona-Heights-PA-15065/11302056_zpid/","","","26000","","1025","21500","12/28/2022","1176","sqft","22.11","1710","sqft","15.2","3","1","","","No","No","","20 Penn St","Natrona Heights","15065","PA","USA","40.614353","-79.72087"
"https://www.zillow.com/homedetails/638-Chauncey-St-Pittsburgh-PA-15219/11260599_zpid/","","","30000","","1631","30300","12/27/2022","1272","sqft","23.58","1912.28","sqft","15.69","3","1","","Paul Wang","No","No","","638 Chauncey St","Pittsburgh","15219","PA","USA","40.448517","-79.973656"
"https://www.zillow.com/homedetails/2703-Freeport-Rd-Natrona-Heights-PA-15065/11332201_zpid/","","","26000","34400","714","47500","12/27/2022","680","sqft","38.24","5700","sqft","4.56","1","1","","","No","No","","2703 Freeport Rd","Natrona Heights","15065","PA","USA","40.634853","-79.71366"
"https://www.zillow.com/homedetails/633-Baldwin-St-Bridgeville-PA-15017/11400117_zpid/","","","28500","","1329","60200","12/27/2022","960","sqft","29.69","6103","sqft","4.67","2","1.5","","","No","No","","633 Baldwin St","Bridgeville","15017","PA","USA","40.3581","-80.10719"
"https://www.zillow.com/homedetails/7334-Hermitage-St-Pittsburgh-PA-15208/11339487_zpid/","","","28000","29400","1381","5000","12/22/2022","1620","sqft","17.28","2318","sqft","12.08","4","1","","","No","No","","7334 Hermitage St","Pittsburgh","15208","PA","USA","40.459183","-79.89169"
"https://www.zillow.com/homedetails/221-Ridge-St-North-Versailles-PA-15137/11496853_zpid/","","","25000","26300","1200","40500","12/22/2022","1456","sqft","17.17","10000","sqft","2.5","3","2","","","No","No","","221 Ridge St","North Versailles","15137","PA","USA","40.396626","-79.82517"
"https://www.zillow.com/homedetails/115-4th-Ave-Braddock-PA-15104/11383949_zpid/","","","29500","31000","1379","11700","12/16/2022","970","sqft","30.41","1921","sqft","15.36","2","1","","Kevin Shaner","No","No","","115 4th Ave","Braddock","15104","PA","USA","40.41166","-79.8776"
"https://www.zillow.com/homedetails/806-9th-St-Mc-Kees-Rocks-PA-15136/11598629_zpid/","","","29000","82400","912","22800","12/21/2022","810","sqft","35.8","2495.99","sqft","11.62","2","1","","Tracy Walker","No","No","","806 9th St","Mc Kees Rocks","15136","PA","USA","40.47489","-80.07579"
"https://www.zillow.com/homedetails/303-Marion-Ave-Pittsburgh-PA-15221/11455885_zpid/","","","26500","27900","1061","55400","12/20/2022","825","sqft","32.12","3410","sqft","7.77","2","1","","","No","No","","303 Marion Ave","Pittsburgh","15221","PA","USA","40.42113","-79.84712"
"https://www.zillow.com/homedetails/1510-Evans-Ave-McKeesport-PA-15132/11462191_zpid/","","","25000","","1364","4000","12/20/2022","2456","sqft","10.18","2700","sqft","9.26","5","2","","","No","No","","1510 Evans Ave","McKeesport","15132","PA","USA","40.342194","-79.84963"
"https://www.zillow.com/homedetails/388-New-York-Ave-Clairton-PA-15025/11576401_zpid/","","","30000","","950","22300","12/20/2022","800","sqft","37.5","2550","sqft","11.76","2","1","","","No","No","","388 New York Ave","Clairton","15025","PA","USA","40.308964","-79.89622"
"https://www.zillow.com/homedetails/3454-Fleming-Ave-Pittsburgh-PA-15212/11603943_zpid/","","","25000","26300","1570","44400","12/20/2022","1845","sqft","13.55","828","sqft","30.19","4","1","","","No","No","","3454 Fleming Ave","Pittsburgh","15212","PA","USA","40.47828","-80.038445"
"https://www.zillow.com/homedetails/717-Walnut-Ave-Clairton-PA-15025/11604964_zpid/","","","25000","26300","1085","39600","12/20/2022","1111","sqft","22.5","3750","sqft","6.67","3","1","","","No","No","","717 Walnut Ave","Clairton","15025","PA","USA","40.304043","-79.894"
"https://www.zillow.com/homedetails/228-E-Agnew-Ave-Pittsburgh-PA-15210/11557296_zpid/","","","32400","186700","1582","50000","12/14/2022","1527","sqft","21.22","7405.2","sqft","4.38","3","2","","Robert Moncavage","No","No","","228 E Agnew Ave","Pittsburgh","15210","PA","USA","40.395947","-79.983185"
"https://www.zillow.com/homedetails/604-E-18th-Ave-Homestead-PA-15120/11293411_zpid/","","","26400","","1094","20000","12/12/2022","1188","sqft","22.22","1850","sqft","14.27","2","1","","","No","No","","604 E 18th Ave","Homestead","15120","PA","USA","40.402096","-79.90045"
"https://www.zillow.com/homedetails/431-Industry-Rd-Buena-Vista-PA-15018/11286538_zpid/","","","31793","33600","900","40500","12/09/2022","832","sqft","38.21","0.38","acres","83669.83","2","1","","","No","No","","431 Industry Rd","Buena Vista","15018","PA","USA","40.26722","-79.79363"
"https://www.zillow.com/homedetails/165-W-Schwab-Ave-Homestead-PA-15120/11347668_zpid/","","","30000","","950","34000","12/09/2022","792","sqft","37.88","4100","sqft","7.32","1","1","","","No","No","","165 W Schwab Ave","Homestead","15120","PA","USA","40.400723","-79.891"
"https://www.zillow.com/homedetails/320-Cline-St-East-Pittsburgh-PA-15112/11456364_zpid/","","","32500","34300","1145","24000","12/09/2022","","","","0.26","acres","126401.79","2","1","","Roman Ivanov","No","No","","320 Cline St","East Pittsburgh","15112","PA","USA","40.416386","-79.836914"
"https://www.zillow.com/homedetails/921-Vermont-Ave-Glassport-PA-15045/11543892_zpid/","","","28000","96400","1089","50900","12/09/2022","1176","sqft","23.81","2613.6","sqft","10.71","3","1","","Devie Rollison","No","No","","921 Vermont Ave","Glassport","15045","PA","USA","40.320297","-79.88917"
"https://www.zillow.com/homedetails/1004-Toman-Ave-Clairton-PA-15025/11633989_zpid/","","","29000","","950","26400","12/09/2022","768","sqft","37.76","4181","sqft","6.94","2","1","","","No","No","","1004 Toman Ave","Clairton","15025","PA","USA","40.291","-79.89396"
"https://www.zillow.com/homedetails/528-Cypress-Aly-Glassport-PA-15045/2060947384_zpid/","","","30000","31600","1099","","12/09/2022","1008","sqft","29.76","2613.6","sqft","11.48","3","2","","Lori Maffeo","No","No","","528 Cypress Aly","Glassport","15045","PA","USA","40.327183","-79.8902"
"https://www.zillow.com/homedetails/2309-Arlington-Ave-Pittsburgh-PA-15210/11308593_zpid/","","","25000","26300","1200","18400","12/06/2022","1056","sqft","23.67","2059","sqft","12.14","2","1","","","No","No","","2309 Arlington Ave","Pittsburgh","15210","PA","USA","40.417507","-79.97408"
"https://www.zillow.com/homedetails/451-Thomas-St-Monroeville-PA-15146/11572324_zpid/","","","25000","","1440","88400","12/06/2022","2146","sqft","11.65","6600","sqft","3.79","4","2","","","No","No","","451 Thomas St","Monroeville","15146","PA","USA","40.398426","-79.79952"
"https://www.zillow.com/homedetails/540-E-8th-Ave-Tarentum-PA-15084/11279444_zpid/","","","30000","127200","1235","33900","12/05/2022","2078","sqft","14.44","2390","sqft","12.55","3","2","","","No","No","","540 E 8th Ave","Tarentum","15084","PA","USA","40.605206","-79.75083"
"https://www.zillow.com/homedetails/368-Bunola-River-Rd-Bunola-PA-15020/11338578_zpid/","","","30000","31600","1335","61700","12/05/2022","1303","sqft","23.02","0.52","acres","58080","3","2","","","No","No","","368 Bunola River Rd","Bunola","15020","PA","USA","40.237568","-79.9511"
"https://www.zillow.com/homedetails/31-Center-St-Natrona-Heights-PA-15065/11302063_zpid/","","","27000","64300","895","9000","12/02/2022","1092","sqft","24.73","1489.75","sqft","18.12","2","1","","Billie Jo Easterlin","No","No","","31 Center St","Natrona Heights","15065","PA","USA","40.61467","-79.72101"
"https://www.zillow.com/homedetails/15-Jonquil-Pl-Pittsburgh-PA-15228/11311570_zpid/","","","29000","304900","1615","136200","12/02/2022","6000","sqft","4.83","6098","sqft","4.76","3","1","","","No","No","","15 Jonquil Pl","Pittsburgh","15228","PA","USA","40.38092","-80.03655"
"https://www.zillow.com/homedetails/330-Princeton-Dr-Pittsburgh-PA-15235/11534724_zpid/","","","27200","28700","1702","73600","12/02/2022","972","sqft","27.98","9242","sqft","2.94","3","1.5","","","No","No","","330 Princeton Dr","Pittsburgh","15235","PA","USA","40.440254","-79.80603"
"https://www.zillow.com/homedetails/406-Hillview-St-McKeesport-PA-15132/11503157_zpid/","","","25000","26300","1114","59000","11/30/2022","1450","sqft","17.24","5112","sqft","4.89","3","1","","","No","No","","406 Hillview St","McKeesport","15132","PA","USA","40.32658","-79.83814"
"https://www.zillow.com/homedetails/457-Cypress-Dr-Coraopolis-PA-15108/11518116_zpid/","","","25000","26300","874","19100","11/30/2022","702","sqft","35.61","3134","sqft","7.98","1","1","","","No","No","","457 Cypress Dr","Coraopolis","15108","PA","USA","40.524","-80.187485"
"https://www.zillow.com/homedetails/3434-Fleming-Ave-Pittsburgh-PA-15212/11603910_zpid/","","","32500","","995","36200","11/29/2022","924","sqft","35.17","2321.75","sqft","14","2","1","","Paul Wang","No","No","","3434 Fleming Ave","Pittsburgh","15212","PA","USA","40.47774","-80.03822"
"https://www.zillow.com/homedetails/337-Rochelle-St-Pittsburgh-PA-15210/11316871_zpid/","","","29000","","1564","32200","11/23/2022","1568","sqft","18.49","3049.2","sqft","9.51","3","1","","Antonio Knox","No","No","","337 Rochelle St","Pittsburgh","15210","PA","USA","40.415195","-79.994835"
"https://www.zillow.com/homedetails/1070-Lawndale-St-Pittsburgh-PA-15221/11377456_zpid/","","","32500","34400","1385","43800","11/23/2022","912","sqft","35.64","5000","sqft","6.5","3","2","","","No","No","","1070 Lawndale St","Pittsburgh","15221","PA","USA","40.45819","-79.881454"
"https://www.zillow.com/homedetails/8323-Bricelyn-St-Pittsburgh-PA-15221/11377675_zpid/","","","26500","27900","1350","32700","11/23/2022","1518","sqft","17.46","2500.34","sqft","10.6","3","2","","","No","No","","8323 Bricelyn St","Pittsburgh","15221","PA","USA","40.45529","-79.878685"
"https://www.zillow.com/homedetails/323-24th-St-McKeesport-PA-15132/11502219_zpid/","","","28000","110200","1300","24700","11/23/2022","1764","sqft","15.87","4467","sqft","6.27","3","2","","","No","No","","323 24th St","McKeesport","15132","PA","USA","40.335835","-79.84974"
"https://www.zillow.com/homedetails/2315-Banker-St-McKeesport-PA-15132/11501525_zpid/","","","25000","","1435","29000","11/21/2022","1552","sqft","16.11","3500","sqft","7.14","4","1.5","","","No","No","","2315 Banker St","McKeesport","15132","PA","USA","40.337246","-79.83223"
"https://www.zillow.com/homedetails/17-Russell-Ln-Gibsonia-PA-15044/11363962_zpid/","","","25000","165400","1429","74100","11/18/2022","936","sqft","26.71","2022","sqft","12.36","3","1","","","No","No","","17 Russell Ln","Gibsonia","15044","PA","USA","40.653603","-79.91575"
"https://www.zillow.com/homedetails/1709-Jenny-Lind-St-McKeesport-PA-15132/11464724_zpid/","","","32500","","1213","16700","11/18/2022","2340","sqft","13.89","2613.6","sqft","12.43","4","1","","Robert Moncavage","No","No","","1709 Jenny Lind St","McKeesport","15132","PA","USA","40.34033","-79.855286"
"https://www.zillow.com/homedetails/152-Cleveland-Ave-Pittsburgh-PA-15214/11328119_zpid/","","","29900","","1295","53400","11/17/2022","574","sqft","52.09","4268.88","sqft","7","2","1","","Libby Sosinski","No","No","","152 Cleveland Ave","Pittsburgh","15214","PA","USA","40.499367","-80.01518"
"https://www.zillow.com/homedetails/7504-Bennett-St-Pittsburgh-PA-15208/11340272_zpid/","","","30000","","1381","13700","11/15/2022","1358","sqft","22.09","2532","sqft","11.85","3","1","","","No","No","","7504 Bennett St","Pittsburgh","15208","PA","USA","40.455143","-79.89212"
"https://www.zillow.com/homedetails/1308-Kirkpatrick-Ave-Braddock-PA-15104/11422479_zpid/","","","25000","74800","995","16800","11/15/2022","1014","sqft","24.65","2200","sqft","11.36","2","1","","","No","No","","1308 Kirkpatrick Ave","Braddock","15104","PA","USA","40.399933","-79.85678"
"https://www.zillow.com/homedetails/Oakdale-Rd-Oakdale-PA-15071/246259481_zpid/","","","25000","","2299","37100","11/15/2022","","","","2.04","acres","12254.96","","","","","No","No","","Oakdale Rd","Oakdale","15071","PA","USA","40.41377","-80.197716"
"https://www.zillow.com/homedetails/537-Turrett-St-Pittsburgh-PA-15206/11285297_zpid/","","","32500","34400","3135","19600","11/14/2022","2200","sqft","14.77","2750","sqft","11.82","5","2.5","","","No","No","","537 Turrett St","Pittsburgh","15206","PA","USA","40.462612","-79.90933"
"https://www.zillow.com/homedetails/1017-4th-St-Braddock-PA-15104/11421388_zpid/","","","27000","29000","1375","19400","11/11/2022","1760","sqft","15.34","2748.64","sqft","9.82","5","1","","Gary Norris","No","No","","1017 4th St","Braddock","15104","PA","USA","40.41109","-79.86544"
"https://www.zillow.com/homedetails/530-Hazel-St-McKeesport-PA-15132/11425424_zpid/","","","25000","","1164","20800","11/09/2022","1584","sqft","15.78","1800","sqft","13.89","3","1","","","No","No","","530 Hazel St","McKeesport","15132","PA","USA","40.350845","-79.85217"
"https://www.zillow.com/homedetails/145-Orchard-Pl-Pittsburgh-PA-15210/11316528_zpid/","","","30000","","1679","38500","11/08/2022","2120","sqft","14.15","2919","sqft","10.28","3","2","","","No","No","","145 Orchard Pl","Pittsburgh","15210","PA","USA","40.418285","-79.99046"
"https://www.zillow.com/homedetails/630-Arch-St-Duquesne-PA-15110/11459573_zpid/","","","31000","32700","963","21300","11/08/2022","1326","sqft","23.38","2750","sqft","11.27","2","1","","","No","No","","630 Arch St","Duquesne","15110","PA","USA","40.365833","-79.84568"
"https://www.zillow.com/homedetails/110-Saint-Joseph-Way-Pittsburgh-PA-15203/11475211_zpid/","","","26000","27400","1145","63500","11/04/2022","832","sqft","31.25","5645","sqft","4.61","2","1","","","No","No","","110 Saint Joseph Way","Pittsburgh","15203","PA","USA","40.42407","-79.98609"
"https://www.zillow.com/homedetails/453-Ohio-Ave-Clairton-PA-15025/11576181_zpid/","","","30000","","1050","26900","11/04/2022","1284","sqft","23.36","3227.8","sqft","9.29","3","1","","Long Pham","No","No","","453 Ohio Ave","Clairton","15025","PA","USA","40.310535","-79.8983"
"https://www.zillow.com/homedetails/3614-Grenada-St-Pittsburgh-PA-15212/11603554_zpid/","","","26000","","1025","32300","11/03/2022","1296","sqft","20.06","1751","sqft","14.85","2","1","","","No","No","","3614 Grenada St","Pittsburgh","15212","PA","USA","40.480106","-80.04267"
"https://www.zillow.com/homedetails/30-Goldstrom-Ave-Dravosburg-PA-15034/11426590_zpid/","","","28000","","1234","40000","10/31/2022","1642","sqft","17.05","4399.56","sqft","6.36","3","1","","Libby Sosinski","No","No","","30 Goldstrom Ave","Dravosburg","15034","PA","USA","40.353123","-79.88904"
"https://www.zillow.com/homedetails/5628-Front-St-Verona-PA-15147/11450072_zpid/","","","27500","29000","1417","60800","10/28/2022","1067","sqft","25.77","7501.03","sqft","3.67","3","1","","Georgie Smigel","No","No","","5628 Front St","Verona","15147","PA","USA","40.483612","-79.83653"
"https://www.zillow.com/homedetails/2721-Lafayette-St-McKeesport-PA-15132/11502884_zpid/","","","30000","31700","896","46600","10/27/2022","1050","sqft","28.57","5500","sqft","5.45","2","1","","","No","No","","2721 Lafayette St","McKeesport","15132","PA","USA","40.33295","-79.838844"
"https://www.zillow.com/homedetails/426-Cedar-Dr-Coraopolis-PA-15108/11518310_zpid/","","","25000","","1014","23400","10/27/2022","800","sqft","31.25","2160","sqft","11.57","2","1","","","No","No","","426 Cedar Dr","Coraopolis","15108","PA","USA","40.5229","-80.18428"
"https://www.zillow.com/homedetails/1220-Hollywood-St-Pittsburgh-PA-15205/11480096_zpid/","","","25031","195300","1936","66500","10/26/2022","1910","sqft","13.11","","","","4","2.5","","","No","No","","1220 Hollywood St","Pittsburgh","15205","PA","USA","40.443226","-80.055824"
"https://www.zillow.com/homedetails/333-Washington-St-Mc-Kees-Rocks-PA-15136/11602640_zpid/","","","30000","","999","31000","10/26/2022","1008","sqft","29.76","871.2","sqft","34.44","2","1","","Lori Maffeo","No","No","","333 Washington St","Mc Kees Rocks","15136","PA","USA","40.475582","-80.05565"
"https://www.zillow.com/homedetails/331-Washington-St-Mc-Kees-Rocks-PA-15136/11602641_zpid/","","","30000","101200","1498","31000","10/26/2022","936","sqft","32.05","696.96","sqft","43.04","2","2","","Lori Maffeo","No","No","","331 Washington St","Mc Kees Rocks","15136","PA","USA","40.47556","-80.055695"
"https://www.zillow.com/homedetails/4114-Greensprings-Ave-West-Mifflin-PA-15122/11386381_zpid/","","","30000","31700","1099","36200","10/24/2022","1000","sqft","30","5404","sqft","5.55","2","1","","","No","No","","4114 Greensprings Ave","West Mifflin","15122","PA","USA","40.388397","-79.88145"
"https://www.zillow.com/homedetails/1511-Hope-St-Braddock-PA-15104/11457560_zpid/","","","25905","","1099","16500","10/21/2022","1164","sqft","22.26","5286","sqft","4.9","2","1","","","No","No","","1511 Hope St","Braddock","15104","PA","USA","40.40444","-79.84769"
"https://www.zillow.com/homedetails/362-Beaver-St-Leetsdale-PA-15056/11587247_zpid/","","","25000","","1300","37000","10/21/2022","1920","sqft","13.02","0.34","acres","73529.41","3","1","","Lisa Burrows","No","No","","362 Beaver St","Leetsdale","15056","PA","USA","40.56677","-80.20921"
"https://www.zillow.com/homedetails/527-Fair-Oaks-St-Mc-Kees-Rocks-PA-15136/11594243_zpid/","","","25000","26400","999","32500","10/21/2022","1260","sqft","19.84","4521","sqft","5.53","2","1","","","No","No","","527 Fair Oaks St","Mc Kees Rocks","15136","PA","USA","40.4715","-80.06843"
"https://www.zillow.com/homedetails/Pleasant-View-Dr-Monongahela-PA-15063/164579107_zpid/","","","33000","","1194","52100","10/21/2022","","","","4.54","acres","7268.74","","","","","No","No","","Pleasant View Dr","Monongahela","15063","PA","USA","40.229572","-79.90172"
"https://www.zillow.com/homedetails/Flaugherty-Run-Rd-Coraopolis-PA-15108/164695080_zpid/","","","25000","","1503","3276","10/21/2022","","","","1.88","acres","13298.65","","","","","No","No","","Flaugherty Run Rd","Coraopolis","15108","PA","USA","40.5276","-80.24613"
"https://www.zillow.com/homedetails/339-Larimer-Ave-Turtle-Creek-PA-15145/11495889_zpid/","","","25000","","1114","19700","10/18/2022","1500","sqft","16.67","2000","sqft","12.5","3","1.5","","","No","No","","339 Larimer Ave","Turtle Creek","15145","PA","USA","40.407524","-79.82703"
"https://www.zillow.com/homedetails/3310-Long-Hollow-Rd-Elizabeth-PA-15037/11356315_zpid/","","","30000","31700","886","63400","10/17/2022","1728","sqft","17.36","1.09","acres","27523.17","2","1","","","No","No","","3310 Long Hollow Rd","Elizabeth","15037","PA","USA","40.21944","-79.82337"
"https://www.zillow.com/homedetails/83-Haberman-Ave-Pittsburgh-PA-15211/11517114_zpid/","","","30000","31700","1481","45500","10/17/2022","1389","sqft","21.6","4500","sqft","6.67","3","1","","","No","No","","83 Haberman Ave","Pittsburgh","15211","PA","USA","40.423645","-80.002525"
"https://www.zillow.com/homedetails/1619-Larch-Ave-Turtle-Creek-PA-15145/11535864_zpid/","","","30000","","1249","41600","10/17/2022","1180","sqft","25.42","2500.34","sqft","12","3","2","","Michael Ricciuti","No","No","","1619 Larch Ave","Turtle Creek","15145","PA","USA","40.410034","-79.81512"
"https://www.zillow.com/homedetails/1126-Worthington-Ave-Clairton-PA-15025/11633706_zpid/","","","30000","31700","1390","45300","10/17/2022","999","sqft","30.03","4400","sqft","6.82","3","2","","","No","No","","1126 Worthington Ave","Clairton","15025","PA","USA","40.29252","-79.897354"
"https://www.zillow.com/homedetails/309-Welsh-Ave-Wilmerding-PA-15148/11537098_zpid/","","","28000","29500","1262","42700","10/14/2022","2437","sqft","11.49","7405.2","sqft","3.78","6","1","","Michael Wicker","No","No","","309 Welsh Ave","Wilmerding","15148","PA","USA","40.3908","-79.80677"
"https://www.zillow.com/homedetails/112-Sylvania-Ave-Pittsburgh-PA-15210/11324414_zpid/","","","29600","","1447","29600","10/11/2022","1690","sqft","17.51","2562","sqft","11.55","3","1","","","No","No","","112 Sylvania Ave","Pittsburgh","15210","PA","USA","40.417118","-80.0053"
"https://www.zillow.com/homedetails/938-Oakdale-Ave-Pittsburgh-PA-15234/11356697_zpid/","","","25050","174000","1479","84000","10/11/2022","945","sqft","26.51","7813","sqft","3.21","3","1","","","No","No","","938 Oakdale Ave","Pittsburgh","15234","PA","USA","40.374817","-80.00936"
"https://www.zillow.com/homedetails/56-Peace-Way-Indianola-PA-15051/11593466_zpid/","","","32500","34300","1050","69600","10/11/2022","900","sqft","36.11","4797","sqft","6.78","2","1","","","No","No","","56 Peace Way","Indianola","15051","PA","USA","40.56889","-79.86284"
"https://www.zillow.com/homedetails/646-Doyle-Ave-Homestead-PA-15120/11640442_zpid/","","","32000","33800","1500","28500","10/11/2022","1476","sqft","21.68","4351.64","sqft","7.35","3","2","","Lonnell Becoate","No","No","","646 Doyle Ave","Homestead","15120","PA","USA","40.396915","-79.9224"
"https://www.zillow.com/homedetails/646-203-Aber-Dr-Clairton-PA-15025/2063485398_zpid/","","","32000","","1569","","10/11/2022","","","","","","","","","","","No","No","","646-203 Aber Dr","Clairton","15025","PA","USA","",""
"https://www.zillow.com/homedetails/705-Maryland-Ave-Glassport-PA-15045/11543839_zpid/","","","30929","","883","19700","10/07/2022","748","sqft","41.35","4320","sqft","7.16","2","1","","","No","No","","705 Maryland Ave","Glassport","15045","PA","USA","40.32403","-79.88605"
"https://www.zillow.com/homedetails/62-Pleasant-View-Dr-Monongahela-PA-15063/2064201425_zpid/","","","33000","","1800","","10/07/2022","","","","4.54","acres","7268.74","","","","","No","No","","62?? Pleasant View Dr","Monongahela","15063","PA","USA","",""
"https://www.zillow.com/homedetails/1917-Huron-St-Pittsburgh-PA-15203/11307383_zpid/","","","30000","","1099","38200","10/06/2022","739","sqft","40.6","1999.4","sqft","15","2","1","","Libby Sosinski","No","No","","1917 Huron St","Pittsburgh","15203","PA","USA","40.422855","-79.98023"
"https://www.zillow.com/homedetails/230-Wilbur-St-Pittsburgh-PA-15210/11437014_zpid/","","","27343","28900","1394","36500","10/06/2022","1188","sqft","23.02","3000","sqft","9.11","3","1","","","No","No","","230 Wilbur St","Pittsburgh","15210","PA","USA","40.407738","-79.99384"
"https://www.zillow.com/homedetails/116-N-Pacific-Ave-Pittsburgh-PA-15224/11520265_zpid/","","","26087","","1500","49300","10/06/2022","1456","sqft","17.92","976","sqft","26.73","2","1","","","No","No","","116 N Pacific Ave","Pittsburgh","15224","PA","USA","40.46515","-79.93973"
"https://www.zillow.com/homedetails/1745-Morningside-Ave-Pittsburgh-PA-15206/11278377_zpid/","","","30000","242600","1700","60700","10/03/2022","1392","sqft","21.55","6000","sqft","5","3","2","","","No","No","","1745 Morningside Ave","Pittsburgh","15206","PA","USA","40.48643","-79.92765"
"https://www.zillow.com/homedetails/144-Pennsylvania-Ave-Clairton-PA-15025/11576367_zpid/","","","32000","86800","1078","36200","10/03/2022","740","sqft","43.24","4720","sqft","6.78","3","1","","","No","No","","144 Pennsylvania Ave","Clairton","15025","PA","USA","40.309883","-79.89307"
"https://www.zillow.com/homedetails/7216-Lemington-Ave-Pittsburgh-PA-15206/11338107_zpid/","","","25000","","1525","29000","09/30/2022","1562","sqft","16.01","5501","sqft","4.54","4","1.5","","","No","No","","7216 Lemington Ave","Pittsburgh","15206","PA","USA","40.466774","-79.89306"
"https://www.zillow.com/homedetails/1008-Lowery-Ave-Duquesne-PA-15110/11423853_zpid/","","","30000","31700","1200","24000","09/29/2022","1184","sqft","25.34","2308.68","sqft","12.99","3","2","","Christina Anderson","No","No","","1008 Lowery Ave","Duquesne","15110","PA","USA","40.36911","-79.85343"
"https://www.zillow.com/homedetails/901-Delaware-Ave-Glassport-PA-15045/11544000_zpid/","","","25000","26400","1400","39900","09/29/2022","1937","sqft","12.91","3360","sqft","7.44","3","2","","","No","No","","901 Delaware Ave","Glassport","15045","PA","USA","40.321026","-79.88697"
"https://www.zillow.com/homedetails/1709-Leechburg-Rd-Pittsburgh-PA-15235/11567707_zpid/","","","30000","31700","1464","66700","09/28/2022","1915","sqft","15.67","8000","sqft","3.75","3","1.5","","","No","No","","1709 Leechburg Rd","Pittsburgh","15235","PA","USA","40.492313","-79.79245"
"https://www.zillow.com/homedetails/117-E-Undercliff-St-Pittsburgh-PA-15223/11410811_zpid/","","","27000","","898","66400","09/27/2022","528","sqft","51.14","6000","sqft","4.5","1","1","","","No","No","","117 E Undercliff St","Pittsburgh","15223","PA","USA","40.51626","-79.95756"
"https://www.zillow.com/homedetails/1913-Jenny-Lind-St-McKeesport-PA-15132/11464979_zpid/","","","30000","31700","1099","13000","09/27/2022","","","","0.3","acres","100000","2","2","","Janell Walker","No","No","","1913 Jenny Lind St","McKeesport","15132","PA","USA","40.339687","-79.85307"
"https://www.zillow.com/homedetails/313-Gardner-St-Mc-Kees-Rocks-PA-15136/11602914_zpid/","","","29000","","1461","29300","09/27/2022","1774","sqft","16.35","2313","sqft","12.54","3","1.5","","","No","No","","313 Gardner St","Mc Kees Rocks","15136","PA","USA","40.474472","-80.05389"
"https://www.zillow.com/homedetails/2705-Lincoln-Ave-Clairton-PA-15025/59838290_zpid/","","","25610","","1090","11400","09/27/2022","1026","sqft","24.96","2850","sqft","8.99","3","1","","","No","No","","2705 Lincoln Ave","Clairton","15025","PA","USA","40.28935","-79.89572"
"https://www.zillow.com/homedetails/476-Cedar-Dr-Coraopolis-PA-15108/11518291_zpid/","","","25000","218800","1752","20000","09/22/2022","1026","sqft","24.37","0.59","acres","42421.41","4","2.5","","","No","No","","476 Cedar Dr","Coraopolis","15108","PA","USA","40.523277","-80.18687"
"https://www.zillow.com/homedetails/219-Rochelle-St-Pittsburgh-PA-15210/11316842_zpid/","","","29900","","1392","27200","09/19/2022","1320","sqft","22.65","2500","sqft","11.96","4","1","","","No","No","","219 Rochelle St","Pittsburgh","15210","PA","USA","40.415287","-79.99158"
"https://www.zillow.com/homedetails/889-Hamilton-Ave-Monroeville-PA-15146/11572251_zpid/","","","30000","31600","1194","53700","09/19/2022","863","sqft","34.76","0.46","acres","65359.61","2","1","","","No","No","","889 Hamilton Ave","Monroeville","15146","PA","USA","40.408985","-79.79955"
"https://www.zillow.com/homedetails/0-Leechburg-Rd-New-Kensington-PA-15068/2072701965_zpid/","","","27500","","1103","","09/19/2022","","","","","","","","","","","No","No","","0 Leechburg Rd","New Kensington","15068","PA","USA","",""
"https://www.zillow.com/homedetails/1140-Taggart-St-Mc-Kees-Rocks-PA-15136/11595299_zpid/","","","32495","34300","950","22000","09/16/2022","","","","871.2","sqft","37.3","2","1","","Lindsey Kingston","No","No","","1140 Taggart St","Mc Kees Rocks","15136","PA","USA","40.463608","-80.06977"
"https://www.zillow.com/homedetails/1320-Ravine-St-Homestead-PA-15120/11347770_zpid/","","","30000","31600","1364","41700","09/15/2022","1584","sqft","18.94","","","","3","2","","Kimberly Evans","No","No","","1320 Ravine St","Homestead","15120","PA","USA","40.398396","-79.89692"
"https://www.zillow.com/homedetails/300-W-10th-Ave-Tarentum-PA-15084/11279601_zpid/","","","30000","31600","1200","44300","09/14/2022","1350","sqft","22.22","5364","sqft","5.59","3","1","","","No","No","","300 W 10th Ave","Tarentum","15084","PA","USA","40.601414","-79.76477"
"https://www.zillow.com/homedetails/326-Hammond-St-Pittsburgh-PA-15204/11371259_zpid/","","","30000","31600","1250","18500","09/14/2022","1148","sqft","26.13","1115.14","sqft","26.9","3","1","","Kathryn Pfister","No","No","","326 Hammond St","Pittsburgh","15204","PA","USA","40.456367","-80.049286"
"https://www.zillow.com/homedetails/2621-Grandview-Ave-McKeesport-PA-15132/11502582_zpid/","","","33000","139700","1063","46900","09/14/2022","1411","sqft","23.39","2500.34","sqft","13.2","3","1","","Jason Mazzei","No","No","","2621 Grandview Ave","McKeesport","15132","PA","USA","40.334526","-79.834724"
"https://www.zillow.com/homedetails/4717-2nd-St-McKeesport-PA-15132/11542496_zpid/","","","28600","30200","1099","28600","09/14/2022","1376","sqft","20.78","4700","sqft","6.09","3","1","","","No","No","","4717 2nd St","McKeesport","15132","PA","USA","40.316853","-79.83524"
"https://www.zillow.com/homedetails/3150-Frederick-St-Pittsburgh-PA-15212/11605947_zpid/","","","32500","34400","1025","20300","09/12/2022","1050","sqft","30.95","2177","sqft","14.93","2","1","","","No","No","","3150 Frederick St","Pittsburgh","15212","PA","USA","40.475098","-80.03114"
"https://www.zillow.com/homedetails/322-E-17th-Ave-Homestead-PA-15120/11293289_zpid/","","","28000","","963","15300","09/08/2022","716","sqft","39.11","3300","sqft","8.48","1","1","","","No","No","","322 E 17th Ave","Homestead","15120","PA","USA","40.402763","-79.901184"
"https://www.zillow.com/homedetails/1700-Murdough-St-Braddock-PA-15104/11458380_zpid/","","","30000","31600","1214","28100","09/07/2022","1260","sqft","23.81","2500","sqft","12","3","1","","","No","No","","1700 Murdough St","Braddock","15104","PA","USA","40.39864","-79.84236"
"https://www.zillow.com/homedetails/2903-Stewart-St-McKeesport-PA-15132/11462530_zpid/","","","25000","","890","11100","09/07/2022","928","sqft","26.94","3456","sqft","7.23","2","1","","","No","No","","2903 Stewart St","McKeesport","15132","PA","USA","40.343098","-79.84302"
"https://www.zillow.com/homedetails/2440-Dewey-St-Homestead-PA-15120/11348394_zpid/","","","25000","26400","1099","49900","09/06/2022","1152","sqft","21.7","3519.65","sqft","7.1","2","1","","Jennifer Faure","No","No","","2440 Dewey St","Homestead","15120","PA","USA","40.39331","-79.89927"
"https://www.zillow.com/homedetails/913-Vankirk-St-Clairton-PA-15025/11250496_zpid/","","","29359","30900","854","18700","09/02/2022","939","sqft","31.27","2750","sqft","10.68","2","1","","","No","No","","913 Vankirk St","Clairton","15025","PA","USA","40.28398","-79.88378"
"https://www.zillow.com/homedetails/510-3rd-St-West-Elizabeth-PA-15088/11266450_zpid/","","","32000","33700","863","37000","09/02/2022","832","sqft","38.46","2221.56","sqft","14.4","1","1","","Kerrie Constantini","No","No","","510 3rd St","West Elizabeth","15088","PA","USA","40.273567","-79.89429"
"https://www.zillow.com/homedetails/1957-Straubs-Ln-Pittsburgh-PA-15212/11512133_zpid/","","","30300","108400","1650","26900","09/02/2022","1420","sqft","21.34","1219.68","sqft","24.84","3","2","","","No","No","","1957 Straubs Ln","Pittsburgh","15212","PA","USA","40.46768","-79.98103"
"https://www.zillow.com/homedetails/916-Fairdale-St-Pittsburgh-PA-15204/11482939_zpid/","","","31800","33600","1272","28600","08/26/2022","1344","sqft","23.66","3249.58","sqft","9.79","3","1","","Libby Sosinski","No","No","","916 Fairdale St","Pittsburgh","15204","PA","USA","40.45575","-80.061066"
"https://www.zillow.com/homedetails/500-Bayard-St-Elizabeth-PA-15037/11266761_zpid/","","","29000","30500","880","43000","08/25/2022","793","sqft","36.57","7200.47","sqft","4.03","2","1","","Neal Dunn","No","No","","500 Bayard St","Elizabeth","15037","PA","USA","40.269684","-79.888084"
"https://www.zillow.com/homedetails/407-Lorenz-Ave-Pittsburgh-PA-15220/11366700_zpid/","","","27000","122500","1150","35500","08/24/2022","1250","sqft","21.6","2500","sqft","10.8","3","1","","","No","No","","407 Lorenz Ave","Pittsburgh","15220","PA","USA","40.4461","-80.037"
"https://www.zillow.com/homedetails/615-E-19th-Ave-Homestead-PA-15120/11293430_zpid/","","","30000","31600","1235","19200","08/22/2022","1167","sqft","25.71","1840","sqft","16.3","3","1","","","No","No","","615 E 19th Ave","Homestead","15120","PA","USA","40.401714","-79.90001"
"https://www.zillow.com/homedetails/1445-Montier-St-Pittsburgh-PA-15221/11379170_zpid/","","","30000","31600","1395","13100","08/22/2022","1440","sqft","20.83","1393.92","sqft","21.52","3","2","","Dustin Nulf","No","No","","1445 Montier St","Pittsburgh","15221","PA","USA","40.44543","-79.87401"
"https://www.zillow.com/homedetails/6906-Kedron-St-Pittsburgh-PA-15208/11285804_zpid/","","","25000","26300","1097","18600","08/19/2022","960","sqft","26.04","2156.22","sqft","11.59","2","1","","Michael Gonze","No","No","","6906 Kedron St","Pittsburgh","15208","PA","USA","40.462025","-79.90107"
"https://www.zillow.com/homedetails/103-3rd-St-Coulters-PA-15028/11632299_zpid/","","","25000","26300","907","38100","08/17/2022","960","sqft","26.04","0.32","acres","78520.44","2","1","","","No","No","","103 3rd St","Coulters","15028","PA","USA","40.29641","-79.80113"
"https://www.zillow.com/homedetails/1047-Woods-Run-Ave-Pittsburgh-PA-15212/11605881_zpid/","","","25042","","1264","31900","08/16/2022","1320","sqft","18.97","3049","sqft","8.21","2","1","","","No","No","","1047 Woods Run Ave","Pittsburgh","15212","PA","USA","40.477917","-80.02811"
"https://www.zillow.com/homedetails/1112-Blackadore-St-Pittsburgh-PA-15221/11339683_zpid/","","","25000","","1800","29500","08/15/2022","1878","sqft","13.31","8712","sqft","2.87","5","2","","","No","No","","1112 Blackadore St","Pittsburgh","15221","PA","USA","40.45982","-79.88335"
"https://www.zillow.com/homedetails/1204-Sutherland-St-Pittsburgh-PA-15204/11483401_zpid/","","","25277","","1229","16100","08/15/2022","1026","sqft","24.64","3001.28","sqft","8.42","2","1","","","No","No","","1204 Sutherland St","Pittsburgh","15204","PA","USA","40.453835","-80.06278"
"https://www.zillow.com/homedetails/4804-3rd-St-McKeesport-PA-15132/164473434_zpid/","","","32000","33800","850","18800","08/12/2022","","","","4791.6","sqft","6.68","","","","Devie Rollison","No","No","","4804 3rd St","McKeesport","15132","PA","USA","40.316494","-79.83441"
"https://www.zillow.com/homedetails/663-Calera-St-Pittsburgh-PA-15207/11299942_zpid/","","","32000","","1394","64500","08/11/2022","1686","sqft","18.98","2613.6","sqft","12.24","3","1","","Kathy Armstrong","No","No","","663 Calera St","Pittsburgh","15207","PA","USA","40.3806","-79.93388"
"https://www.zillow.com/homedetails/1417-Hays-St-Homestead-PA-15120/11293555_zpid/","","","32000","33800","1167","18000","08/05/2022","","","","1540","sqft","20.78","2","1","","Roman Ivanov","No","No","","1417 Hays St","Homestead","15120","PA","USA","40.400787","-79.90859"
"https://www.zillow.com/homedetails/5127-Langhorn-St-Pittsburgh-PA-15207/11550702_zpid/","","","26000","27300","1550","12000","08/05/2022","1084","sqft","23.99","1520","sqft","17.11","4","2","","","No","No","","5127 Langhorn St","Pittsburgh","15207","PA","USA","40.405563","-79.947296"
"https://www.zillow.com/homedetails/313-Tabor-St-Pittsburgh-PA-15204/11482324_zpid/","","","30000","","1393","54600","08/04/2022","2705","sqft","11.09","5279.47","sqft","5.68","4","2","","Ryan Shedlock","No","No","","313 Tabor St","Pittsburgh","15204","PA","USA","40.461693","-80.05437"
"https://www.zillow.com/homedetails/521-Vermont-Ave-Glassport-PA-15045/11504748_zpid/","","","27000","","900","24900","08/04/2022","1122","sqft","24.06","3000","sqft","9","2","1","","","No","No","","521 Vermont Ave","Glassport","15045","PA","USA","40.326874","-79.889275"
"https://www.zillow.com/homedetails/133-W-15th-Ave-Homestead-PA-15120/11293560_zpid/","","","32185","","1235","20500","08/03/2022","1240","sqft","25.96","3842","sqft","8.38","2","1","","","No","No","","133 W 15th Ave","Homestead","15120","PA","USA","40.40121","-79.90807"
"https://www.zillow.com/homedetails/1512-Saxonburg-Rd-Natrona-Heights-PA-15065/11351135_zpid/","","","32500","34300","900","38400","08/03/2022","725","sqft","44.83","7500","sqft","4.33","2","1","","","No","No","","1512 Saxonburg Rd","Natrona Heights","15065","PA","USA","40.642395","-79.71644"
"https://www.zillow.com/homedetails/338-Church-Ave-Pittsburgh-PA-15210/11434986_zpid/","","","25000","","1057","26300","08/03/2022","704","sqft","35.51","3462","sqft","7.22","2","1","","","No","No","","338 Church Ave","Pittsburgh","15210","PA","USA","40.41182","-79.98239"
"https://www.zillow.com/homedetails/107-Wall-St-Wilmerding-PA-15148/11536903_zpid/","","","32500","34300","1200","42700","07/29/2022","1803","sqft","18.03","3637.26","sqft","8.94","3","2","","Daniel O'Toole","No","No","","107 Wall St","Wilmerding","15148","PA","USA","40.392532","-79.80504"
"https://www.zillow.com/homedetails/434-4341-2-Ways-Pittsburgh-PA-15210/2064185320_zpid/","","","25000","","1414","","07/29/2022","","","","2178","sqft","11.48","2","1","","James Sproat","No","No","","434 434&1/2 Ways","Pittsburgh","15210","PA","USA","",""
"https://www.zillow.com/homedetails/212-Summit-Dr-Pittsburgh-PA-15238/11414542_zpid/","","","25000","274300","1685","127800","07/28/2022","1591","sqft","15.71","8280","sqft","3.02","3","1.5","","","No","No","","212 Summit Dr","Pittsburgh","15238","PA","USA","40.4954","-79.86444"
"https://www.zillow.com/homedetails/3215-Allendale-St-Pittsburgh-PA-15204/11482965_zpid/","","","30000","","1028","33800","07/28/2022","1506","sqft","19.92","4181","sqft","7.18","2","1","","","No","No","","3215 Allendale St","Pittsburgh","15204","PA","USA","40.455727","-80.061676"
"https://www.zillow.com/homedetails/747-Dunmore-St-Pittsburgh-PA-15206/11282868_zpid/","","","31000","","1494","55500","07/26/2022","925","sqft","33.51","0.45","acres","68327.09","3","1","","Dana Rowell","No","No","","747 Dunmore St","Pittsburgh","15206","PA","USA","40.472767","-79.90159"
"https://www.zillow.com/homedetails/15-5th-St-Pittsburgh-PA-15215/11333657_zpid/","","","32500","","1650","35300","07/22/2022","1900","sqft","17.11","1600","sqft","20.31","3","1.5","","","No","No","","15 5th St","Pittsburgh","15215","PA","USA","40.494625","-79.907074"
"https://www.zillow.com/homedetails/37-Auriles-St-Duquesne-PA-15110/11423589_zpid/","","","32000","","1200","32500","07/22/2022","1420","sqft","22.54","1646","sqft","19.44","3","1","","","No","No","","37 Auriles St","Duquesne","15110","PA","USA","40.370598","-79.85258"
"https://www.zillow.com/homedetails/75-Sycamore-St-Natrona-Heights-PA-15065/164564617_zpid/","","","27675","","1282","22500","07/22/2022","2494","sqft","11.1","4800","sqft","5.77","3","2","","","No","No","","75 Sycamore St","Natrona Heights","15065","PA","USA","40.61148","-79.72596"
"https://www.zillow.com/homedetails/1019-Orchard-Ct-Duquesne-PA-15110/11459856_zpid/","","","26000","","981","25900","07/14/2022","880","sqft","29.55","4188","sqft","6.21","2","1","","","No","No","","1019 Orchard Ct","Duquesne","15110","PA","USA","40.36179","-79.844826"
"https://www.zillow.com/homedetails/2625-Washington-Blvd-Glassport-PA-15045/11543187_zpid/","","","32500","34200","769","24500","07/13/2022","","","","0.48","acres","67991.63","1","1","","Richard Charles","No","No","","2625 Washington Blvd","Glassport","15045","PA","USA","40.32363","-79.87597"
"https://www.zillow.com/homedetails/11-Valley-St-Crafton-PA-15205/11475364_zpid/","","","32000","243400","1625","115000","07/12/2022","1087","sqft","29.44","0.34","acres","94117.65","3","2","","","No","No","","11 Valley St","Crafton","15205","PA","USA","40.44177","-80.06483"
"https://www.zillow.com/homedetails/412-Penn-St-Verona-PA-15147/11449034_zpid/","","","32000","33700","1350","20900","07/08/2022","1284","sqft","24.92","2500","sqft","12.8","3","1","","","No","No","","412 Penn St","Verona","15147","PA","USA","40.501175","-79.84651"
"https://www.zillow.com/homedetails/546-Maple-St-East-Pittsburgh-PA-15112/11458417_zpid/","","","30000","71300","941","17400","07/08/2022","884","sqft","33.94","1598.65","sqft","18.77","2","1","","Judy Pribanic","No","No","","546 Maple St","East Pittsburgh","15112","PA","USA","40.39775","-79.83911"
"https://www.zillow.com/homedetails/1910-Baldwin-Ave-McKeesport-PA-15132/11425832_zpid/","","","30000","31500","850","32000","07/07/2022","1530","sqft","19.61","3000","sqft","10","2","1","","","No","No","","1910 Baldwin Ave","McKeesport","15132","PA","USA","40.347095","-79.85176"
"https://www.zillow.com/homedetails/741-Singer-Pl-Pittsburgh-PA-15221/11377947_zpid/","","","32074","33800","1425","27100","07/05/2022","720","sqft","44.55","6892","sqft","4.65","3","1","","","No","No","","741 Singer Pl","Pittsburgh","15221","PA","USA","40.453503","-79.88271"
"https://www.zillow.com/homedetails/706-Maytide-St-Pittsburgh-PA-15227/11305638_zpid/","","","29000","30400","995","52700","06/30/2022","874","sqft","33.18","2875","sqft","10.09","2","1","","","No","No","","706 Maytide St","Pittsburgh","15227","PA","USA","40.384235","-79.99171"
"https://www.zillow.com/homedetails/508-Spruce-Aly-Glassport-PA-15045/11504616_zpid/","","","33000","","1185","35900","06/29/2022","1116","sqft","29.57","9000","sqft","3.67","3","1","","","No","No","","508 Spruce Aly","Glassport","15045","PA","USA","40.32723","-79.887665"
"https://www.zillow.com/homedetails/3220-McClure-Ave-Pittsburgh-PA-15212/11604272_zpid/","","","25000","26200","1025","23900","06/28/2022","1020","sqft","24.51","1408","sqft","17.76","2","1","","","No","No","","3220 McClure Ave","Pittsburgh","15212","PA","USA","40.474724","-80.03476"
"https://www.zillow.com/homedetails/228-Nobles-Ln-Pittsburgh-PA-15210/11556097_zpid/","","","30000","31400","1394","34200","06/22/2022","1080","sqft","27.78","3267","sqft","9.18","3","1","","John Lanatovick","No","No","","228 Nobles Ln","Pittsburgh","15210","PA","USA","40.402607","-79.9952"
