Property URL,MLS ID,Number of days on Zillow,Property price (USD),Zestimate (USD),Rent zestimate (USD per month),Tax assessed value (USD),Sold date (MM/DD/YYYY),Living area,Living area unit,Price per living area unit (USD),Lot/land area,Lot/land area unit,Price per lot/land area unit (USD),Bedrooms,Bathrooms,Broker name,Broker agent,Is owner occupied,Property owned by Zillow,Property unit number,Street address,City,Zip,State,Country,Latitude,Longitude
"https://www.zillow.com/homedetails/6688-Kinsman-Rd-Pittsburgh-PA-15217/11288344_zpid/","","","780000","816800","4956","576800","10/16/2023","","","","4800.31","sqft","162.49","4","3","","Elizabeth Kofmehl","No","No","","6688 Kinsman Rd","Pittsburgh","15217","PA","USA","40.44523","-79.91239"
"https://www.zillow.com/homedetails/8002-Bayard-Ct-Pittsburgh-PA-15237/11559807_zpid/","","","850000","850000","5109","497100","10/16/2023","3320","sqft","256.02","0.52","acres","1634615.38","4","5","","Dan Kite","No","No","","8002 Bayard Ct","Pittsburgh","15237","PA","USA","40.55676","-79.99679"
"https://www.zillow.com/homedetails/1039-Colony-Dr-Pittsburgh-PA-15205/306759978_zpid/","","","800000","","1676","1300","10/16/2023","","","","0.25","acres","3200000","3","3","","Danielle Mach","No","No","","1039 Colony Dr","Pittsburgh","15205","PA","USA","40.429142","-80.14815"
"https://www.zillow.com/homedetails/311-Scarlet-Cir-Wexford-PA-15090/59853314_zpid/","","","775000","775000","4653","410000","10/13/2023","3174","sqft","244.17","0.27","acres","2847171.2","4","5","","Kim Marie Angiulli","No","No","","311 Scarlet Cir","Wexford","15090","PA","USA","40.655384","-80.0588"
"https://www.zillow.com/homedetails/808-Maryland-Ave-Pittsburgh-PA-15232/11628661_zpid/","","","899000","899000","4627","356700","10/11/2023","3300","sqft","272.42","4748.04","sqft","189.34","3","3","","Molly Howard","No","No","","808 Maryland Ave","Pittsburgh","15232","PA","USA","40.452145","-79.92875"
"https://www.zillow.com/homedetails/19-Rosemont-Ln-Pittsburgh-PA-15217/11290009_zpid/","","","768000","768000","4545","525000","10/06/2023","2522","sqft","304.52","5959.01","sqft","128.88","4","4","","Vicky Chang","No","No","","19 Rosemont Ln","Pittsburgh","15217","PA","USA","40.422207","-79.916115"
"https://www.zillow.com/homedetails/4357-Schenley-Farms-Ter-Pittsburgh-PA-15213/11407326_zpid/","","","829000","829000","4951","180400","10/06/2023","3478","sqft","238.36","8219.77","sqft","100.85","6","4","","Rebekah Siegel","No","No","","4357 Schenley Farms Ter","Pittsburgh","15213","PA","USA","40.450535","-79.95618"
"https://www.zillow.com/homedetails/11-Teal-Dr-Pittsburgh-PA-15238/11561743_zpid/","","","795000","795000","4968","405000","10/06/2023","3797","sqft","209.38","1.17","acres","680068.43","4","4","","Molly Finley","No","No","","11 Teal Dr","Pittsburgh","15238","PA","USA","40.552383","-79.90799"
"https://www.zillow.com/homedetails/213-Tennyson-Ave-Pittsburgh-PA-15213/11407921_zpid/","","","770000","770000","4531","463400","10/05/2023","3238","sqft","237.8","7200.47","sqft","106.94","5","4","","Julie Treemarchi","No","No","","213 Tennyson Ave","Pittsburgh","15213","PA","USA","40.447727","-79.95625"
"https://www.zillow.com/homedetails/204-Virginia-Manor-Dr-Pittsburgh-PA-15215/11373709_zpid/","","","780000","780000","4779","445700","10/04/2023","3206","sqft","243.29","0.48","acres","1623985.01","4","4","","Amy Marks","No","No","","204 Virginia Manor Dr","Pittsburgh","15215","PA","USA","40.510887","-79.92946"
"https://www.zillow.com/homedetails/317-Church-Ln-Sewickley-PA-15143/11555132_zpid/","","","800000","800000","4939","500000","10/02/2023","3360","sqft","238.1","0.59","acres","1353179.97","4","3","","Daniel Demers","No","No","","317 Church Ln","Sewickley","15143","PA","USA","40.555515","-80.19885"
"https://www.zillow.com/homedetails/5922-Elwood-St-Pittsburgh-PA-15232/11625504_zpid/","","","785000","785000","4725","367400","10/02/2023","2373","sqft","330.8","2178","sqft","360.42","5","3","","Molly Howard","No","No","","5922 Elwood St","Pittsburgh","15232","PA","USA","40.454273","-79.926605"
"https://www.zillow.com/homedetails/4352-Centre-Ave-Pittsburgh-PA-15213/11407563_zpid/","","","890000","890000","5727","400000","09/29/2023","4106","sqft","216.76","0.25","acres","3528945.28","6","4","","Elizabeth Bond","No","No","","4352 Centre Ave","Pittsburgh","15213","PA","USA","40.44994","-79.95595"
"https://www.zillow.com/homedetails/503-Buttermilk-Ln-Bradfordwoods-PA-15015/59842367_zpid/","","","765000","765000","4657","426200","09/27/2023","3205","sqft","238.69","1.18","acres","648305.08","4","5","","Deborah Cochran","No","No","","503 Buttermilk Ln","Bradfordwoods","15015","PA","USA","40.635914","-80.07866"
"https://www.zillow.com/homedetails/201-Parks-Rd-Mc-Donald-PA-15057/2079802738_zpid/","","","830000","829900","5006","","09/26/2023","","","","","","","1","","","","No","No","","201 Parks Rd","Mc Donald","15057","PA","USA","40.339165","-80.17228"
"https://www.zillow.com/homedetails/403-Orchard-St-Sewickley-PA-15143/11481033_zpid/","","","810000","810000","4929","302700","09/22/2023","","","","5749.92","sqft","140.87","4","4","","Nicole Kriebel","No","No","","403 Orchard St","Sewickley","15143","PA","USA","40.531097","-80.17216"
"https://www.zillow.com/homedetails/4136-Duckhorn-Dr-Coraopolis-PA-15108/116179302_zpid/","","","860000","860000","5186","653800","09/21/2023","4556","sqft","188.76","0.35","acres","2471264.37","4","5","","Robin Ross","No","No","","4136 Duckhorn Dr","Coraopolis","15108","PA","USA","40.476723","-80.16194"
"https://www.zillow.com/homedetails/265-Orchard-Dr-Pittsburgh-PA-15228/11358635_zpid/","","","890000","889900","5367","394600","09/18/2023","","","","10062.36","sqft","88.45","5","5","","Vera Purcell","No","No","","265 Orchard Dr","Pittsburgh","15228","PA","USA","40.371998","-80.044106"
"https://www.zillow.com/homedetails/919-Valleyview-Rd-Pittsburgh-PA-15243/11253053_zpid/","","","827505","827400","4991","425800","09/15/2023","","","","0.46","acres","1798923.91","3","3","","Michele Belice","No","No","","919 Valleyview Rd","Pittsburgh","15243","PA","USA","40.386856","-80.06956"
"https://www.zillow.com/homedetails/215-Meadow-Ln-Sewickley-PA-15143/11518680_zpid/","","","792500","792200","4779","327300","09/15/2023","3414","sqft","232.13","0.28","acres","2794428.77","5","4","","Liz Fecko","No","No","","215 Meadow Ln","Sewickley","15143","PA","USA","40.548264","-80.191925"
"https://www.zillow.com/homedetails/5654-Callowhill-St-Pittsburgh-PA-15206/11619913_zpid/","","","789000","768600","4758","242800","09/15/2023","3262","sqft","241.88","5279.47","sqft","149.45","5","2","","Colleen Anthony","No","No","","5654 Callowhill St","Pittsburgh","15206","PA","USA","40.477875","-79.92121"
"https://www.zillow.com/homedetails/2026-Condor-Ln-Gibsonia-PA-15044/64540818_zpid/","","","900000","899900","5427","748800","09/15/2023","4300","sqft","209.3","0.8","acres","1125000","4","4","","Dustin Hook","No","No","","2026 Condor Ln","Gibsonia","15044","PA","USA","40.667923","-80.01655"
"https://www.zillow.com/homedetails/119-Redbud-Ct-Gibsonia-PA-15044/119347227_zpid/","","","815000","814800","4867","545900","09/15/2023","3821","sqft","213.29","0.53","acres","1526217.23","4","4","","Rebekah Samples","No","No","","119 Redbud Ct","Gibsonia","15044","PA","USA","40.647762","-80.02497"
"https://www.zillow.com/homedetails/5001-Parkside-Dr-Oakdale-PA-15071/300249018_zpid/","","","770000","769800","4643","572600","09/15/2023","4272","sqft","180.24","0.3","acres","2535396.77","4","6","","Jennifer Crouse","No","No","","5001 Parkside Dr","Oakdale","15071","PA","USA","40.394352","-80.16377"
"https://www.zillow.com/homedetails/4724-Hatfield-St-Pittsburgh-PA-15201/11613099_zpid/","","","807000","807000","4867","616300","09/12/2023","2700","sqft","298.89","2178","sqft","370.52","3","3","","Isaiah Burson","No","No","","4724 Hatfield St","Pittsburgh","15201","PA","USA","40.476025","-79.95921"
"https://www.zillow.com/homedetails/1651-Blackburn-Heights-Dr-Sewickley-PA-15143/164696590_zpid/","","","825000","824800","4976","511100","08/31/2023","4160","sqft","198.32","0.45","acres","1833333.33","5","4","","Molly Howard","No","No","","1651 Blackburn Heights Dr","Sewickley","15143","PA","USA","40.572968","-80.11068"
"https://www.zillow.com/homedetails/710-S-Linden-Ave-Pittsburgh-PA-15208/11629620_zpid/","","","775000","774900","4690","313600","08/30/2023","2722","sqft","284.72","3001.28","sqft","258.22","5","4","","William Jacoby","No","No","","710 S Linden Ave","Pittsburgh","15208","PA","USA","40.446396","-79.91639"
"https://www.zillow.com/homedetails/1411-Chadworth-Ct-Pittsburgh-PA-15237/249412485_zpid/","","","831503","831300","5015","563700","08/30/2023","5046","sqft","164.78","0.55","acres","1525133.9","5","5","","Jill Stehnach","No","No","","1411 Chadworth Ct","Pittsburgh","15237","PA","USA","40.553127","-80.06916"
"https://www.zillow.com/homedetails/1513-Windsor-Ct-Pittsburgh-PA-15241/11434048_zpid/","","","884500","884700","5335","471100","08/28/2023","","","","0.3","acres","2952400","5","6","","Michele Belice","No","No","","1513 Windsor Ct","Pittsburgh","15241","PA","USA","40.348785","-80.08527"
"https://www.zillow.com/homedetails/159-Wray-Large-Rd-Clairton-PA-15025/11576846_zpid/","","","837500","837300","5051","280000","08/28/2023","9534","sqft","87.84","2.28","acres","367808.52","5","4","","Maria Werner","No","No","","159 Wray Large Rd","Clairton","15025","PA","USA","40.312584","-79.923195"
"https://www.zillow.com/homedetails/7022-Bennington-Woods-Dr-Pittsburgh-PA-15237/11559816_zpid/","","","800000","800200","4826","412900","08/25/2023","4480","sqft","178.57","0.29","acres","2787456.45","4","5","","Gina Cuccaro","No","No","","7022 Bennington Woods Dr","Pittsburgh","15237","PA","USA","40.555275","-79.99884"
"https://www.zillow.com/homedetails/818-Mount-Pleasant-Rd-Mars-PA-16046/92379256_zpid/","","","800000","800200","4826","556700","08/24/2023","","","","1.16","acres","690250.22","5","5","","Gia Albanowski","No","No","","818 Mount Pleasant Rd","Mars","16046","PA","USA","40.67356","-80.065994"
"https://www.zillow.com/homedetails/2016-Blairmont-Dr-Pittsburgh-PA-15241/11472399_zpid/","","","832500","832500","5023","412100","08/21/2023","3307","sqft","251.74","0.53","acres","1566911.35","4","5","","Matthew Swab","No","No","","2016 Blairmont Dr","Pittsburgh","15241","PA","USA","40.3427","-80.06835"
"https://www.zillow.com/homedetails/10495-Olde-Villa-Dr-Gibsonia-PA-15044/11274941_zpid/","","","797500","797500","4811","490000","08/18/2023","4244","sqft","187.91","0.33","acres","2416666.67","4","5","","Christine Caropresi","No","No","","10495 Olde Villa Dr","Gibsonia","15044","PA","USA","40.60794","-79.99648"
"https://www.zillow.com/homedetails/234-Warwick-Dr-Pittsburgh-PA-15241/11433632_zpid/","","","860000","860000","5188","437400","08/17/2023","","","","1.73","acres","495963.09","5","4","","Julie Welter","No","No","","234 Warwick Dr","Pittsburgh","15241","PA","USA","40.347553","-80.074524"
"https://www.zillow.com/homedetails/3143-Scenic-Ct-Allison-Park-PA-15101/11621441_zpid/","","","875000","875000","5279","606600","08/17/2023","3692","sqft","237","0.55","acres","1585432.14","4","5","","Eileen Lusk","No","No","","3143 Scenic Ct","Allison Park","15101","PA","USA","40.577488","-79.93446"
"https://www.zillow.com/homedetails/2521-Morton-Rd-Pittsburgh-PA-15241/11551314_zpid/","","","800000","800800","4827","411100","08/15/2023","4103","sqft","194.98","1.4","acres","572205.14","4","5","","Mary Ketchum","No","No","","2521 Morton Rd","Pittsburgh","15241","PA","USA","40.323486","-80.097435"
"https://www.zillow.com/homedetails/788-Flint-Ridge-Rd-Pittsburgh-PA-15243/11314094_zpid/","","","850000","849800","4898","523800","08/11/2023","3214","sqft","264.47","0.45","acres","1883412.18","4","5","","","No","No","","788 Flint Ridge Rd","Pittsburgh","15243","PA","USA","40.381954","-80.067085"
"https://www.zillow.com/homedetails/604-Chilliwack-Ln-Mars-PA-16046/164305625_zpid/","","","855000","855900","5159","480400","08/11/2023","","","","10454.4","sqft","81.78","4","4","","Madhu Duggal","No","No","","604 Chilliwack Ln","Mars","16046","PA","USA","40.666653","-80.0911"
"https://www.zillow.com/homedetails/5474-Fair-Oaks-St-Pittsburgh-PA-15217/11629704_zpid/","","","835500","835300","5815","612700","08/10/2023","2380","sqft","351.05","4399","sqft","189.93","5","4.5","","","No","No","","5474 Fair Oaks St","Pittsburgh","15217","PA","USA","40.444798","-79.93078"
"https://www.zillow.com/homedetails/2510-Matterhorn-Dr-Wexford-PA-15090/11274207_zpid/","","","847500","847500","5114","435300","08/09/2023","4000","sqft","211.88","0.52","acres","1629807.69","5","5","","John Posteraro","No","No","","2510 Matterhorn Dr","Wexford","15090","PA","USA","40.605495","-80.06805"
"https://www.zillow.com/homedetails/1013-Tall-Trees-Dr-Upper-Saint-Clair-PA-15241/11472866_zpid/","","","851972","851900","5141","432100","08/09/2023","3356","sqft","253.87","0.33","acres","2589580.55","4","5","","Candy Oxenrider","No","No","","1013 Tall Trees Dr","Upper Saint Clair","15241","PA","USA","40.3385","-80.09718"
"https://www.zillow.com/homedetails/1431-Denniston-St-Pittsburgh-PA-15217/11630872_zpid/","","","787500","786100","4752","364200","08/07/2023","4176","sqft","188.58","4356","sqft","180.79","6","3","","Allison Pochapin","No","No","","1431 Denniston St","Pittsburgh","15217","PA","USA","40.44295","-79.91849"
"https://www.zillow.com/homedetails/216-Woodhurst-Ter-Wexford-PA-15090/87996045_zpid/","","","840000","838500","5069","520000","08/07/2023","4445","sqft","188.98","1.35","acres","624071.32","4","5","","Barbara Averell","No","No","","216 Woodhurst Ter","Wexford","15090","PA","USA","40.64527","-80.10532"
"https://www.zillow.com/homedetails/1235-Malvern-Ave-Pittsburgh-PA-15217/11533904_zpid/","","","804750","804700","4856","332400","08/04/2023","2749","sqft","292.74","7501.03","sqft","107.29","5","4","","Cass Zielinski","No","No","","1235 Malvern Ave","Pittsburgh","15217","PA","USA","40.442482","-79.93489"
"https://www.zillow.com/homedetails/5104-Hampton-Place-Dr-Gibsonia-PA-15044/242631051_zpid/","","","888000","887900","5359","619500","08/04/2023","4420","sqft","200.9","0.46","acres","1950790.86","5","5","","Julie Mikus","No","No","","5104 Hampton Place Dr","Gibsonia","15044","PA","USA","40.607872","-79.96155"
"https://www.zillow.com/homedetails/3319-Ponoka-Rd-Pittsburgh-PA-15241/11509776_zpid/","","","800000","799600","3099","243800","08/02/2023","2260","sqft","353.98","1.88","acres","425530.88","3","3","","","No","No","","3319 Ponoka Rd","Pittsburgh","15241","PA","USA","40.33193","-80.063"
"https://www.zillow.com/homedetails/906-Black-Oak-Ct-Gibsonia-PA-15044/59854112_zpid/","","","850000","849600","4733","522400","08/02/2023","3313","sqft","256.57","0.43","acres","1976828.62","4","5","","","No","No","","906 Black Oak Ct","Gibsonia","15044","PA","USA","40.666077","-80.01247"
"https://www.zillow.com/homedetails/5734-Solway-St-Pittsburgh-PA-15217/11630739_zpid/","","","810000","809500","4863","409500","08/01/2023","3410","sqft","237.54","4172","sqft","194.15","7","3.5","","","No","No","","5734 Solway St","Pittsburgh","15217","PA","USA","40.44268","-79.92441"
"https://www.zillow.com/homedetails/5188-Hampton-Place-Dr-Gibsonia-PA-15044/242630705_zpid/","","","825000","825000","4980","526800","07/31/2023","4169","sqft","197.89","0.41","acres","2008276.53","4","5","","Bryan Reilly","No","No","","5188 Hampton Place Dr","Gibsonia","15044","PA","USA","40.611954","-79.960724"
"https://www.zillow.com/homedetails/184-Backbone-Rd-Sewickley-PA-15143/242631043_zpid/","","","890000","888900","5371","614200","07/31/2023","4136","sqft","215.18","1.12","acres","794500.98","4","5","","Lisa Wilson","No","No","","184 Backbone Rd","Sewickley","15143","PA","USA","40.577694","-80.16865"
"https://www.zillow.com/homedetails/512-Belgian-Ct-Clinton-PA-15026/300248550_zpid/","","","845000","845000","5100","432100","07/31/2023","5408","sqft","156.25","0.3","acres","2849915.68","5","5","","Emily Wilhelm","No","No","","512 Belgian Ct","Clinton","15026","PA","USA","40.47985","-80.31688"
"https://www.zillow.com/homedetails/438-Dorseyville-Rd-Pittsburgh-PA-15215/11411781_zpid/","","","850000","849000","5099","561900","07/27/2023","4505","sqft","188.68","2.26","acres","375607.6","5","4","","Eileen Lusk","No","No","","438 Dorseyville Rd","Pittsburgh","15215","PA","USA","40.519176","-79.91351"
"https://www.zillow.com/homedetails/212-Greenwood-Dr-Wexford-PA-15090/62983710_zpid/","","","800000","799000","4799","436700","07/26/2023","3116","sqft","256.74","1.16","acres","690846.29","4","5","","Zita Billmann","No","No","","212 Greenwood Dr","Wexford","15090","PA","USA","40.65531","-80.04379"
"https://www.zillow.com/homedetails/511-Chestnut-Rd-Sewickley-PA-15143/11555404_zpid/","","","775000","774100","4649","300000","07/25/2023","2600","sqft","298.08","0.45","acres","1722222.22","3","2","","Sharon Thornburgh","No","No","","511 Chestnut Rd","Sewickley","15143","PA","USA","40.55139","-80.18927"
"https://www.zillow.com/homedetails/236-Greenwood-Dr-Wexford-PA-15090/87992354_zpid/","","","766751","765900","4600","427600","07/25/2023","","","","1742.4","sqft","440.05","4","5","","Elizabeth Kofmehl","No","No","","236 Greenwood Dr","Wexford","15090","PA","USA","40.654533","-80.04866"
"https://www.zillow.com/homedetails/1148-Portland-St-Pittsburgh-PA-15206/11620334_zpid/","","","800000","801500","4832","160200","07/21/2023","3009","sqft","265.87","3746.16","sqft","213.55","5","4","","Lynn Niman","No","No","","1148 Portland St","Pittsburgh","15206","PA","USA","40.476295","-79.92261"
"https://www.zillow.com/homedetails/9978-Parkland-Dr-Wexford-PA-15090/11258611_zpid/","","","800000","801600","4800","343000","07/20/2023","3800","sqft","210.53","0.3","acres","2627257.8","4","5","","Dustin Hook","No","No","","9978 Parkland Dr","Wexford","15090","PA","USA","40.59626","-80.02074"
"https://www.zillow.com/homedetails/1911-Kimberly-Ct-Sewickley-PA-15143/300319745_zpid/","","","855100","786000","4753","599900","07/18/2023","4018","sqft","212.82","0.46","acres","1847666.38","6","5","","Ritu Vaidya","No","No","","1911 Kimberly Ct","Sewickley","15143","PA","USA","40.57955","-80.09331"
"https://www.zillow.com/homedetails/168-Woodshire-Dr-Pittsburgh-PA-15215/11336436_zpid/","","","849000","851200","5095","519400","07/14/2023","2958","sqft","287.02","1.01","acres","843936.38","4","4","","Nevena Staresinic","No","No","","168 Woodshire Dr","Pittsburgh","15215","PA","USA","40.492565","-79.88682"
"https://www.zillow.com/homedetails/6625-Woodwell-St-Pittsburgh-PA-15217/11288322_zpid/","","","800000","802000","4801","235900","07/14/2023","3200","sqft","250","4399.56","sqft","181.84","5","4","","Mark Jennings","No","No","","6625 Woodwell St","Pittsburgh","15217","PA","USA","40.444534","-79.914474"
"https://www.zillow.com/homedetails/586-Moorhead-Pl-Pittsburgh-PA-15232/11528550_zpid/","","","828000","757000","4567","420100","07/14/2023","2382","sqft","347.61","4038.01","sqft","205.05","4","3","","Emily Fraser","No","No","","586 Moorhead Pl","Pittsburgh","15232","PA","USA","40.452354","-79.938965"
"https://www.zillow.com/homedetails/1-Equestrian-Dr-Imperial-PA-15126/306759680_zpid/","","","850000","849200","5101","521300","07/14/2023","4096","sqft","207.52","0.5","acres","1686507.94","4","5","","Brittany Davis","No","No","","1 Equestrian Dr","Imperial","15126","PA","USA","40.48646","-80.31203"
"https://www.zillow.com/homedetails/202-Glenhaven-Ln-Pittsburgh-PA-15238/11412048_zpid/","","","900125","902500","5402","425000","07/13/2023","3468","sqft","259.55","1.36","acres","662831.37","5","5","","Julie Rost","No","No","","202 Glenhaven Ln","Pittsburgh","15238","PA","USA","40.514965","-79.87675"
"https://www.zillow.com/homedetails/126-Yorkshire-Dr-Pittsburgh-PA-15208/11287137_zpid/","","","849000","851300","5095","523500","07/12/2023","2352","sqft","360.97","4530.24","sqft","187.41","4","3","","Deborah Prise","No","No","","126 Yorkshire Dr","Pittsburgh","15208","PA","USA","40.4504","-79.908226"
"https://www.zillow.com/homedetails/15-Allegheny-Ave-Oakmont-PA-15139/164627131_zpid/","","","827500","826800","4966","599300","07/10/2023","2600","sqft","318.27","3859.42","sqft","214.41","4","4","","Lisa Bono","No","No","","15 Allegheny Ave","Oakmont","15139","PA","USA","40.51072","-79.84642"
"https://www.zillow.com/homedetails/1624-Franklin-Fields-Dr-Sewickley-PA-15143/11642831_zpid/","","","806000","807800","4838","470300","07/07/2023","3852","sqft","209.24","0.46","acres","1754080.52","4","4","","Theodora Malobicky","No","No","","1624 Franklin Fields Dr","Sewickley","15143","PA","USA","40.5819","-80.091934"
"https://www.zillow.com/homedetails/837-Larchmont-Rd-Pittsburgh-PA-15243/11658492_zpid/","","","782500","784200","4697","542200","07/07/2023","2448","sqft","319.65","0.28","acres","2759167.84","3","4","","Lynne Bingham","No","No","","837 Larchmont Rd","Pittsburgh","15243","PA","USA","40.390217","-80.06535"
"https://www.zillow.com/homedetails/220-Woodhurst-Ter-Wexford-PA-15090/59848275_zpid/","","","795000","796800","4772","517500","07/07/2023","3426","sqft","232.05","1.55","acres","512903.23","4","4","","Lori Hummel","No","No","","220 Woodhurst Ter","Wexford","15090","PA","USA","40.644745","-80.10536"
"https://www.zillow.com/homedetails/7411-Richland-Manor-Dr-Pittsburgh-PA-15208/11341122_zpid/","","","845000","846900","5072","588400","07/06/2023","2124","sqft","397.83","7518.46","sqft","112.39","4","5","","Justin Cummings","No","No","","7411 Richland Manor Dr","Pittsburgh","15208","PA","USA","40.445538","-79.89933"
"https://www.zillow.com/homedetails/349-Fisk-St-Pittsburgh-PA-15201/11513939_zpid/","","","800000","801800","4802","84000","07/06/2023","2550","sqft","313.73","1498.46","sqft","533.88","4","4","","Catherine Lafferty","No","No","","349 Fisk St","Pittsburgh","15201","PA","USA","40.46613","-79.957275"
"https://www.zillow.com/homedetails/4449-Walnut-Ridge-Cir-Mc-Donald-PA-15057/242630760_zpid/","","","806000","807900","4838","496000","07/05/2023","5360","sqft","150.37","0.37","acres","2181326.12","5","5","","Jingli Zhang","No","No","","4449 Walnut Ridge Cir","Mc Donald","15057","PA","USA","40.371178","-80.18522"
"https://www.zillow.com/homedetails/6926-Rosewood-St-Pittsburgh-PA-15208/11287594_zpid/","","","895000","897200","5374","252000","07/03/2023","2129","sqft","420.39","4042.37","sqft","221.4","4","3","","Daniel Demers","No","No","","6926 Rosewood St","Pittsburgh","15208","PA","USA","40.448986","-79.908775"
"https://www.zillow.com/homedetails/1451-Peterson-Pl-Pittsburgh-PA-15241/11399320_zpid/","","","800000","802000","4839","455600","07/03/2023","3556","sqft","224.97","0.35","acres","2304000","4","4","","","No","No","","1451 Peterson Pl","Pittsburgh","15241","PA","USA","40.35691","-80.08549"
"https://www.zillow.com/homedetails/1706-Sturbridge-Dr-Sewickley-PA-15143/11616410_zpid/","","","830000","832100","5021","426200","07/03/2023","4300","sqft","193.02","1","acres","830000","4","5","","","No","No","","1706 Sturbridge Dr","Sewickley","15143","PA","USA","40.57613","-80.149956"
"https://www.zillow.com/homedetails/308-Bridge-Brook-Ln-Marshall-PA-15090/59847519_zpid/","","","885000","887200","5397","574800","07/03/2023","5280","sqft","167.61","2.17","acres","407834.96","5","6","","","No","No","","308 Bridge Brook Ln","Marshall","15090","PA","USA","40.63823","-80.10093"
"https://www.zillow.com/homedetails/9603-Anderson-Rd-Pittsburgh-PA-15237/11644064_zpid/","","","815000","817300","4893","462900","06/30/2023","","","","4","acres","203597.3","4","4","","Anthony Leone","No","No","","9603 Anderson Rd","Pittsburgh","15237","PA","USA","40.58197","-80.02474"
"https://www.zillow.com/homedetails/4577-Nature-Trail-Dr-Allison-Park-PA-15101/11646345_zpid/","","","840000","","5744","669600","06/30/2023","4476","sqft","187.67","1.23","acres","682372.06","5","5","","Michelle Mattioli","No","No","","4577 Nature Trail Dr","Allison Park","15101","PA","USA","40.58902","-79.93039"
"https://www.zillow.com/homedetails/929-Old-Hickory-Rd-Pittsburgh-PA-15243/11659030_zpid/","","","875918","878400","5258","346600","06/30/2023","","","","","","","4","4","","Michele Belice","No","No","","929 Old Hickory Rd","Pittsburgh","15243","PA","USA","40.385105","-80.06587"
"https://www.zillow.com/homedetails/3111-Annandale-Dr-Presto-PA-15142/87988484_zpid/","","","775000","777200","4652","384700","06/30/2023","","","","6760.51","sqft","114.64","3","4","","DJ Fairley","No","No","","3111 Annandale Dr","Presto","15142","PA","USA","40.391975","-80.128235"
"https://www.zillow.com/homedetails/1241-Beams-Run-Rd-Clairton-PA-15025/87993204_zpid/","","","810000","812300","4877","496600","06/30/2023","4502","sqft","179.92","2.2","acres","368181.82","6","5","","Dan Haeck","No","No","","1241 Beams Run Rd","Clairton","15025","PA","USA","40.310635","-79.957794"
"https://www.zillow.com/homedetails/308-Bridge-Brook-Ln-Wexford-PA-15090/2059166489_zpid/","","","885000","","2100","","06/30/2023","4634","sqft","190.98","2.17","acres","408587.26","5","6","","Zita Billmann","No","No","","308 Bridge Brook Ln","Wexford","15090","PA","USA","",""
"https://www.zillow.com/homedetails/1519-Buena-Vista-St-Pittsburgh-PA-15212/11388342_zpid/","","","763000","765400","4581","143900","06/28/2023","3340","sqft","228.44","2400.16","sqft","317.9","4","3","","Craig Melichar","No","No","","1519 Buena Vista St","Pittsburgh","15212","PA","USA","40.457607","-80.01507"
"https://www.zillow.com/homedetails/215-Highland-Rd-Blawnox-PA-15238/11488594_zpid/","","","905000","907900","5433","478400","06/28/2023","3312","sqft","273.25","1.02","acres","887254.9","4","5","","Julie Rost","No","No","","215 Highland Rd","Blawnox","15238","PA","USA","40.533314","-79.86078"
"https://www.zillow.com/homedetails/1231-Wightman-St-Pittsburgh-PA-15217/11629844_zpid/","","","875000","877900","5254","376100","06/27/2023","3120","sqft","280.45","9361.04","sqft","93.47","6","4","","Bobby West","No","No","","1231 Wightman St","Pittsburgh","15217","PA","USA","40.44478","-79.92759"
"https://www.zillow.com/homedetails/1640-Hollow-Tree-Dr-Pittsburgh-PA-15241/11581563_zpid/","","","900000","903200","5404","523300","06/26/2023","3608","sqft","249.45","0.51","acres","1781825.38","4","5","","Frankie Jo Kunselman","No","No","","1640 Hollow Tree Dr","Pittsburgh","15241","PA","USA","40.30834","-80.09784"
"https://www.zillow.com/homedetails/5131-Carnoustie-Dr-Presto-PA-15142/59844820_zpid/","","","814000","816900","4888","620200","06/26/2023","3891","sqft","209.2","0.83","acres","980722.89","5","5","","Ruth Weigers","No","No","","5131 Carnoustie Dr","Presto","15142","PA","USA","40.39054","-80.1268"
"https://www.zillow.com/homedetails/1045-Colony-Dr-Pittsburgh-PA-15205/306759458_zpid/","","","825000","827900","4996","465400","06/26/2023","3181","sqft","259.35","0.29","acres","2815699.66","4","4","","Tammy Shiel","No","No","","1045 Colony Dr","Pittsburgh","15205","PA","USA","40.429302","-80.14898"
"https://www.zillow.com/homedetails/335-Providence-Dr-Wexford-PA-15090/87995671_zpid/","","","800000","803200","4805","550000","06/23/2023","5280","sqft","151.52","0.36","acres","2219140.08","5","5","","Malini Jaganathan","No","No","","335 Providence Dr","Wexford","15090","PA","USA","40.65099","-80.10319"
"https://www.zillow.com/homedetails/204-Buckingham-Rd-Pittsburgh-PA-15215/11374199_zpid/","","","888000","891700","5333","609700","06/22/2023","4058","sqft","218.83","0.83","acres","1072593.31","4","4","","Aida Agovic-Corna","No","No","","204 Buckingham Rd","Pittsburgh","15215","PA","USA","40.504112","-79.89985"
"https://www.zillow.com/homedetails/721-11th-St-Oakmont-PA-15139/11488853_zpid/","","","900000","1038400","6210","16700","06/21/2023","3866","sqft","232.8","3001.28","sqft","299.87","5","5","","Karen Wantland","No","No","","721 11th St","Oakmont","15139","PA","USA","40.521324","-79.830956"
"https://www.zillow.com/homedetails/112-Riverfront-St-Oakmont-PA-15139/164627064_zpid/","","","785000","788600","4715","427500","06/20/2023","2498","sqft","314.25","4809.02","sqft","163.23","3","3","","Lori Hummel","No","No","","112 Riverfront St","Oakmont","15139","PA","USA","40.51264","-79.84683"
"https://www.zillow.com/homedetails/1691-Swanson-Ln-Pittsburgh-PA-15241/11472544_zpid/","","","780000","784100","4687","416700","06/16/2023","3859","sqft","202.12","1306.8","sqft","596.88","5","4","","Melissa Palmer","No","No","","1691 Swanson Ln","Pittsburgh","15241","PA","USA","40.33647","-80.08215"
"https://www.zillow.com/homedetails/5814-Hays-St-Pittsburgh-PA-15206/11623007_zpid/","","","799000","803200","4801","541900","06/16/2023","2604","sqft","306.84","3001.28","sqft","266.22","3","4","","Meredith Ward","No","No","","5814 Hays St","Pittsburgh","15206","PA","USA","40.468277","-79.92349"
"https://www.zillow.com/homedetails/121-Hoodridge-Dr-Pittsburgh-PA-15228/11396653_zpid/","","","799900","804200","4806","315200","06/15/2023","","","","9792.29","sqft","81.69","4","4","","Vera Purcell","No","No","","121 Hoodridge Dr","Pittsburgh","15228","PA","USA","40.364296","-80.0415"
"https://www.zillow.com/homedetails/3091-Henrich-Farm-Ln-Allison-Park-PA-15101/11621479_zpid/","","","855000","814200","4933","438900","06/15/2023","","","","0.66","acres","1295454.55","4","4","","Elizabeth Phillips","No","No","","3091 Henrich Farm Ln","Allison Park","15101","PA","USA","40.57597","-79.93834"
"https://www.zillow.com/homedetails/1521-Candlewood-Dr-Pittsburgh-PA-15241/59838050_zpid/","","","825000","829500","4957","472500","06/15/2023","","","","0.41","acres","1996128.72","4","5","","Julie Welter","No","No","","1521 Candlewood Dr","Pittsburgh","15241","PA","USA","40.312786","-80.09806"
"https://www.zillow.com/homedetails/4-Saint-James-Pl-Pittsburgh-PA-15215/11336077_zpid/","","","905000","910000","5438","639400","06/14/2023","3338","sqft","271.12","0.38","acres","2381578.95","4","3","","Jane Herrmann","No","No","","4 Saint James Pl","Pittsburgh","15215","PA","USA","40.498684","-79.89842"
"https://www.zillow.com/homedetails/5861-Solway-St-Pittsburgh-PA-15217/11629977_zpid/","","","845000","849700","5078","311100","06/14/2023","1794","sqft","471.01","9726.95","sqft","86.87","3","3","","Cindy Ingram","No","No","","5861 Solway St","Pittsburgh","15217","PA","USA","40.44305","-79.92134"
"https://www.zillow.com/homedetails/218-Tamarack-Dr-Mars-PA-16046/118635723_zpid/","","","850000","856200","5120","39370","06/14/2023","","","","0.51","acres","1660156.25","4","5","","Gia Albanowski","No","No","","218 Tamarack Dr","Mars","16046","PA","USA","40.6732","-80.0066"
"https://www.zillow.com/homedetails/249-Zuzu-Cir-Pittsburgh-PA-15210/164615285_zpid/","","","790000","","1411","5600","06/14/2023","2500","sqft","316","4295.02","sqft","183.93","3","5","","Colleen Anthony","No","No","","249 Zuzu Cir","Pittsburgh","15210","PA","USA","40.42524","-79.996376"
"https://www.zillow.com/homedetails/159-Summer-Seat-Ln-Pittsburgh-PA-15237/306759378_zpid/","","","837500","842500","5085","683100","06/12/2023","3515","sqft","238.26","3236.51","sqft","258.77","3","3","","Carl Pietrusinski","No","No","","159 Summer Seat Ln","Pittsburgh","15237","PA","USA","40.53242","-80.08968"
"https://www.zillow.com/homedetails/10331-Ridgecrest-Point-Wexford-PA-15090/11274794_zpid/","","","816000","821300","4957","354700","06/09/2023","3644","sqft","223.93","0.46","acres","1773913.04","4","5","","John Posteraro","No","No","","10331 Ridgecrest Point","Wexford","15090","PA","USA","40.600494","-80.03501"
"https://www.zillow.com/homedetails/267-Sweet-Gum-Rd-Pittsburgh-PA-15238/11488388_zpid/","","","842500","847900","5118","415000","06/09/2023","3257","sqft","258.67","5837.04","sqft","144.34","3","4","","Vince Schmidt","No","No","","267 Sweet Gum Rd","Pittsburgh","15238","PA","USA","40.538364","-79.86606"
"https://www.zillow.com/homedetails/4263-Duckhorn-Dr-Coraopolis-PA-15108/119345613_zpid/","","","875000","880600","5315","613200","06/09/2023","4626","sqft","189.15","0.38","acres","2292376.21","5","5","","Robin Ross","No","No","","4263 Duckhorn Dr","Coraopolis","15108","PA","USA","40.47436","-80.16213"
"https://www.zillow.com/homedetails/4818-Stonebridge-Dr-Gibsonia-PA-15044/164213267_zpid/","","","850000","855500","5163","527100","06/09/2023","","","","0.33","acres","2591463.41","5","4","","Dawn Ross","No","No","","4818 Stonebridge Dr","Gibsonia","15044","PA","USA","40.59732","-79.95526"
"https://www.zillow.com/homedetails/1205-Newbury-Highland-Bridgeville-PA-15017/164297878_zpid/","","","889900","","1774","5200","06/09/2023","","","","7605.58","sqft","117.01","5","5","","Lynne Bingham","No","No","","1205 Newbury Highland","Bridgeville","15017","PA","USA","40.366455","-80.12858"
"https://www.zillow.com/homedetails/2143-Laurel-Ln-Allison-Park-PA-15101/11618930_zpid/","","","765000","770100","4647","179500","06/08/2023","2864","sqft","267.11","1.8","acres","425000","5","3","","Katie Rau","No","No","","2143 Laurel Ln","Allison Park","15101","PA","USA","40.57309","-79.9871"
"https://www.zillow.com/homedetails/653-Maryland-Ave-Shadyside-PA-15232/11625313_zpid/","","","825000","830500","5012","637500","06/08/2023","2500","sqft","330","4356","sqft","189.39","4","4","","Roslyn Neiman","No","No","","653 Maryland Ave","Shadyside","15232","PA","USA","40.454727","-79.92968"
"https://www.zillow.com/homedetails/349-Backbone-Rd-Sewickley-PA-15143/164427125_zpid/","","","780000","687800","4167","360500","06/08/2023","","","","0.29","acres","2697095.44","4","2","","Angela Hoying Pulkowski","No","No","","349 Backbone Rd","Sewickley","15143","PA","USA","40.544365","-80.17999"
"https://www.zillow.com/homedetails/6041-Saint-Marie-St-Pittsburgh-PA-15206/11623046_zpid/","","","780000","","4634","239800","06/07/2023","2980","sqft","261.74","3998.81","sqft","195.06","5","4","","Dustin Hook","No","No","","6041 Saint Marie St","Pittsburgh","15206","PA","USA","40.468723","-79.919655"
"https://www.zillow.com/homedetails/5614-Marlborough-Rd-Pittsburgh-PA-15217/11631057_zpid/","","","766066","771300","4654","238300","06/07/2023","2300","sqft","333.07","5113.94","sqft","149.8","4","3","","Adar Ben-Lapid","No","No","","5614 Marlborough Rd","Pittsburgh","15217","PA","USA","40.43852","-79.92717"
"https://www.zillow.com/homedetails/1410-Chadworth-Ct-Pittsburgh-PA-15237/249412467_zpid/","","","864900","870900","5256","584000","06/06/2023","4240","sqft","203.99","0.52","acres","1678114.09","5","6","","Alex Giannetti","No","No","","1410 Chadworth Ct","Pittsburgh","15237","PA","USA","40.552284","-80.06945"
"https://www.zillow.com/homedetails/5112-Bayard-St-Pittsburgh-PA-15232/11528610_zpid/","","","775000","780900","4713","322400","06/02/2023","2636","sqft","294.01","4081.57","sqft","189.88","3","4","","Thomas Liang","No","No","","5112 Bayard St","Pittsburgh","15232","PA","USA","40.45231","-79.94076"
"https://www.zillow.com/homedetails/702-College-St-Pittsburgh-PA-15232/11625394_zpid/","","","820000","826300","4987","519000","06/02/2023","","","","2748.64","sqft","298.33","4","4","","Jay Robinson","No","No","","702 College St","Pittsburgh","15232","PA","USA","40.455154","-79.928406"
"https://www.zillow.com/homedetails/3029-Chestnut-Ridge-Dr-Clairton-PA-15025/164713173_zpid/","","","775000","780900","4713","500500","06/02/2023","3251","sqft","238.39","0.48","acres","1627253.45","4","4","Listwithfreedom.Com","","No","No","","3029 Chestnut Ridge Dr","Clairton","15025","PA","USA","40.307","-79.95315"
"https://www.zillow.com/homedetails/608-Tullamore-Trl-Mars-PA-16046/248643239_zpid/","","","900000","906900","5473","575800","06/02/2023","4202","sqft","214.18","0.55","acres","1636363.64","5","5","","Dale Swanton","No","No","","608 Tullamore Trl","Mars","16046","PA","USA","40.663017","-80.06229"
"https://www.zillow.com/homedetails/621-Grove-St-Sewickley-PA-15143/11519130_zpid/","","","875000","882100","5324","557100","05/31/2023","","","","0.39","acres","2249935.72","4","4","","Jill Stehnach","No","No","","621 Grove St","Sewickley","15143","PA","USA","40.54453","-80.1824"
"https://www.zillow.com/homedetails/5471-Aylesboro-Ave-Pittsburgh-PA-15217/11630947_zpid/","","","849000","855900","5166","402700","05/31/2023","2740","sqft","309.85","7923.56","sqft","107.15","6","4","","Cass Zielinski","No","No","","5471 Aylesboro Ave","Pittsburgh","15217","PA","USA","40.439102","-79.931206"
"https://www.zillow.com/homedetails/116-Coventry-Dr-Mc-Kees-Rocks-PA-15136/164332573_zpid/","","","800000","806500","4867","461500","05/31/2023","3200","sqft","250","0.33","acres","2399520.1","5","5","","Sara Passaro","No","No","","116 Coventry Dr","Mc Kees Rocks","15136","PA","USA","40.463516","-80.13423"
"https://www.zillow.com/homedetails/225-Summerlawn-Dr-Sewickley-PA-15143/164528236_zpid/","","","775000","781300","4715","436000","05/31/2023","2723","sqft","284.61","0.83","acres","933734.94","4","5","","Robyn Jones","No","No","","225 Summerlawn Dr","Sewickley","15143","PA","USA","40.584084","-80.19825"
"https://www.zillow.com/homedetails/251-2nd-St-Oakmont-PA-15139/164626983_zpid/","","","910000","917400","5537","520600","05/31/2023","3688","sqft","246.75","4399.56","sqft","206.84","4","5","","Thomas Lacey","No","No","","251 2nd St","Oakmont","15139","PA","USA","40.514996","-79.846535"
"https://www.zillow.com/homedetails/113-Riverfront-St-Oakmont-PA-15139/164627056_zpid/","","","790000","796400","4807","353700","05/31/2023","2489","sqft","317.4","4029.3","sqft","196.06","3","3","","Pamela Michalek-Shirey","No","No","","113 Riverfront St","Oakmont","15139","PA","USA","40.51309","-79.846794"
"https://www.zillow.com/homedetails/411-Freedom-Dr-Gibsonia-PA-15044/338888270_zpid/","","","840723","","1817","400","05/31/2023","","","","2740","sqft","306.83","","","","","No","No","","411 Freedom Dr","Gibsonia","15044","PA","USA","40.655315","-79.97996"
"https://www.zillow.com/homedetails/6537-Darlington-Rd-Pittsburgh-PA-15217/11289379_zpid/","","","770000","776500","4686","351800","05/30/2023","2642","sqft","291.45","4800","sqft","160.42","5","4","","","No","No","","6537 Darlington Rd","Pittsburgh","15217","PA","USA","40.43649","-79.914696"
"https://www.zillow.com/homedetails/120-Wesport-Dr-Pittsburgh-PA-15238/11487522_zpid/","","","860000","868500","5242","392900","05/25/2023","","","","1","acres","860000","4","4","","Jane Herrmann","No","No","","120 Wesport Dr","Pittsburgh","15238","PA","USA","40.54001","-79.89563"
"https://www.zillow.com/homedetails/5510-Aylesboro-Ave-Pittsburgh-PA-15217/11630967_zpid/","","","878750","887600","5358","634100","05/24/2023","4120","sqft","213.29","8189.28","sqft","107.3","6","4","","Julie Rost","No","No","","5510 Aylesboro Ave","Pittsburgh","15217","PA","USA","40.43871","-79.93015"
"https://www.zillow.com/homedetails/30-Wood-Duck-Trl-Pittsburgh-PA-15238/11561721_zpid/","","","900000","909400","5489","589400","05/23/2023","4675","sqft","192.51","1.02","acres","878906.25","4","5","","Darla Jobkar","No","No","","30 Wood Duck Trl","Pittsburgh","15238","PA","USA","40.554016","-79.90585"
"https://www.zillow.com/homedetails/157-Seneca-Pl-Mars-PA-16046/164602296_zpid/","","","825000","834500","5038","484000","05/19/2023","4290","sqft","192.31","8842.68","sqft","93.3","4","4","","Catherine Blandi","No","No","","157 Seneca Pl","Mars","16046","PA","USA","40.66913","-80.08428"
"https://www.zillow.com/homedetails/5816-Bryant-St-Pittsburgh-PA-15206/164696373_zpid/","","","899000","909400","5489","10800","05/19/2023","3051","sqft","294.66","2400.16","sqft","374.56","4","3","","Zachary Restelli","No","No","","5816 Bryant St","Pittsburgh","15206","PA","USA","40.47569","-79.92015"
"https://www.zillow.com/homedetails/1739-Stevensan-Dr-Sewickley-PA-15143/245270633_zpid/","","","778000","787000","4750","502100","05/19/2023","3826","sqft","203.35","0.54","acres","1440473.99","4","5","","Mishaal Paniwala","No","No","","1739 Stevensan Dr","Sewickley","15143","PA","USA","40.581203","-80.09497"
"https://www.zillow.com/homedetails/1422-Wightman-St-Pittsburgh-PA-15217/11630625_zpid/","","","889000","899800","5431","525000","05/17/2023","3626","sqft","245.17","2252.05","sqft","394.75","6","4","","Thomas Cahill","No","No","","1422 Wightman St","Pittsburgh","15217","PA","USA","40.44228","-79.928154"
"https://www.zillow.com/homedetails/513-Hickory-Ct-Wexford-PA-15090/59848397_zpid/","","","795000","805100","4860","643100","05/15/2023","4549","sqft","174.76","0.81","acres","986352.36","5","5","","Linda Honeywill","No","No","","513 Hickory Ct","Wexford","15090","PA","USA","40.64506","-80.115005"
"https://www.zillow.com/homedetails/399-Upper-Rd-Pittsburgh-PA-15228/11398198_zpid/","","","770000","782200","4722","166300","05/08/2023","4780","sqft","161.09","1.62","acres","475309.99","4","5","","","No","No","","399 Upper Rd","Pittsburgh","15228","PA","USA","40.358055","-80.06095"
"https://www.zillow.com/homedetails/242-Tamarack-Mars-PA-16046/242630385_zpid/","","","895000","908900","5487","8500","05/08/2023","2000","sqft","447.5","1.15","acres","780363.9","4","2","","","No","No","","242 Tamarack","Mars","16046","PA","USA","40.671967","-80.01061"
"https://www.zillow.com/homedetails/1061-Colony-Dr-Pittsburgh-PA-15205/306760006_zpid/","","","900000","","1626","1400","05/05/2023","","","","9583.2","sqft","93.91","4","4","","Danielle Mach","No","No","","1061 Colony Dr","Pittsburgh","15205","PA","USA","40.43085","-80.14845"
"https://www.zillow.com/homedetails/242-Tamarack-Dr-TL56JW-Mars-PA-16046/2061618484_zpid/","","","895000","908900","5487","","05/05/2023","","","","1.15","acres","778260.87","4","5","","Kathleen Cooper","No","No","# TL56JW","242 Tamarack Dr #TL56JW","Mars","16046","PA","USA","",""
"https://www.zillow.com/homedetails/2387-Morrow-Rd-Pittsburgh-PA-15241/11473027_zpid/","","","800000","812700","4906","400000","05/04/2023","","","","2.06","acres","388915.9","5","7","","Nancy McKenna","No","No","","2387 Morrow Rd","Pittsburgh","15241","PA","USA","40.337006","-80.09341"
"https://www.zillow.com/homedetails/399-Upper-Road-Upper-St-Pittsburgh-PA-15228/2079969021_zpid/","","","770000","441700","2540","","05/04/2023","4900","sqft","157.14","1.62","acres","475308.64","4","5","","April Bartley","No","No","","399 Upper Road Upper St","Pittsburgh","15228","PA","USA","",""
"https://www.zillow.com/homedetails/247-Zuzu-Cir-Pittsburgh-PA-15210/164615284_zpid/","","","780000","792600","4784","4800","05/03/2023","2500","sqft","312","3010","sqft","259.14","3","5","","Colleen Anthony","No","No","","247 Zuzu Cir","Pittsburgh","15210","PA","USA","40.42535","-79.9965"
"https://www.zillow.com/homedetails/2011-Charter-Ln-Carnegie-PA-15106/2057850369_zpid/","","","790000","","1626","","05/03/2023","","","","9147.6","sqft","86.36","3","3","","Danielle Mach","No","No","","2011 Charter Ln","Carnegie","15106","PA","USA","",""
"https://www.zillow.com/homedetails/213-Lynn-Haven-Dr-Pittsburgh-PA-15228/11358766_zpid/","","","805000","818500","4941","413800","05/01/2023","","","","0.29","acres","2775862.07","4","4","","Michelle Kearns","No","No","","213 Lynn Haven Dr","Pittsburgh","15228","PA","USA","40.36808","-80.04763"
"https://www.zillow.com/homedetails/409-Oak-Ridge-Ct-Mars-PA-16046/306759561_zpid/","","","880000","894700","5402","8800","05/01/2023","2976","sqft","295.7","1.14","acres","769903.76","4","5","","Kathleen Cooper","No","No","","409 Oak Ridge Ct","Mars","16046","PA","USA","40.67059","-80.012405"
"https://www.zillow.com/homedetails/211-Virginia-Manor-Dr-Pittsburgh-PA-15215/11373732_zpid/","","","775000","788900","4762","422900","04/28/2023","3078","sqft","251.79","0.49","acres","1581632.65","4","3","","Jane Herrmann","No","No","","211 Virginia Manor Dr","Pittsburgh","15215","PA","USA","40.510258","-79.9284"
"https://www.zillow.com/homedetails/2601-Arno-Dr-Oakdale-PA-15071/337926449_zpid/","","","851005","","2498","1300","04/25/2023","","","","0.36","acres","2373833.11","","","","","No","No","","2601 Arno Dr","Oakdale","15071","PA","USA","40.388542","-80.14507"
"https://www.zillow.com/homedetails/108-Foxwood-Dr-Wexford-PA-15090/11274442_zpid/","","","830000","847400","5116","424400","04/20/2023","4021","sqft","206.42","1.62","acres","512345.68","4","5","","Jon Masuga","No","No","","108 Foxwood Dr","Wexford","15090","PA","USA","40.60344","-80.06683"
"https://www.zillow.com/homedetails/3402-Old-Oakdale-Rd-Mc-Donald-PA-15057/72260954_zpid/","","","880000","898400","5424","493200","04/20/2023","","","","2.62","acres","336262.9","5","4","","Danielle Mach","No","No","","3402 Old Oakdale Rd","Mc Donald","15057","PA","USA","40.369774","-80.17004"
"https://www.zillow.com/homedetails/6825-Penham-Pl-Pittsburgh-PA-15208/11287099_zpid/","","","779000","795600","4803","336800","04/19/2023","2340","sqft","332.91","0.28","acres","2805185.45","5","4","","Linda Lee Foltz","No","No","","6825 Penham Pl","Pittsburgh","15208","PA","USA","40.45197","-79.90986"
"https://www.zillow.com/homedetails/300-Maple-Ave-Pittsburgh-PA-15218/11381454_zpid/","","","810000","827300","4995","328600","04/19/2023","3071","sqft","263.76","0.34","acres","2371194.38","6","4","","Austin Rusert","No","No","","300 Maple Ave","Pittsburgh","15218","PA","USA","40.4315","-79.88161"
"https://www.zillow.com/homedetails/7423-Richland-Manor-Dr-Pittsburgh-PA-15208/11341330_zpid/","","","910000","931100","5622","538000","04/14/2023","2924","sqft","311.22","7000.09","sqft","130","4","4","","Cindy Ingram","No","No","","7423 Richland Manor Dr","Pittsburgh","15208","PA","USA","40.445442","-79.899"
"https://www.zillow.com/homedetails/12-Woodbrook-Dr-Pittsburgh-PA-15215/11411817_zpid/","","","818000","837000","5054","428000","04/14/2023","2749","sqft","297.56","2.98","acres","274680.99","5","4","","David Onufer","No","No","","12 Woodbrook Dr","Pittsburgh","15215","PA","USA","40.51613","-79.91081"
"https://www.zillow.com/homedetails/703-Maryland-Ave-Pittsburgh-PA-15232/11625294_zpid/","","","792000","810400","4893","499400","04/14/2023","2666","sqft","297.07","3049.2","sqft","259.74","5","4","","Molly Howard","No","No","","703 Maryland Ave","Pittsburgh","15232","PA","USA","40.454025","-79.929276"
"https://www.zillow.com/homedetails/304-Balsa-Dr-Wexford-PA-15090/242631224_zpid/","","","820000","839000","5066","492700","04/14/2023","3622","sqft","226.39","0.46","acres","1775660.46","4","4","","Breanne French","No","No","","304 Balsa Dr","Wexford","15090","PA","USA","40.63885","-80.02086"
"https://www.zillow.com/homedetails/660-Shortline-Ct-Wexford-PA-15090/306759643_zpid/","","","855904","875700","5304","11000","04/06/2023","2000","sqft","427.95","0.5","acres","1709923.79","4","2","","","No","No","","660 Shortline Ct","Wexford","15090","PA","USA","40.62389","-80.06815"
"https://www.zillow.com/homedetails/111-Westholm-Dr-Sewickley-PA-15143/104362071_zpid/","","","890000","911700","5517","573500","04/05/2023","4200","sqft","211.9","2.12","acres","420326.82","3","4","","Paula Bennett","No","No","","111 Westholm Dr","Sewickley","15143","PA","USA","40.59581","-80.14969"
"https://www.zillow.com/homedetails/31-Allegheny-Ave-Oakmont-PA-15139/164627073_zpid/","","","770000","788100","4773","437000","04/05/2023","2636","sqft","292.11","3449.95","sqft","223.19","4","4","","Lori Hummel","No","No","","31 Allegheny Ave","Oakmont","15139","PA","USA","40.51128","-79.84554"
"https://www.zillow.com/homedetails/261-Magnolia-Pl-Pittsburgh-PA-15228/11311757_zpid/","","","817500","838700","5077","302000","03/31/2023","3450","sqft","236.96","6751.8","sqft","121.08","6","3","","Meghan Scichilone","No","No","","261 Magnolia Pl","Pittsburgh","15228","PA","USA","40.37842","-80.0489"
"https://www.zillow.com/homedetails/24-Nakoma-Dr-Pittsburgh-PA-15228/11398049_zpid/","","","907000","930400","5634","320600","03/31/2023","","","","9252.14","sqft","98.03","5","5","","Marie Mageras","No","No","","24 Nakoma Dr","Pittsburgh","15228","PA","USA","40.360916","-80.050285"
"https://www.zillow.com/homedetails/1814-Willow-Oak-Dr-Wexford-PA-15090/11297281_zpid/","","","770000","790200","4784","501100","03/30/2023","3310","sqft","232.63","1.4","acres","550000","4","4","","Linda Honeywill","No","No","","1814 Willow Oak Dr","Wexford","15090","PA","USA","40.615887","-80.080864"
"https://www.zillow.com/homedetails/918-Black-Oak-Ct-Gibsonia-PA-15044/87992332_zpid/","","","830000","851800","5157","576700","03/30/2023","3342","sqft","248.35","0.7","acres","1182504.63","4","4","","Marie Pace","No","No","","918 Black Oak Ct","Gibsonia","15044","PA","USA","40.664536","-80.01294"
"https://www.zillow.com/homedetails/515-Chestnut-Rd-Sewickley-PA-15143/11555405_zpid/","","","800000","821500","4975","320000","03/28/2023","2066","sqft","387.22","0.45","acres","1793721.97","3","3","","Molly Howard","No","No","","515 Chestnut Rd","Sewickley","15143","PA","USA","40.551517","-80.18892"
"https://www.zillow.com/homedetails/3072-Henrich-Farm-Ln-Allison-Park-PA-15101/11621469_zpid/","","","852000","876300","5308","500000","03/23/2023","4079","sqft","208.87","0.6","acres","1431932.77","4","3","","Linda Dibucci","No","No","","3072 Henrich Farm Ln","Allison Park","15101","PA","USA","40.5748","-79.939514"
"https://www.zillow.com/homedetails/204-Guyasuta-Rd-Pittsburgh-PA-15215/11374377_zpid/","","","839000","863700","5233","448800","03/20/2023","","","","1.15","acres","729565.22","4","4","","Kathleen Mathison","No","No","","204 Guyasuta Rd","Pittsburgh","15215","PA","USA","40.501434","-79.89751"
"https://www.zillow.com/homedetails/709-Ridgefield-Ave-Pittsburgh-PA-15216/11574386_zpid/","","","870000","896800","5433","588300","03/17/2023","4060","sqft","214.29","0.28","acres","3075291.62","5","5","","Wendy Weaver","No","No","","709 Ridgefield Ave","Pittsburgh","15216","PA","USA","40.396378","-80.04978"
"https://www.zillow.com/homedetails/4407-Wildwood-Sample-Rd-Allison-Park-PA-15101/11644734_zpid/","","","875000","1094200","6681","774000","03/17/2023","7000","sqft","125","1.09","acres","805115.94","6","6","","Andrew Johnson","No","No","","4407 Wildwood Sample Rd","Allison Park","15101","PA","USA","40.580544","-79.971344"
"https://www.zillow.com/homedetails/508-Indian-Pines-Ln-Wexford-PA-15090/59847659_zpid/","","","812500","837500","5074","536800","03/17/2023","","","","2.45","acres","331632.65","5","5","","Pam Keczmer","No","No","","508 Indian Pines Ln","Wexford","15090","PA","USA","40.63197","-80.09017"
"https://www.zillow.com/homedetails/303-Red-Oak-Ct-Mars-PA-16046/2062233196_zpid/","","","860000","886800","5373","","03/16/2023","2976","sqft","288.98","0.5","acres","1713147.41","4","5","","Kathleen Cooper","No","No","","303 Red Oak Ct","Mars","16046","PA","USA","",""
"https://www.zillow.com/homedetails/2177-Chardonnay-Cir-Gibsonia-PA-15044/11275066_zpid/","","","856000","883000","5350","880600","03/15/2023","5061","sqft","169.14","0.6","acres","1436241.61","5","6","","Linda Honeywill","No","No","","2177 Chardonnay Cir","Gibsonia","15044","PA","USA","40.604027","-79.9864"
"https://www.zillow.com/homedetails/8-Carolina-Ave-Oakmont-PA-15139/300248940_zpid/","","","781650","","1273","1000","03/14/2023","2600","sqft","300.63","4258.1","sqft","183.57","4","4","","Lori Hummel","No","No","","8 Carolina Ave","Oakmont","15139","PA","USA","40.51174","-79.84687"
"https://www.zillow.com/homedetails/110-Greenbriar-Dr-Wexford-PA-15090/59848099_zpid/","","","765000","790600","4790","577600","03/13/2023","3319","sqft","230.49","0.79","acres","972540.05","4","5","","","No","No","","110 Greenbriar Dr","Wexford","15090","PA","USA","40.643772","-80.111496"
"https://www.zillow.com/homedetails/110-Greenbriar-Dr-D-Wexford-PA-15090/2060812143_zpid/","","","765000","","2100","","03/10/2023","3319","sqft","230.49","0.79","acres","968354.43","4","5","","Debra Donahue","No","No","# D","110 Greenbriar Dr #D","Wexford","15090","PA","USA","",""
"https://www.zillow.com/homedetails/838-N-Lincoln-Ave-Pittsburgh-PA-15233/11640279_zpid/","","","825000","852900","5168","288900","03/09/2023","3420","sqft","241.23","3380.26","sqft","244.06","6","5","","Jim Belchick","No","No","","838 N Lincoln Ave","Pittsburgh","15233","PA","USA","40.451477","-80.01542"
"https://www.zillow.com/homedetails/351-Manion-Way-Pittsburgh-PA-15201/11514673_zpid/","","","800000","827700","5015","21200","03/07/2023","3334","sqft","239.95","2051.68","sqft","389.93","4","4","","Amanda Dickens","No","No","","351 Manion Way","Pittsburgh","15201","PA","USA","40.462902","-79.95985"
"https://www.zillow.com/homedetails/1536-Shady-Ave-Pittsburgh-PA-15217/11630893_zpid/","","","835000","865500","5245","384600","03/02/2023","2900","sqft","287.93","5619.24","sqft","148.6","5","4","","Sharon Abelman","No","No","","1536 Shady Ave","Pittsburgh","15217","PA","USA","40.440716","-79.91996"
"https://www.zillow.com/homedetails/4818-Andrews-Rd-Gibsonia-PA-15044/164545974_zpid/","","","774900","804100","4873","61800","02/27/2023","","","","0.8","acres","968625","4","4","","Kelly Kuzemchak","No","No","","4818 Andrews Rd","Gibsonia","15044","PA","USA","40.596737","-79.989494"
"https://www.zillow.com/homedetails/4919-Centre-Ave-Pittsburgh-PA-15213/2114952459_zpid/","","","810000","841800","5102","","02/23/2023","5105","sqft","158.67","8001.97","sqft","101.23","3","5","","Jay Robinson","No","No","","4919 Centre Ave","Pittsburgh","15213","PA","USA","40.454086","-79.94574"
"https://www.zillow.com/homedetails/722-Filbert-St-Pittsburgh-PA-15232/11528771_zpid/","","","765468","795800","4823","530000","02/22/2023","2086","sqft","366.95","2299.97","sqft","332.82","3","3","","Joe Yost","No","No","","722 Filbert St","Pittsburgh","15232","PA","USA","40.45196","-79.93356"
"https://www.zillow.com/homedetails/4343-Lafayette-Dr-Mc-Donald-PA-15057/337926687_zpid/","","","762935","","2370","3500","02/21/2023","","","","0.71","acres","1078727.88","","","","","No","No","","4343 Lafayette Dr","Mc Donald","15057","PA","USA","40.361557","-80.18837"
"https://www.zillow.com/homedetails/165-Sewickley-Farm-Cir-Mars-PA-16046/59848438_zpid/","","","770000","802100","4861","465700","02/17/2023","3273","sqft","235.26","0.43","acres","1774197.3","4","2.5","","","No","No","","165 Sewickley Farm Cir","Mars","16046","PA","USA","40.668808","-80.12479"
"https://www.zillow.com/homedetails/1330-N-Sheridan-Ave-Pittsburgh-PA-15206/11282679_zpid/","","","815000","725200","4332","244000","02/16/2023","","","","5837.04","sqft","139.63","6","5","","Maureen States","No","No","","1330 N Sheridan Ave","Pittsburgh","15206","PA","USA","40.476418","-79.91503"
"https://www.zillow.com/homedetails/930-Washington-Rd-Pittsburgh-PA-15228/11312086_zpid/","","","830000","862600","5244","335500","02/15/2023","3526","sqft","235.39","0.31","acres","2698309.49","4","5","","Debbi Mastro","No","No","","930 Washington Rd","Pittsburgh","15228","PA","USA","40.375202","-80.04832"
"https://www.zillow.com/homedetails/107-Curtis-Dr-Wexford-PA-15090/338888235_zpid/","","","904960","","2199","7600","02/15/2023","","","","0.26","acres","3434999.79","","","","","No","No","","107 Curtis Dr","Wexford","15090","PA","USA","40.645546","-80.058205"
"https://www.zillow.com/homedetails/254-Lynn-Haven-Dr-Pittsburgh-PA-15228/11359005_zpid/","","","910000","946300","5754","470100","02/13/2023","4166","sqft","218.43","0.33","acres","2800000","4","5","","Ruth Weigers","No","No","","254 Lynn Haven Dr","Pittsburgh","15228","PA","USA","40.36713","-80.04456"
"https://www.zillow.com/homedetails/5747-Aylesboro-Ave-Pittsburgh-PA-15217/11631124_zpid/","","","850000","884900","5380","489900","02/10/2023","4195","sqft","202.62","7840.8","sqft","108.41","6","5","","Marilyn Merenstein","No","No","","5747 Aylesboro Ave","Pittsburgh","15217","PA","USA","40.44004","-79.92354"
"https://www.zillow.com/homedetails/410-English-Rd-Wexford-PA-15090/59853029_zpid/","","","799900","830800","5013","546250","02/03/2023","3356","sqft","238.35","6.71","acres","119245.68","4","4","","Geoff Smathers","No","No","","410 English Rd","Wexford","15090","PA","USA","40.649258","-80.04415"
"https://www.zillow.com/homedetails/4000-Park-Pl-Glenshaw-PA-15116/87989566_zpid/","","","815000","851400","5179","482900","01/31/2023","","","","0.46","acres","1773281.11","4","5","","Anita Nischal","No","No","","4000 Park Pl","Glenshaw","15116","PA","USA","40.542847","-79.93022"
"https://www.zillow.com/homedetails/36-Equestrian-Dr-Imperial-PA-15126/306759600_zpid/","","","831548","","1208","5900","01/24/2023","","","","0.4","acres","2079108.65","","","","","No","No","","36 Equestrian Dr","Imperial","15126","PA","USA","40.48929","-80.31533"
"https://www.zillow.com/homedetails/974-Wellesley-Rd-Pittsburgh-PA-15206/11284109_zpid/","","","835000","873600","5316","541900","01/23/2023","2650","sqft","315.09","4800","sqft","173.96","5","4","","","No","No","","974 Wellesley Rd","Pittsburgh","15206","PA","USA","40.471622","-79.91437"
"https://www.zillow.com/homedetails/202-Timber-Ridge-Rd-Pittsburgh-PA-15238/11446517_zpid/","","","853000","892900","5435","471700","01/20/2023","3432","sqft","248.54","0.59","acres","1446252.97","5","4","","Laura Sauereisen","No","No","","202 Timber Ridge Rd","Pittsburgh","15238","PA","USA","40.525364","-79.85958"
"https://www.zillow.com/homedetails/1723-Hastings-Park-Dr-S-Bridgeville-PA-15017/2059970095_zpid/","","","852115","","2764","","01/20/2023","3223","sqft","264.39","6534","sqft","130.41","4","3","","Thomas Despard","No","No","","1723 Hastings Park Dr S","Bridgeville","15017","PA","USA","",""
"https://www.zillow.com/homedetails/105-Curtis-Dr-Wexford-PA-15090/2059823160_zpid/","","","855667","1220100","7621","","01/18/2023","4650","sqft","184.01","0.51","acres","1694220.66","4","4","","","No","No","","105 Curtis Dr","Wexford","15090","PA","USA","40.62617","-80.077545"
"https://www.zillow.com/homedetails/5737-Aylesboro-Ave-Pittsburgh-PA-15217/11631113_zpid/","","","835000","875300","5330","356500","01/13/2023","2141","sqft","390","9456.88","sqft","88.3","3","3","","Michelle Mattioli","No","No","","5737 Aylesboro Ave","Pittsburgh","15217","PA","USA","40.44002","-79.92398"
"https://www.zillow.com/homedetails/1800-Hassam-Rd-Coraopolis-PA-15108/11437713_zpid/","","","900000","944700","5756","704800","01/06/2023","5156","sqft","174.55","","","","4","4","","Darian Law","No","No","","1800 Hassam Rd","Coraopolis","15108","PA","USA","40.493332","-80.16737"
"https://www.zillow.com/homedetails/206-Lakeview-Dr-Coraopolis-PA-15108/11476906_zpid/","","","900000","944800","5757","936800","01/05/2023","6449","sqft","139.56","1.94","acres","463917.53","4","6","","Adam Slivka","No","No","","206 Lakeview Dr","Coraopolis","15108","PA","USA","40.472237","-80.168625"
"https://www.zillow.com/homedetails/1685-Northgate-Dr-Pittsburgh-PA-15241/11434172_zpid/","","","825500","869000","5295","376000","01/04/2023","3222","sqft","256.21","3920.4","sqft","210.57","4","4","","Cindy Demel","No","No","","1685 Northgate Dr","Pittsburgh","15241","PA","USA","40.34599","-80.08662"
"https://www.zillow.com/homedetails/2304-Southampton-Dr-Pittsburgh-PA-15241/87993802_zpid/","","","850000","892700","5440","553100","01/03/2023","4152","sqft","204.72","0.4","acres","2125000","4","5","","Aziz Ibrahim","No","No","","2304 Southampton Dr","Pittsburgh","15241","PA","USA","40.337208","-80.09267"
"https://www.zillow.com/homedetails/5875-Aylesboro-Ave-Pittsburgh-PA-15217/11631288_zpid/","","","875000","919500","5604","317500","12/30/2022","3655","sqft","239.4","5273","sqft","165.94","6","2.5","","","No","No","","5875 Aylesboro Ave","Pittsburgh","15217","PA","USA","40.440193","-79.91996"
"https://www.zillow.com/homedetails/14-Darlington-Ct-Pittsburgh-PA-15217/11631352_zpid/","","","829000","871300","5310","425000","12/29/2022","1986","sqft","417.42","4181","sqft","198.28","3","4","","","No","No","","14 Darlington Ct","Pittsburgh","15217","PA","USA","40.43703","-79.932304"
"https://www.zillow.com/homedetails/1035-Murray-Hill-Ave-Pittsburgh-PA-15217/11629142_zpid/","","","860000","849100","5144","353100","12/12/2022","2960","sqft","290.54","8616.17","sqft","99.81","4","3","","Laura Waxter","No","No","","1035 Murray Hill Ave","Pittsburgh","15217","PA","USA","40.449505","-79.92729"
"https://www.zillow.com/homedetails/615-S-Aiken-Ave-Pittsburgh-PA-15232/11528660_zpid/","","","790000","832300","5073","545000","12/09/2022","","","","2744.28","sqft","287.87","5","4","","Austin Rusert","No","No","","615 S Aiken Ave","Pittsburgh","15232","PA","USA","40.45233","-79.93621"
"https://www.zillow.com/homedetails/5909-Hampton-St-Pittsburgh-PA-15206/11621089_zpid/","","","880000","927100","5651","267100","12/09/2022","4048","sqft","217.39","8940","sqft","98.43","7","5","","Pamela D'Alessandro","No","No","","5909 Hampton St","Pittsburgh","15206","PA","USA","40.474213","-79.9201"
"https://www.zillow.com/homedetails/7006-Oak-Park-Dr-Gibsonia-PA-15044/59854417_zpid/","","","810000","853600","5202","360200","12/07/2022","","","","0.64","acres","1265625","4","4","","Lisa Wilson","No","No","","7006 Oak Park Dr","Gibsonia","15044","PA","USA","40.664978","-80.017075"
"https://www.zillow.com/homedetails/137-43rd-St-Pittsburgh-PA-15201/11512741_zpid/","","","775000","673800","4043","63400","12/05/2022","2223","sqft","348.63","3120","sqft","248.4","2","2.5","","","No","No","","137 43rd St","Pittsburgh","15201","PA","USA","40.472122","-79.96194"
"https://www.zillow.com/homedetails/119-Park-View-Dr-Sewickley-PA-15143/11587566_zpid/","","","850000","896200","5462","577600","12/02/2022","4348","sqft","195.49","4.47","acres","190211.92","4","4","","Sandra Gratton","No","No","","119 Park View Dr","Sewickley","15143","PA","USA","40.56654","-80.11737"
"https://www.zillow.com/homedetails/225-Venango-Trl-Mars-PA-16046/164318820_zpid/","","","845000","867600","5236","435700","12/02/2022","3365","sqft","251.11","8375","sqft","100.9","5","5","","","No","No","","225 Venango Trl","Mars","16046","PA","USA","40.667072","-80.08877"
"https://www.zillow.com/homedetails/930-W-North-Ave-Pittsburgh-PA-15233/11376506_zpid/","","","810000","791700","4824","432300","12/01/2022","5256","sqft","154.11","2500.34","sqft","323.96","4","4","","Heather Edmondson","No","No","","930 W North Ave","Pittsburgh","15233","PA","USA","40.453526","-80.018265"
"https://www.zillow.com/homedetails/3-Parkridge-Ln-Pittsburgh-PA-15228/11359500_zpid/","","","850000","904500","5435","358700","11/30/2022","","","","0.3","acres","2833333.33","4","4","","Nancy McKenna","No","No","","3 Parkridge Ln","Pittsburgh","15228","PA","USA","40.37126","-80.05558"
"https://www.zillow.com/homedetails/2120-William-Penn-Hwy-Pittsburgh-PA-15221/11418100_zpid/","","","767000","808900","4930","305100","11/30/2022","4698","sqft","163.26","1.55","acres","494838.71","4","5","","Mary Anne Hanna Lang","No","No","","2120 William Penn Hwy","Pittsburgh","15221","PA","USA","40.444637","-79.85895"
"https://www.zillow.com/homedetails/3042-Spruce-Rd-Gibsonia-PA-15044/300248727_zpid/","","","802234","736300","4444","590000","11/30/2022","4043","sqft","198.43","8785","sqft","91.32","4","4","","","No","No","","3042 Spruce Rd","Gibsonia","15044","PA","USA","40.660503","-80.010956"
"https://www.zillow.com/homedetails/825-Western-Ave-Pittsburgh-PA-15233/164501591_zpid/","","","808750","832100","5071","502100","11/29/2022","4272","sqft","189.31","2748.64","sqft","294.24","3","4","","Darla Jobkar","No","No","","825 Western Ave","Pittsburgh","15233","PA","USA","40.45199","-80.01502"
"https://www.zillow.com/homedetails/320-Macintosh-Dr-Mars-PA-16046/87987801_zpid/","","","788000","818900","4977","600500","11/28/2022","4062","sqft","193.99","1.04","acres","758348.57","5","4","","Geoff Smathers","No","No","","320 Macintosh Dr","Mars","16046","PA","USA","40.668705","-80.06276"
"https://www.zillow.com/homedetails/1008-N-Sheridan-Ave-Pittsburgh-PA-15206/11621082_zpid/","","","790000","833600","5078","282500","11/21/2022","3254","sqft","242.78","5118.3","sqft","154.35","5","4","","Jenn Reddinger","No","No","","1008 N Sheridan Ave","Pittsburgh","15206","PA","USA","40.472668","-79.91671"
"https://www.zillow.com/homedetails/103-Field-Brook-Ln-Gibsonia-PA-15044/164272247_zpid/","","","899000","948600","5778","609700","11/21/2022","3902","sqft","230.39","1.14","acres","791582.28","5","4","","Catherine Blandi","No","No","","103 Field Brook Ln","Gibsonia","15044","PA","USA","40.636814","-79.94676"
"https://www.zillow.com/homedetails/1522-Brimfield-Dr-Sewickley-PA-15143/11616334_zpid/","","","785000","828400","5045","439200","11/18/2022","3814","sqft","205.82","0.53","acres","1470037.45","4","4","","Laura Donaldson","No","No","","1522 Brimfield Dr","Sewickley","15143","PA","USA","40.575302","-80.08481"
"https://www.zillow.com/homedetails/342-Crest-Ln-Mars-PA-16046/2062726564_zpid/","","","799000","","2070","","11/18/2022","3164","sqft","252.53","0.25","acres","3196000","4","3","","Kristi Stebler","No","No","","342 Crest Ln","Mars","16046","PA","USA","",""
"https://www.zillow.com/homedetails/4233-Parkman-Ave-Pittsburgh-PA-15213/11407519_zpid/","","","892000","941400","5734","320300","11/17/2022","2660","sqft","335.34","6786.65","sqft","131.43","5","4","","Eileen Lusk","No","No","","4233 Parkman Ave","Pittsburgh","15213","PA","USA","40.44816","-79.957535"
"https://www.zillow.com/homedetails/40-Wellington-Dr-Pittsburgh-PA-15229/250758475_zpid/","","","800000","844400","5142","442700","11/15/2022","3232","sqft","247.52","0.42","acres","1901140.68","4","4","","Debra Donahue","No","No","","40 Wellington Dr","Pittsburgh","15229","PA","USA","40.522514","-80.039825"
"https://www.zillow.com/homedetails/1425-S-Negley-Ave-Pittsburgh-PA-15217/11630662_zpid/","","","810000","855000","5206","405300","11/14/2022","3555","sqft","227.85","4761.11","sqft","170.13","3","4","","Jan Barkley","No","No","","1425 S Negley Ave","Pittsburgh","15217","PA","USA","40.442337","-79.9255"
"https://www.zillow.com/homedetails/217-Pine-Crest-Ct-Gibsonia-PA-15044/121887154_zpid/","","","830000","876500","5335","584300","11/07/2022","","","","0.67","acres","1238805.97","4","5","","Kelly Cheponis","No","No","","217 Pine Crest Ct","Gibsonia","15044","PA","USA","40.649967","-80.02216"
"https://www.zillow.com/homedetails/905-Highlander-Cir-Wexford-PA-15090/59847729_zpid/","","","770000","820700","4995","382800","11/04/2022","2736","sqft","281.43","1.85","acres","415766.74","4","3","","Mindy Pry","No","No","","905 Highlander Cir","Wexford","15090","PA","USA","40.650726","-80.108284"
"https://www.zillow.com/homedetails/301-Dorseyville-Rd-Pittsburgh-PA-15215/11411390_zpid/","","","800000","845000","5142","269600","11/03/2022","","","","2.97","acres","269360.27","3","4","","Jane Herrmann","No","No","","301 Dorseyville Rd","Pittsburgh","15215","PA","USA","40.51887","-79.93118"
"https://www.zillow.com/homedetails/377-Midway-Dr-Mc-Kees-Rocks-PA-15136/11321865_zpid/","","","900000","950700","5786","91700","11/02/2022","2156","sqft","417.44","1.63","acres","552690.57","3","2","","","No","No","","377 Midway Dr","Mc Kees Rocks","15136","PA","USA","40.474133","-80.11093"
"https://www.zillow.com/homedetails/936-Valleyview-Rd-Pittsburgh-PA-15243/11252780_zpid/","","","829900","876700","5335","461600","11/01/2022","3323","sqft","249.74","0.54","acres","1539703.15","4","5","","Michele Belice","No","No","","936 Valleyview Rd","Pittsburgh","15243","PA","USA","40.387547","-80.07115"
"https://www.zillow.com/homedetails/1301-Malvern-Ave-Pittsburgh-PA-15217/11533902_zpid/","","","830000","876800","5335","542800","11/01/2022","2061","sqft","402.72","4865.65","sqft","170.58","4","4","","Lisa Gasperoni","No","No","","1301 Malvern Ave","Pittsburgh","15217","PA","USA","40.44226","-79.934784"
"https://www.zillow.com/homedetails/308-Scarlet-Cir-Wexford-PA-15090/59853317_zpid/","","","790000","834500","5078","437700","10/31/2022","","","","0.41","acres","1926829.27","4","4","","Janet Bunner","No","No","","308 Scarlet Cir","Wexford","15090","PA","USA","40.654667","-80.05804"
"https://www.zillow.com/homedetails/143-Conover-Rd-Pittsburgh-PA-15208/11286374_zpid/","","","850000","897900","5462","659900","10/28/2022","2147","sqft","395.9","5998.21","sqft","141.71","4","5","","Bennett Blaxter-Kotkiewicz","No","No","","143 Conover Rd","Pittsburgh","15208","PA","USA","40.453125","-79.911705"
"https://www.zillow.com/homedetails/124-Woodland-Dr-Pittsburgh-PA-15228/11397013_zpid/","","","850000","897900","5462","390500","10/28/2022","3462","sqft","245.52","8694.58","sqft","97.76","4","5","","Lauren Coulter","No","No","","124 Woodland Dr","Pittsburgh","15228","PA","USA","40.361614","-80.038185"
"https://www.zillow.com/homedetails/122-Midway-Dr-Mc-Kees-Rocks-PA-15136/164264973_zpid/","","","900000","950800","5784","451900","10/28/2022","4190","sqft","214.8","1.43","acres","629414.64","5","4","","Wayne Carson","No","No","","122 Midway Dr","Mc Kees Rocks","15136","PA","USA","40.474167","-80.11019"
"https://www.zillow.com/homedetails/5817-Kentucky-Ave-Pittsburgh-PA-15232/11628824_zpid/","","","766700","809900","4927","406200","10/26/2022","3442","sqft","222.75","3006","sqft","255.06","3","2","","","No","No","","5817 Kentucky Ave","Pittsburgh","15232","PA","USA","40.45163","-79.9274"
"https://www.zillow.com/homedetails/1301-Red-Mud-Hollow-Rd-Sewickley-PA-15143/304889641_zpid/","","","823500","827100","4929","397900","10/25/2022","3080","sqft","267.37","16.27","acres","50614.64","3","2","","","No","No","","1301 Red Mud Hollow Rd","Sewickley","15143","PA","USA","40.569298","-80.11896"
"https://www.zillow.com/homedetails/268-Fisk-St-Pittsburgh-PA-15201/11513454_zpid/","","","799000","844100","5133","603800","10/24/2022","2708","sqft","295.05","2700.72","sqft","295.85","4","5","","Cindy Ingram","No","No","","268 Fisk St","Pittsburgh","15201","PA","USA","40.467594","-79.95982"
"https://www.zillow.com/homedetails/104-Curtis-Dr-Wexford-PA-15090/338888249_zpid/","","","785600","829900","5047","605000","10/24/2022","4190","sqft","187.49","0.3","acres","2580749.32","4","4","","","No","No","","104 Curtis Dr","Wexford","15090","PA","USA","40.645226","-80.05879"
"https://www.zillow.com/homedetails/217-Pine-Grove-Ct-Baden-PA-15005/59848217_zpid/","","","781000","824600","5017","505800","10/20/2022","3444","sqft","226.77","1.15","acres","679130.43","4","5","","Paula Hinston","No","No","","217 Pine Grove Ct","Baden","15005","PA","USA","40.64739","-80.1173"
"https://www.zillow.com/homedetails/1525-Windsor-Ct-Pittsburgh-PA-15241/54623801_zpid/","","","825000","871100","5297","481200","10/14/2022","3152","sqft","261.74","0.4","acres","2049689.44","4","5","","Adam Cannon","No","No","","1525 Windsor Ct","Pittsburgh","15241","PA","USA","40.348167","-80.08467"
"https://www.zillow.com/homedetails/211-Tamarack-Dr-Mars-PA-16046/121507806_zpid/","","","880000","927500","5677","49250","10/13/2022","4890","sqft","179.96","0.53","acres","1663516.07","4","5","","Kim Marie Angiulli","No","No","","211 Tamarack Dr","Mars","16046","PA","USA","40.6732","-80.0066"
"https://www.zillow.com/homedetails/304-Barberry-Ct-Mars-PA-16046/67345485_zpid/","","","790000","834000","5071","540000","10/12/2022","3572","sqft","221.16","0.43","acres","1854460.09","4","4","","Judi Sahayda","No","No","","304 Barberry Ct","Mars","16046","PA","USA","40.669605","-80.123665"
"https://www.zillow.com/homedetails/101-Park-View-Dr-Sewickley-PA-15143/11587559_zpid/","","","895000","944800","5745","508000","10/11/2022","3624","sqft","246.96","2.69","acres","332713.75","4","4","","Lisa Maleski","No","No","","101 Park View Dr","Sewickley","15143","PA","USA","40.566494","-80.12263"
"https://www.zillow.com/homedetails/101-Marketplace-Ave-Coraopolis-PA-15108/2063136549_zpid/","","","825000","870900","5295","","10/11/2022","3281","sqft","251.45","0.37","acres","2229729.73","4","5","","David Bruckner","No","No","","101 Marketplace Ave","Coraopolis","15108","PA","USA","40.472027","-80.187164"
"https://www.zillow.com/homedetails/11-Wilson-Dr-Pittsburgh-PA-15202/11405513_zpid/","","","775000","817900","4974","374900","10/07/2022","3136","sqft","247.13","0.46","acres","1698071.87","4","4","","Betsy Wotherspoon","No","No","","11 Wilson Dr","Pittsburgh","15202","PA","USA","40.513683","-80.07502"
"https://www.zillow.com/homedetails/205-Edgeworth-Ln-Sewickley-PA-15143/11518620_zpid/","","","896000","945600","5750","490000","10/07/2022","","","","0.45","acres","1991111.11","4","3","","Kathleen Barge","No","No","","205 Edgeworth Ln","Sewickley","15143","PA","USA","40.549797","-80.19597"
"https://www.zillow.com/homedetails/205-Lakeview-Dr-Coraopolis-PA-15108/11476910_zpid/","","","865000","912900","5551","401700","10/06/2022","","","","1.35","acres","643122.68","4","5","","Arah Katz","No","No","","205 Lakeview Dr","Coraopolis","15108","PA","USA","40.470345","-80.16911"
"https://www.zillow.com/homedetails/1719-Sturbridge-Dr-Sewickley-PA-15143/11616400_zpid/","","","795000","839000","5102","578600","10/06/2022","4963","sqft","160.19","1.16","acres","685344.83","5","6","","Michael Toretti","No","No","","1719 Sturbridge Dr","Sewickley","15143","PA","USA","40.570076","-80.08588"
"https://www.zillow.com/homedetails/111-W-Wild-Cherry-Dr-Mars-PA-16046/87990170_zpid/","","","810000","854800","5198","616900","10/06/2022","4400","sqft","184.09","1.05","acres","771428.57","5","6","","David Clements","No","No","","111 W Wild Cherry Dr","Mars","16046","PA","USA","40.667595","-80.07053"
"https://www.zillow.com/homedetails/103-Curtis-Dr-Wexford-PA-15090/2064300421_zpid/","","","799990","","2199","","10/06/2022","2670","sqft","299.62","0.33","acres","2395179.64","3","3","","David Bruckner","No","No","","103 Curtis Dr","Wexford","15090","PA","USA","",""
"https://www.zillow.com/homedetails/5411-Albemarle-Ave-Pittsburgh-PA-15217/11534022_zpid/","","","902000","951900","5788","696000","10/05/2022","3022","sqft","298.48","7501","sqft","120.25","4","5","","","No","No","","5411 Albemarle Ave","Pittsburgh","15217","PA","USA","40.4401","-79.934616"
"https://www.zillow.com/homedetails/3206-Wagner-Rd-Allison-Park-PA-15101/11621666_zpid/","","","828800","742500","4443","311500","10/03/2022","1292","sqft","641.49","1.38","acres","598844.33","3","3","","","No","No","","3206 Wagner Rd","Allison Park","15101","PA","USA","40.574093","-79.92534"
"https://www.zillow.com/homedetails/2761-Indian-Spring-Ln-Allison-Park-PA-15101/11644795_zpid/","","","839000","887800","5381","291100","09/30/2022","3300","sqft","254.24","2.4","acres","350166.94","4","4","","Linda Dibucci","No","No","","2761 Indian Spring Ln","Allison Park","15101","PA","USA","40.58611","-79.95938"
"https://www.zillow.com/homedetails/151-Mount-Vernon-Dr-Monroeville-PA-15146/46326968_zpid/","","","790000","835900","5067","635900","09/30/2022","4462","sqft","177.05","1.56","acres","506410.26","6","6","","Lisa Haberstroh","No","No","","151 Mount Vernon Dr","Monroeville","15146","PA","USA","40.40467","-79.74052"
"https://www.zillow.com/homedetails/958-Washington-Rd-Pittsburgh-PA-15228/11358228_zpid/","","","880000","931100","5644","182400","09/29/2022","3000","sqft","293.33","0.35","acres","2550724.64","6","3","","","No","No","","958 Washington Rd","Pittsburgh","15228","PA","USA","40.374454","-80.04873"
"https://www.zillow.com/homedetails/704-Mulkerrin-Ct-Mars-PA-16046/300249316_zpid/","","","900000","952100","5772","657500","09/28/2022","4230","sqft","212.77","0.53","acres","1683186.83","5","5","","Frank Ciavarra","No","No","","704 Mulkerrin Ct","Mars","16046","PA","USA","40.65991","-80.06319"
"https://www.zillow.com/homedetails/319-Logan-St-Sewickley-PA-15143/11480529_zpid/","","","812500","859500","5209","420000","09/27/2022","3768","sqft","215.63","5000.69","sqft","162.48","5","5","","Adam Cannon","No","No","","319 Logan St","Sewickley","15143","PA","USA","40.537117","-80.180565"
"https://www.zillow.com/homedetails/508-W-Jefferson-St-Pittsburgh-PA-15212/333136469_zpid/","","","810000","856400","5191","426800","09/22/2022","2766","sqft","292.84","3420","sqft","236.84","3","2","","","No","No","","508 W Jefferson St","Pittsburgh","15212","PA","USA","40.45929","-80.013214"
"https://www.zillow.com/homedetails/109-Curtis-Dr-Wexford-PA-15090/338888236_zpid/","","","765605","809400","4906","431600","09/22/2022","2820","sqft","271.49","0.27","acres","2795921.68","3","3","","","No","No","","109 Curtis Dr","Wexford","15090","PA","USA","40.645744","-80.05822"
"https://www.zillow.com/homedetails/115-Hartwood-Dr-Pittsburgh-PA-15208/11287774_zpid/","","","860000","909100","5510","487800","09/21/2022","2430","sqft","353.91","4356","sqft","197.43","4","4","","Roslyn Neiman","No","No","","115 Hartwood Dr","Pittsburgh","15208","PA","USA","40.448128","-79.906624"
"https://www.zillow.com/homedetails/127-Sweetwater-Dr-Sewickley-PA-15143/115826576_zpid/","","","850000","898600","5446","502600","09/21/2022","3483","sqft","244.04","0.51","acres","1679841.9","5","6","","Robyn Jones","No","No","","127 Sweetwater Dr","Sewickley","15143","PA","USA","40.573254","-80.12164"
"https://www.zillow.com/homedetails/1903-Kimberly-Ct-Sewickley-PA-15143/300319903_zpid/","","","860000","","5361","605700","09/21/2022","4398","sqft","195.54","0.46","acres","1861471.86","4","4","","Deborah Platts","No","No","","1903 Kimberly Ct","Sewickley","15143","PA","USA","40.580585","-80.09307"
"https://www.zillow.com/homedetails/145-Spang-Rd-Baden-PA-15005/87986482_zpid/","","","860000","908900","5509","324600","09/19/2022","","","","9.92","acres","86728.52","4","3","","Georgie Smigel","No","No","","145 Spang Rd","Baden","15005","PA","USA","40.640137","-80.138756"
"https://www.zillow.com/homedetails/2504-Acorn-Ct-Wexford-PA-15090/11257510_zpid/","","","762000","805100","4880","418700","09/16/2022","3730","sqft","204.29","0.5","acres","1524000","4","5","","Betsy Wotherspoon","No","No","","2504 Acorn Ct","Wexford","15090","PA","USA","40.59657","-80.07342"
"https://www.zillow.com/homedetails/1190-Brook-View-Ct-Pittsburgh-PA-15237/338883275_zpid/","","","898289","949100","5753","528900","09/16/2022","3668","sqft","244.9","","","","4","2.5","","","No","No","","1190 Brook View Ct","Pittsburgh","15237","PA","USA","40.559227","-80.06275"
"https://www.zillow.com/homedetails/108-English-Farm-Dr-Wexford-PA-15090/121886962_zpid/","","","839000","886400","5372","699500","09/15/2022","4558","sqft","184.07","1.05","acres","801490.26","4","5","","Catherine Blandi","No","No","","108 English Farm Dr","Wexford","15090","PA","USA","40.647953","-80.045456"
"https://www.zillow.com/homedetails/943-Broad-Meadow-Dr-Pittsburgh-PA-15237/2067016107_zpid/","","","867750","","1834","","09/15/2022","","","","","","","","","","","No","No","","943 Broad Meadow Dr","Pittsburgh","15237","PA","USA","",""
"https://www.zillow.com/homedetails/506-W-Jefferson-St-Pittsburgh-PA-15212/333136327_zpid/","","","800000","","1651","1800","09/13/2022","","","","3240","sqft","246.91","","","","","No","No","","506 W Jefferson St","Pittsburgh","15212","PA","USA","40.4593","-80.01315"
"https://www.zillow.com/homedetails/506-Jefferson-Ctr-Pittsburgh-PA-15212/2067321133_zpid/","","","800000","","1402","","09/13/2022","2350","sqft","340.43","6969.6","sqft","114.78","3","3","","CHRISTOPHER CARR","No","No","","506 Jefferson Ctr","Pittsburgh","15212","PA","USA","",""
"https://www.zillow.com/homedetails/4769-Wallingford-St-Pittsburgh-PA-15213/11528288_zpid/","","","875000","924100","5601","590000","09/12/2022","4293","sqft","203.82","8598.74","sqft","101.76","6","4","","Pia Colucci","No","No","","4769 Wallingford St","Pittsburgh","15213","PA","USA","40.452507","-79.94691"
"https://www.zillow.com/homedetails/425-McKean-Dr-Wexford-PA-15090/87989074_zpid/","","","853000","900600","5458","580000","09/09/2022","3230","sqft","264.09","0.73","acres","1176551.72","6","5","","Deborah Kane","No","No","","425 McKean Dr","Wexford","15090","PA","USA","40.64272","-80.1149"
"https://www.zillow.com/homedetails/322-Balsa-Dr-Wexford-PA-15090/242630641_zpid/","","","830000","876300","5311","495000","09/09/2022","4632","sqft","179.19","0.61","acres","1356652.5","4","4","","Tony Nucci","No","No","","322 Balsa Dr","Wexford","15090","PA","USA","40.63603","-80.01997"
"https://www.zillow.com/homedetails/223-Tamarack-Dr-Mars-PA-16046/204732528_zpid/","","","841018","864800","5185","41850","09/08/2022","3616","sqft","232.58","0.51","acres","1662090.91","4","4","","Christine Wilson","No","No","","223 Tamarack Dr","Mars","16046","PA","USA","40.673393","-80.00727"
"https://www.zillow.com/homedetails/291-Magnolia-Pl-Pittsburgh-PA-15228/11313413_zpid/","","","772500","815400","4942","275800","09/07/2022","3000","sqft","257.5","7000","sqft","110.36","4","5","","","No","No","","291 Magnolia Pl","Pittsburgh","15228","PA","USA","40.377895","-80.05016"
"https://www.zillow.com/homedetails/351-Boundary-St-Sewickley-PA-15143/164712828_zpid/","","","860000","879000","5271","642400","09/06/2022","3448","sqft","249.42","6764.87","sqft","127.13","4","4","","Laura Palmer","No","No","","351 Boundary St","Sewickley","15143","PA","USA","40.53379","-80.1764"
"https://www.zillow.com/homedetails/1316-Wellington-Dr-Pittsburgh-PA-15241/11434252_zpid/","","","860000","907500","5499","629500","09/02/2022","4683","sqft","183.64","0.31","acres","2739726.03","6","6","","Julie Welter","No","No","","1316 Wellington Dr","Pittsburgh","15241","PA","USA","40.347458","-80.086174"
"https://www.zillow.com/homedetails/212-Highland-Rd-Blawnox-PA-15238/11488656_zpid/","","","895000","944500","5723","515000","09/02/2022","3660","sqft","244.54","1.27","acres","703063.63","5","5","","Molly Howard","No","No","","212 Highland Rd","Blawnox","15238","PA","USA","40.531956","-79.86225"
"https://www.zillow.com/homedetails/5710-Lynne-Haven-Rd-Pittsburgh-PA-15217/11629425_zpid/","","","834500","880600","5336","301400","09/02/2022","","","","5135.72","sqft","162.49","4","5","","Emily Fraser","No","No","","5710 Lynne Haven Rd","Pittsburgh","15217","PA","USA","40.446777","-79.92709"
"https://www.zillow.com/homedetails/117-Patriot-Ln-Sewickley-PA-15143/126229645_zpid/","","","875000","838200","5097","563600","09/02/2022","2852","sqft","306.8","3127.61","sqft","279.77","2","3","","Emily Wilhelm","No","No","","117 Patriot Ln","Sewickley","15143","PA","USA","40.53776","-80.11836"
"https://www.zillow.com/homedetails/316-Roup-Ave-Pittsburgh-PA-15232/11524488_zpid/","","","860000","907500","5498","527000","09/01/2022","4424","sqft","194.39","7000.09","sqft","122.86","5","5","","Melissa Barker","No","No","","316 Roup Ave","Pittsburgh","15232","PA","USA","40.46111","-79.93548"
"https://www.zillow.com/homedetails/1729-Waterford-Ct-Pittsburgh-PA-15241/87995752_zpid/","","","870000","918000","5562","720000","09/01/2022","4761","sqft","182.73","0.5","acres","1750150.88","6","6","","Amanda Walton","No","No","","1729 Waterford Ct","Pittsburgh","15241","PA","USA","40.357136","-80.088524"
"https://www.zillow.com/homedetails/111-Stillwater-Ln-Sewickley-PA-15143/164507066_zpid/","","","830000","867000","5255","461000","08/31/2022","2628","sqft","315.83","0.41","acres","2027852.43","4","4","","Mark Jennings","No","No","","111 Stillwater Ln","Sewickley","15143","PA","USA","40.5745","-80.12286"
"https://www.zillow.com/homedetails/10-Carolina-Ave-Oakmont-PA-15139/300248759_zpid/","","","875000","922900","5594","362600","08/31/2022","2698","sqft","324.31","4260.17","sqft","205.39","4","4","","Lori Hummel","No","No","","10 Carolina Ave","Oakmont","15139","PA","USA","40.511734","-79.84674"
"https://www.zillow.com/homedetails/6910-Meade-St-Pittsburgh-PA-15208/11287221_zpid/","","","799879","843900","5112","238700","08/29/2022","4183","sqft","191.22","0.28","acres","2856710.71","6","4","","Charlene Haislip","No","No","","6910 Meade St","Pittsburgh","15208","PA","USA","40.451984","-79.90714"
"https://www.zillow.com/homedetails/1708-Lacosta-Ct-Pittsburgh-PA-15237/11588798_zpid/","","","800000","844000","5113","382700","08/29/2022","3942","sqft","202.94","0.64","acres","1250781.74","5","5","","Geralyn Smith","No","No","","1708 Lacosta Ct","Pittsburgh","15237","PA","USA","40.56766","-80.080086"
"https://www.zillow.com/homedetails/801-Elm-Spring-Rd-Pittsburgh-PA-15243/11658735_zpid/","","","840000","886200","5368","479800","08/29/2022","3150","sqft","266.67","","","","4","3","","Michele Belice","No","No","","801 Elm Spring Rd","Pittsburgh","15243","PA","USA","40.387306","-80.06332"
"https://www.zillow.com/homedetails/4017-Castor-Ln-Finleyville-PA-15332/164219621_zpid/","","","830000","875300","5305","411100","08/29/2022","","","","1.06","acres","780588.73","4","4","","Anthony Ferrare","No","No","","4017 Castor Ln","Finleyville","15332","PA","USA","40.277332","-79.943855"
"https://www.zillow.com/homedetails/1730-Hastings-Mill-Rd-Pittsburgh-PA-15241/11551291_zpid/","","","775000","817400","4952","581000","08/26/2022","6648","sqft","116.58","1","acres","775000","5","6","","Diane Horvath","No","No","","1730 Hastings Mill Rd","Pittsburgh","15241","PA","USA","40.325577","-80.08493"
"https://www.zillow.com/homedetails/22-Pintail-Dr-Pittsburgh-PA-15238/11561754_zpid/","","","875000","922900","5591","580300","08/26/2022","3714","sqft","235.6","1.31","acres","670498.08","4","5","","Trudy Ward","No","No","","22 Pintail Dr","Pittsburgh","15238","PA","USA","40.55172","-79.90753"
"https://www.zillow.com/homedetails/913-Beech-Ave-Pittsburgh-PA-15233/11611749_zpid/","","","777500","820100","4968","630000","08/26/2022","","","","5662.8","sqft","137.3","4","4","","Susan Meadowcroft","No","No","","913 Beech Ave","Pittsburgh","15233","PA","USA","40.452488","-80.01732"
"https://www.zillow.com/homedetails/918-Hastings-St-Pittsburgh-PA-15217/11629520_zpid/","","","800000","843800","5111","391800","08/25/2022","3069","sqft","260.67","5000.69","sqft","159.98","6","4","","Rebekah Siegel","No","No","","918 Hastings St","Pittsburgh","15217","PA","USA","40.44603","-79.920525"
"https://www.zillow.com/homedetails/1041-Blackberry-Dr-Sewickley-PA-15143/164712880_zpid/","","","865000","864200","5180","612500","08/25/2022","3490","sqft","247.85","0.92","acres","940217.39","4","5","","Nicole Kriebel","No","No","","1041 Blackberry Dr","Sewickley","15143","PA","USA","40.573112","-80.11022"
"https://www.zillow.com/homedetails/152-Riverwatch-Dr-Blawnox-PA-15238/92379286_zpid/","","","806000","758700","4567","410000","08/23/2022","3310","sqft","243.5","0.31","acres","2566878.98","4","4","","Angela Williams","No","No","","152 Riverwatch Dr","Blawnox","15238","PA","USA","40.50097","-79.85526"
"https://www.zillow.com/homedetails/219-Timber-Ridge-Rd-Pittsburgh-PA-15238/11446625_zpid/","","","875000","922700","5588","465400","08/22/2022","3603","sqft","242.85","4142.56","sqft","211.22","5","4","","Barbara Bolls","No","No","","219 Timber Ridge Rd","Pittsburgh","15238","PA","USA","40.52412","-79.86253"
"https://www.zillow.com/homedetails/270-Lebanon-Ave-Pittsburgh-PA-15228/11311599_zpid/","","","905000","953300","5771","570000","08/19/2022","3020","sqft","299.67","0.46","acres","1946655.19","5","4","","Michele Belice","No","No","","270 Lebanon Ave","Pittsburgh","15228","PA","USA","40.3779","-80.04914"
"https://www.zillow.com/homedetails/954-Washington-Rd-Pittsburgh-PA-15228/11358229_zpid/","","","799000","842300","5101","591900","08/19/2022","","","","0.36","acres","2219444.44","5","5","","Diana Mathison","No","No","","954 Washington Rd","Pittsburgh","15228","PA","USA","40.3747","-80.048584"
"https://www.zillow.com/homedetails/6-Fairway-Rd-Sewickley-PA-15143/11642059_zpid/","","","864073","910900","5516","472000","08/19/2022","3964","sqft","217.98","1.53","acres","563280.96","5","4","","Liz Fecko","No","No","","6 Fairway Rd","Sewickley","15143","PA","USA","40.583237","-80.17432"
"https://www.zillow.com/homedetails/102-Miller-Dr-Wexford-PA-15090/242630582_zpid/","","","899999","948100","5747","620000","08/19/2022","3352","sqft","268.5","0.75","acres","1199518.86","5","4","","Mishaal Paniwala","No","No","","102 Miller Dr","Wexford","15090","PA","USA","40.640965","-80.056564"
"https://www.zillow.com/homedetails/6-Fairway-Dr-Sewickley-PA-15143/2062931698_zpid/","","","864073","","1616","","08/19/2022","","","","","","","","","","","No","No","","6 Fairway Dr","Sewickley","15143","PA","USA","40.583454","-80.174385"
"https://www.zillow.com/homedetails/9920-Legrand-Dr-Wexford-PA-15090/11258660_zpid/","","","910000","959100","5807","660000","08/15/2022","4706","sqft","193.37","0.82","acres","1109620.78","6","7","","Betsy Wotherspoon","No","No","","9920 Legrand Dr","Wexford","15090","PA","USA","40.590675","-80.02418"
"https://www.zillow.com/homedetails/5821-Hays-St-Pittsburgh-PA-15206/11623010_zpid/","","","870000","886800","5552","366100","","3870","sqft","224.81","2500.34","sqft","347.95","3","4","","Laura Kingsbury","No","No","","5821 Hays St","Pittsburgh","15206","PA","USA","40.46851","-79.92309"
"https://www.zillow.com/homedetails/706-Onondaga-Cir-Mars-PA-16046/164305624_zpid/","","","769500","810300","4911","368800","08/15/2022","","","","3765.32","sqft","204.36","3","3","","Tony Nucci","No","No","","706 Onondaga Cir","Mars","16046","PA","USA","40.664986","-80.089386"
"https://www.zillow.com/homedetails/1908-Station-St-Wexford-PA-15090/306759675_zpid/","","","790375","832300","5044","581500","08/15/2022","3258","sqft","242.6","0.51","acres","1554344.7","5","4.5","","","No","No","","1908 Station St","Wexford","15090","PA","USA","40.62348","-80.06546"
"https://www.zillow.com/homedetails/141-Westland-Dr-Pittsburgh-PA-15217/11289824_zpid/","","","825000","869300","5263","336000","08/12/2022","2600","sqft","317.31","","","","3","3","","Etta Golomb","No","No","","141 Westland Dr","Pittsburgh","15217","PA","USA","40.427097","-79.91526"
"https://www.zillow.com/homedetails/166-James-Pl-Pittsburgh-PA-15228/62982844_zpid/","","","908000","956800","5793","466200","08/12/2022","3376","sqft","268.96","","","","4","5","","Kassie Cable","No","No","","166 James Pl","Pittsburgh","15228","PA","USA","40.36362","-80.06214"
"https://www.zillow.com/homedetails/27-Hoodridge-Ln-Pittsburgh-PA-15228/11396943_zpid/","","","800000","842900","5103","381000","08/10/2022","3409","sqft","234.67","0.3","acres","2648225.55","4","3","","","No","No","","27 Hoodridge Ln","Pittsburgh","15228","PA","USA","40.36261","-80.04508"
"https://www.zillow.com/homedetails/3059-Canterbury-Dr-Allison-Park-PA-15101/87986097_zpid/","","","870000","916500","5548","607400","08/09/2022","","","","0.5","acres","1740000","4","5","","Terry Bienvenue","No","No","","3059 Canterbury Dr","Allison Park","15101","PA","USA","40.57381","-79.93469"
"https://www.zillow.com/homedetails/116-Rabold-Dr-Wexford-PA-15090/72261737_zpid/","","","800000","842700","5102","580000","08/08/2022","3400","sqft","235.29","0.37","acres","2162162.16","4","4","","Donald Fritsch","No","No","","116 Rabold Dr","Wexford","15090","PA","USA","40.65574","-80.04745"
"https://www.zillow.com/homedetails/109-Ashley-Ct-Pittsburgh-PA-15221/11419638_zpid/","","","850000","895200","5418","380000","08/04/2022","3373","sqft","252","1.21","acres","704225.35","4","6","","Paola Andrae","No","No","","109 Ashley Ct","Pittsburgh","15221","PA","USA","40.425777","-79.8555"
"https://www.zillow.com/homedetails/874-Thorn-St-Sewickley-PA-15143/11480811_zpid/","","","775000","816200","4940","370000","08/04/2022","2800","sqft","276.79","6751.8","sqft","114.78","5","3","","","No","No","","874 Thorn St","Sewickley","15143","PA","USA","40.534637","-80.17716"
"https://www.zillow.com/homedetails/178-Alder-Dr-Wexford-PA-15090/248643048_zpid/","","","879600","925200","5606","544700","08/04/2022","5138","sqft","171.2","0.56","acres","1579559.55","5","5","","","No","No","","178 Alder Dr","Wexford","15090","PA","USA","40.641174","-80.02189"
"https://www.zillow.com/homedetails/10571-Crest-Rd-Wexford-PA-15090/11297779_zpid/","","","875000","921400","5576","384500","08/02/2022","3695","sqft","236.81","0.95","acres","923970.43","4","4","","Julia Snider","No","No","","10571 Crest Rd","Wexford","15090","PA","USA","40.612263","-80.03869"
"https://www.zillow.com/homedetails/406-Chapel-Harbor-Dr-Pittsburgh-PA-15238/92380959_zpid/","","","792000","833900","5047","510000","08/01/2022","3270","sqft","242.2","3990.1","sqft","198.49","4","4","","Michael Toretti","No","No","","406 Chapel Harbor Dr","Pittsburgh","15238","PA","USA","40.48541","-79.884224"
"https://www.zillow.com/homedetails/231-Tamarack-Dr-Mars-PA-16046/242630751_zpid/","","","812300","854100","5176","550000","08/01/2022","3388","sqft","239.76","1.42","acres","570678.64","5","3.5","","","No","No","","231 Tamarack Dr","Mars","16046","PA","USA","40.672924","-80.01122"
"https://www.zillow.com/homedetails/523-Austin-Ave-Pittsburgh-PA-15243/11313603_zpid/","","","850000","894800","5415","479400","07/29/2022","4116","sqft","206.51","0.29","acres","2891300.95","4","4","","","No","No","","523 Austin Ave","Pittsburgh","15243","PA","USA","40.37724","-80.05943"
"https://www.zillow.com/homedetails/157-Windwood-Dr-Wexford-PA-15090/59853037_zpid/","","","780000","821100","4969","460000","07/29/2022","3600","sqft","216.67","0.8","acres","977933.8","4","4","","Lisa Wilson","No","No","","157 Windwood Dr","Wexford","15090","PA","USA","40.658096","-80.04358"
"https://www.zillow.com/homedetails/4281-Green-Glade-Ct-Allison-Park-PA-15101/11621622_zpid/","","","835000","878900","5318","457600","07/28/2022","3930","sqft","212.47","1.22","acres","684426.23","4","4","","Dori Deible","No","No","","4281 Green Glade Ct","Allison Park","15101","PA","USA","40.57591","-79.92787"
"https://www.zillow.com/homedetails/412-McKean-Dr-Wexford-PA-15090/87996598_zpid/","","","761100","801000","4847","449000","07/27/2022","3146","sqft","241.93","0.7","acres","1091965.57","4","5","","Jill Cheran","No","No","","412 McKean Dr","Wexford","15090","PA","USA","40.64467","-80.11587"
"https://www.zillow.com/homedetails/707-Beaver-St-Sewickley-PA-15143/11480369_zpid/","","","875000","920800","5573","488600","07/25/2022","2465","sqft","354.97","8498.56","sqft","102.96","4","4","","Angela Hoying Pulkowski","No","No","","707 Beaver St","Sewickley","15143","PA","USA","40.53842","-80.17809"
"https://www.zillow.com/homedetails/307-Honeybee-Dr-Wexford-PA-15090/87994603_zpid/","","","830000","873400","5286","476400","07/25/2022","3548","sqft","233.93","0.34","acres","2441176.47","5","5","","Jean Ou","No","No","","307 Honeybee Dr","Wexford","15090","PA","USA","40.65492","-80.05068"
"https://www.zillow.com/homedetails/522-Roslyn-Pl-Pittsburgh-PA-15232/11525374_zpid/","","","892000","938400","5680","651900","07/22/2022","2604","sqft","342.55","5083.45","sqft","175.47","4","5","","Margo Fall","No","No","","522 Roslyn Pl","Pittsburgh","15232","PA","USA","40.453186","-79.93613"
"https://www.zillow.com/homedetails/1324-Malvern-Ave-Pittsburgh-PA-15217/11533926_zpid/","","","900000","946900","5731","580000","07/22/2022","2750","sqft","327.27","8712","sqft","103.31","4","4","","CHRISTOPHER CARR","No","No","","1324 Malvern Ave","Pittsburgh","15217","PA","USA","40.441486","-79.935165"
"https://www.zillow.com/homedetails/358-S-Highland-Ave-Pittsburgh-PA-15206/11624928_zpid/","","","830000","873100","5284","492700","07/21/2022","4473","sqft","185.56","5998.21","sqft","138.37","5","5","","Diane Bureman","No","No","","358 S Highland Ave","Pittsburgh","15206","PA","USA","40.4554","-79.92563"
"https://www.zillow.com/homedetails/2364-Kuhlview-Dr-Pittsburgh-PA-15237/11642919_zpid/","","","900000","946800","5730","460000","07/21/2022","","","","13","acres","69230.77","5","3","","Mary Brettell","No","No","","2364 Kuhlview Dr","Pittsburgh","15237","PA","USA","40.589645","-80.078575"
"https://www.zillow.com/homedetails/1750-Stevensan-Dr-Sewickley-PA-15143/300319924_zpid/","","","830000","872000","5283","589200","07/20/2022","4334","sqft","191.51","0.55","acres","1504819.78","6","5","","","No","No","","1750 Stevensan Dr","Sewickley","15143","PA","USA","40.582935","-80.09394"
"https://www.zillow.com/homedetails/1324-Wellington-Dr-Pittsburgh-PA-15241/11434171_zpid/","","","815000","857200","5188","474500","07/19/2022","3828","sqft","212.9","0.42","acres","1934470.36","4","2.5","","","No","No","","1324 Wellington Dr","Pittsburgh","15241","PA","USA","40.347744","-80.085526"
"https://www.zillow.com/homedetails/3127-Henrich-Farm-Ln-Allison-Park-PA-15101/11621506_zpid/","","","831000","874000","5289","485900","07/18/2022","3485","sqft","238.45","0.65","acres","1272588.06","4","3","","Linda Dibucci","No","No","","3127 Henrich Farm Ln","Allison Park","15101","PA","USA","40.575714","-79.93605"
"https://www.zillow.com/homedetails/1830-Wightman-St-Pittsburgh-PA-15217/11631464_zpid/","","","825744","868200","5255","472100","07/15/2022","5068","sqft","162.93","0.26","acres","3225562.5","6","4","","Julie Rost","No","No","","1830 Wightman St","Pittsburgh","15217","PA","USA","40.435894","-79.9281"
"https://www.zillow.com/homedetails/542-Centennial-Ave-Sewickley-PA-15143/11480257_zpid/","","","800000","841100","5091","382400","07/14/2022","3582","sqft","223.34","5619.24","sqft","142.37","5","4","","Mary Zavodszky","No","No","","542 Centennial Ave","Sewickley","15143","PA","USA","40.539757","-80.1786"
"https://www.zillow.com/homedetails/2249-Laurel-Ln-Allison-Park-PA-15101/11619266_zpid/","","","815000","856700","5185","356300","07/11/2022","3813","sqft","213.74","1","acres","815000","5","4","","Zita Billmann","No","No","","2249 Laurel Ln","Allison Park","15101","PA","USA","40.573418","-79.98059"
"https://www.zillow.com/homedetails/333-Frey-Dr-Wexford-PA-15090/59848540_zpid/","","","860000","858800","5197","619500","07/11/2022","3476","sqft","247.41","0.85","acres","1017751.48","4","5","","Zita Billmann","No","No","","333 Frey Dr","Wexford","15090","PA","USA","40.648144","-80.11527"
"https://www.zillow.com/homedetails/53-Evelyn-Drive-Ext-Coraopolis-PA-15108/164332759_zpid/","","","852000","894500","5420","495000","07/11/2022","3374","sqft","252.52","2.95","acres","288813.56","4","3","","","No","No","","53 Evelyn Drive Ext","Coraopolis","15108","PA","USA","40.477425","-80.141785"
"https://www.zillow.com/homedetails/315-Blackheath-Dr-Pittsburgh-PA-15205/11320608_zpid/","","","855000","898500","5438","425000","07/08/2022","4041","sqft","211.58","0.6","acres","1433556.58","5","5","","","No","No","","315 Blackheath Dr","Pittsburgh","15205","PA","USA","40.437874","-80.10625"
"https://www.zillow.com/homedetails/5317-Ellsworth-Ave-Pittsburgh-PA-15232/11525355_zpid/","","","900000","945800","5724","420500","07/08/2022","3228","sqft","278.81","5314.32","sqft","169.35","6","4","","Lorraine Easton","No","No","","5317 Ellsworth Ave","Pittsburgh","15232","PA","USA","40.452847","-79.93715"
"https://www.zillow.com/homedetails/5436-Hobart-St-Pittsburgh-PA-15217/11634685_zpid/","","","788000","828100","5012","215000","07/08/2022","2295","sqft","343.36","7840.8","sqft","100.5","5","4","","Monice Ming Tong","No","No","","5436 Hobart St","Pittsburgh","15217","PA","USA","40.431942","-79.931274"
"https://www.zillow.com/homedetails/106-Boyd-Ln-Gibsonia-PA-15044/59853499_zpid/","","","875000","897800","5444","550100","07/08/2022","3946","sqft","221.74","9.29","acres","94187.3","3","3","","JoAnn Echtler","No","No","","106 Boyd Ln","Gibsonia","15044","PA","USA","40.63635","-80.00365"
"https://www.zillow.com/homedetails/2054-Golden-Grove-Dr-Mars-PA-16046/125935219_zpid/","","","832000","873300","5291","529400","07/08/2022","3779","sqft","220.16","0.53","acres","1569219.16","5","5","","Dave McSwigan","No","No","","2054 Golden Grove Dr","Mars","16046","PA","USA","40.673218","-80.05682"
"https://www.zillow.com/homedetails/3119-Deerfield-Ridge-Dr-Mc-Donald-PA-15057/164621764_zpid/","","","776500","815000","4939","528000","07/08/2022","3520","sqft","220.6","0.48","acres","1606995.03","4","4","","Kimberly Clavelli","No","No","","3119 Deerfield Ridge Dr","Mc Donald","15057","PA","USA","40.354603","-80.16415"
"https://www.zillow.com/homedetails/1903-Station-St-Wexford-PA-15090/306759674_zpid/","","","792500","831800","5040","553700","07/08/2022","3204","sqft","247.35","","","","4","4","","Ashley Fullerton","No","No","","1903 Station St","Wexford","15090","PA","USA","40.62407","-80.0651"
