Property URL,MLS ID,Number of days on Zillow,Property price (USD),Zestimate (USD),Rent zestimate (USD per month),Tax assessed value (USD),Sold date (MM/DD/YYYY),Living area,Living area unit,Price per living area unit (USD),Lot/land area,Lot/land area unit,Price per lot/land area unit (USD),Bedrooms,Bathrooms,Broker name,Broker agent,Is owner occupied,Property owned by Zillow,Property unit number,Street address,City,Zip,State,Country,Latitude,Longitude
"https://www.zillow.com/homedetails/135-Lebeau-Pike-Pittsburgh-PA-15221/11456639_zpid/","","","205000","204900","1500","123900","10/13/2023","1490","sqft","137.58","5227.2","sqft","39.22","3","2","","Amy Johnson","No","No","","135 Lebeau Pike","Pittsburgh","15221","PA","USA","40.41537","-79.8404"
"https://www.zillow.com/homedetails/263-Toura-Dr-Pittsburgh-PA-15236/11546455_zpid/","","","205750","205700","2540","183100","10/13/2023","1872","sqft","109.91","8450","sqft","24.35","4","4","Country Home Real Estate, Inc.","","No","No","","263 Toura Dr","Pittsburgh","15236","PA","USA","40.32012","-79.9517"
"https://www.zillow.com/homedetails/103-Oak-Ave-Millvale-PA-15209/11372043_zpid/","","","201000","201000","1500","106800","10/10/2023","","","","9334.91","sqft","21.53","2","1","","Kristi Stebler","No","No","","103 Oak Ave","Millvale","15209","PA","USA","40.50524","-79.97254"
"https://www.zillow.com/homedetails/11827-Joan-Dr-Pittsburgh-PA-15235/11493111_zpid/","","","202000","202000","1497","70000","10/06/2023","","","","0.26","acres","776923.08","3","2","","Ariel Harat","No","No","","11827 Joan Dr","Pittsburgh","15235","PA","USA","40.457973","-79.831154"
"https://www.zillow.com/homedetails/162-McKenzie-Dr-Pittsburgh-PA-15235/11534193_zpid/","","","205000","204800","1650","89000","10/04/2023","1632","sqft","125.61","7801.6","sqft","26.28","3","2","","John Adair","No","No","","162 McKenzie Dr","Pittsburgh","15235","PA","USA","40.45129","-79.80349"
"https://www.zillow.com/homedetails/2340-Fairland-St-Pittsburgh-PA-15210/11648249_zpid/","","","201000","201000","1395","66100","10/03/2023","1260","sqft","159.52","5000.69","sqft","40.19","3","2","","Roberta Mazzarini","No","No","","2340 Fairland St","Pittsburgh","15210","PA","USA","40.385525","-79.99394"
"https://www.zillow.com/homedetails/204-Sandy-Dr-Glenshaw-PA-15116/11485748_zpid/","","","205500","205500","1679","85300","10/02/2023","888","sqft","231.42","9147.6","sqft","22.46","2","2","","Stephanie Ramer","No","No","","204 Sandy Dr","Glenshaw","15116","PA","USA","40.531384","-79.98463"
"https://www.zillow.com/homedetails/478-Lincoln-Ave-Carnegie-PA-15106/11253330_zpid/","","","205000","205000","1500","114400","09/29/2023","1066","sqft","192.31","5998.21","sqft","34.18","2","2","","Susan Deely","No","No","","478 Lincoln Ave","Carnegie","15106","PA","USA","40.392586","-80.091995"
"https://www.zillow.com/homedetails/204-Owendale-Ave-Pittsburgh-PA-15227/11304302_zpid/","","","205000","205000","1395","89500","09/29/2023","1413","sqft","145.08","5000.69","sqft","40.99","3","2","","Sean Palmer","No","No","","204 Owendale Ave","Pittsburgh","15227","PA","USA","40.380554","-79.982445"
"https://www.zillow.com/homedetails/4104-Willow-Ave-Pittsburgh-PA-15234/11395714_zpid/","","","206500","206500","1500","136300","09/28/2023","1091","sqft","189.28","7000.09","sqft","29.5","3","1","","Bonnie Detwiler","No","No","","4104 Willow Ave","Pittsburgh","15234","PA","USA","40.360653","-80.03027"
"https://www.zillow.com/homedetails/417-Beam-Dr-Pittsburgh-PA-15236/11507248_zpid/","","","205000","205000","1650","101500","09/28/2023","1000","sqft","205","8690.22","sqft","23.59","3","2","","Lisa Dovichin","No","No","","417 Beam Dr","Pittsburgh","15236","PA","USA","40.329758","-79.95618"
"https://www.zillow.com/homedetails/8844-Maple-St-Allison-Park-PA-15101/11618604_zpid/","","","202000","202000","1934","133200","09/28/2023","","","","9583.2","sqft","21.08","3","3","","Michele Jergel","No","No","","8844 Maple St","Allison Park","15101","PA","USA","40.569817","-80.00481"
"https://www.zillow.com/homedetails/226-Barbara-Dr-Mc-Kees-Rocks-PA-15136/11264600_zpid/","","","205000","205000","1381","102600","09/25/2023","950","sqft","215.79","9099.68","sqft","22.53","3","1","","Michael Reed","No","No","","226 Barbara Dr","Mc Kees Rocks","15136","PA","USA","40.48256","-80.08542"
"https://www.zillow.com/homedetails/567-Deborah-Jane-Dr-Pittsburgh-PA-15239/11597659_zpid/","","","202000","202000","1694","106800","09/22/2023","1320","sqft","153.03","0.3","acres","678307.59","3","2","","Diana Adams","No","No","","567 Deborah Jane Dr","Pittsburgh","15239","PA","USA","40.480633","-79.77845"
"https://www.zillow.com/homedetails/2931-Greenfield-Rd-Glenshaw-PA-15116/11523841_zpid/","","","205000","205000","1991","134100","09/15/2023","","","","0.25","acres","820000","3","2","","Terry Bienvenue","No","No","","2931 Greenfield Rd","Glenshaw","15116","PA","USA","40.546925","-79.98368"
"https://www.zillow.com/homedetails/635-Tartan-Dr-Monroeville-PA-15146/11262777_zpid/","","","206000","206000","1702","87700","09/11/2023","950","sqft","216.84","7801.6","sqft","26.4","3","2","","DJ Fairley","No","No","","635 Tartan Dr","Monroeville","15146","PA","USA","40.437283","-79.7274"
"https://www.zillow.com/homedetails/168-Cedarcove-St-Pittsburgh-PA-15227/11645689_zpid/","","","202000","195200","1435","102800","09/06/2023","912","sqft","221.49","6159.38","sqft","32.8","3","1","","Christina Robertson","No","No","","168 Cedarcove St","Pittsburgh","15227","PA","USA","40.38837","-79.97325"
"https://www.zillow.com/homedetails/169-Arla-Dr-Pittsburgh-PA-15220/11460342_zpid/","","","205000","204900","1900","133100","09/05/2023","1696","sqft","120.87","7361.64","sqft","27.85","3","2","","Kimberly Lanphear","No","No","","169 Arla Dr","Pittsburgh","15220","PA","USA","40.407646","-80.0607"
"https://www.zillow.com/homedetails/41-Locust-St-Etna-PA-15223/11333375_zpid/","","","207000","207000","1414","54100","09/01/2023","2168","sqft","95.48","2099.59","sqft","98.59","3","1","","Tarasa Hurley","No","No","","41 Locust St","Etna","15223","PA","USA","40.496483","-79.94519"
"https://www.zillow.com/homedetails/625-Idaho-Ave-Verona-PA-15147/11531302_zpid/","","","205000","205000","1649","99600","09/01/2023","1464","sqft","140.03","9156.31","sqft","22.39","3","2","","Kelly Meade","No","No","","625 Idaho Ave","Verona","15147","PA","USA","40.496086","-79.815254"
"https://www.zillow.com/homedetails/1844-Fairacres-Ave-Pittsburgh-PA-15216/11446261_zpid/","","","203000","203000","1099","63700","08/31/2023","1459","sqft","139.14","3994.45","sqft","50.82","3","1","","Ella Serrato","No","No","","1844 Fairacres Ave","Pittsburgh","15216","PA","USA","40.40639","-80.02071"
"https://www.zillow.com/homedetails/218-Wallace-Ave-East-Pittsburgh-PA-15112/11456967_zpid/","","","205000","204800","1494","79300","08/31/2023","1407","sqft","145.7","0.8","acres","256250","3","1","","Tanner Hall","No","No","","218 Wallace Ave","East Pittsburgh","15112","PA","USA","40.41312","-79.83606"
"https://www.zillow.com/homedetails/49-Schley-Ave-Pittsburgh-PA-15205/11588310_zpid/","","","207000","207000","1739","96600","08/31/2023","2141","sqft","96.68","3998.81","sqft","51.77","3","2","","Heather Kaczorowski","No","No","","49 Schley Ave","Pittsburgh","15205","PA","USA","40.443752","-80.07156"
"https://www.zillow.com/homedetails/3827-Eliza-St-West-Mifflin-PA-15122/11385958_zpid/","","","205000","205000","1491","60800","08/30/2023","1506","sqft","136.12","5222.84","sqft","39.25","3","2","","Kenneth Gibbs","No","No","","3827 Eliza St","West Mifflin","15122","PA","USA","40.39302","-79.877945"
"https://www.zillow.com/homedetails/17-Josephine-St-Pittsburgh-PA-15205/11476194_zpid/","","","205000","205000","1795","120000","08/25/2023","1930","sqft","106.22","4800.31","sqft","42.71","4","2","","John Butera","No","No","","17 Josephine St","Pittsburgh","15205","PA","USA","40.43807","-80.05985"
"https://www.zillow.com/homedetails/965-Oranmore-St-Pittsburgh-PA-15201/11615808_zpid/","","","205000","205100","1719","94800","08/24/2023","1060","sqft","193.4","4974.55","sqft","41.21","3","2","","Julie Colquitt","No","No","","965 Oranmore St","Pittsburgh","15201","PA","USA","40.477047","-79.93735"
"https://www.zillow.com/homedetails/3902-Center-Ave-Homestead-PA-15120/11295819_zpid/","","","205000","205000","1413","57000","08/18/2023","1900","sqft","107.89","6098.4","sqft","33.62","3","2","","Brian Teyssier","No","No","","3902 Center Ave","Homestead","15120","PA","USA","40.38295","-79.90215"
"https://www.zillow.com/homedetails/2286-Allender-Ave-Pittsburgh-PA-15220/11570361_zpid/","","","202000","202000","1550","94600","08/18/2023","900","sqft","224.44","5501.63","sqft","36.72","3","1","","Joe Yost","No","No","","2286 Allender Ave","Pittsburgh","15220","PA","USA","40.40162","-80.046646"
"https://www.zillow.com/homedetails/3624-Manuel-St-Pittsburgh-PA-15214/11270624_zpid/","","","205000","204900","1770","88500","08/15/2023","1288","sqft","159.16","5000","sqft","41","3","2","","","No","No","","3624 Manuel St","Pittsburgh","15214","PA","USA","40.48734","-80.00406"
"https://www.zillow.com/homedetails/139-Delfred-Dr-Carnegie-PA-15106/59843350_zpid/","","","205000","205200","1150","91300","08/15/2023","","","","9374.11","sqft","21.87","2","2","","Laurel Tokarczyk","No","No","","139 Delfred Dr","Carnegie","15106","PA","USA","40.407475","-80.105125"
"https://www.zillow.com/homedetails/439-Beechwood-Ave-Carnegie-PA-15106/11255979_zpid/","","","204000","204000","1500","122300","08/14/2023","1176","sqft","173.47","4700.12","sqft","43.4","3","2","","Dylan Stephens","No","No","","439 Beechwood Ave","Carnegie","15106","PA","USA","40.405926","-80.085"
"https://www.zillow.com/homedetails/4828-Havana-Dr-Pittsburgh-PA-15239/11281949_zpid/","","","202500","202500","1700","102700","08/11/2023","","","","8720.71","sqft","23.22","3","2","","Georgie Smigel","No","No","","4828 Havana Dr","Pittsburgh","15239","PA","USA","40.481632","-79.70795"
"https://www.zillow.com/homedetails/146-Shenandoah-Dr-Pittsburgh-PA-15235/11491864_zpid/","","","205000","205200","1400","76600","08/11/2023","1373","sqft","149.31","8712","sqft","23.53","3","1","","Shelly Eiter","No","No","","146 Shenandoah Dr","Pittsburgh","15235","PA","USA","40.473484","-79.81901"
"https://www.zillow.com/homedetails/3442-Brickley-Dr-Pittsburgh-PA-15227/11303435_zpid/","","","206000","205600","1564","93600","08/04/2023","1033","sqft","199.42","7291.94","sqft","28.25","3","2","","Kimberly Elliott","No","No","","3442 Brickley Dr","Pittsburgh","15227","PA","USA","40.379097","-79.951645"
"https://www.zillow.com/homedetails/9038-Oak-St-Pittsburgh-PA-15239/11261249_zpid/","","","201000","201000","1427","95100","08/03/2023","1608","sqft","125","7840.8","sqft","25.64","4","2","","Michael Wicker","No","No","","9038 Oak St","Pittsburgh","15239","PA","USA","40.49916","-79.72552"
"https://www.zillow.com/homedetails/307-Algoma-Dr-Pittsburgh-PA-15236/11507120_zpid/","","","205000","204600","1300","99000","08/03/2023","","","","7801.6","sqft","26.28","2","2","","Teresa Dunleavy","No","No","","307 Algoma Dr","Pittsburgh","15236","PA","USA","40.33356","-79.95146"
"https://www.zillow.com/homedetails/126-Leon-Rd-Pittsburgh-PA-15220/11346688_zpid/","","","206973","354200","2600","226200","07/28/2023","2346","sqft","88.22","0.28","acres","745965.9","3","3","","","No","No","","126 Leon Rd","Pittsburgh","15220","PA","USA","40.420013","-80.04064"
"https://www.zillow.com/homedetails/252-Azalea-Dr-Monroeville-PA-15146/11600793_zpid/","","","202000","202000","1363","88900","07/28/2023","972","sqft","207.82","9186.8","sqft","21.99","3","2","","Michael Ricciuti","No","No","","252 Azalea Dr","Monroeville","15146","PA","USA","40.44147","-79.772865"
"https://www.zillow.com/homedetails/1531-Greencrest-Dr-Pittsburgh-PA-15226/11649234_zpid/","","","204000","203800","1232","90800","07/25/2023","1076","sqft","189.59","5823.97","sqft","35.03","2","1","","Lillian Denhardt","No","No","","1531 Greencrest Dr","Pittsburgh","15226","PA","USA","40.39291","-80.00494"
"https://www.zillow.com/homedetails/755-6th-St-Oakmont-PA-15139/11447228_zpid/","","","205000","204800","1650","112900","07/21/2023","2178","sqft","94.12","1851.3","sqft","110.73","3","2","","Jeannine Brentzel","No","No","","755 6th St","Oakmont","15139","PA","USA","40.522617","-79.83756"
"https://www.zillow.com/homedetails/103-Crestline-Rd-Glenshaw-PA-15116/11485468_zpid/","","","205000","204800","1881","113700","07/20/2023","1375","sqft","149.09","0.36","acres","571348.94","3","2","","Angie Popa","No","No","","103 Crestline Rd","Glenshaw","15116","PA","USA","40.53292","-79.988075"
"https://www.zillow.com/homedetails/2136-Plainview-Ave-Pittsburgh-PA-15226/11565756_zpid/","","","203000","202600","1227","56600","07/20/2023","","","","8276.4","sqft","24.53","3","2","","AnnaMarie DeFrank","No","No","","2136 Plainview Ave","Pittsburgh","15226","PA","USA","40.400826","-80.02118"
"https://www.zillow.com/homedetails/3907-Center-Ave-Homestead-PA-15120/11295833_zpid/","","","202000","202500","2095","99100","07/14/2023","1940","sqft","104.12","5000.69","sqft","40.39","3","3","","Ralph Harvey","No","No","","3907 Center Ave","Homestead","15120","PA","USA","40.382477","-79.90231"
"https://www.zillow.com/homedetails/3006-Hazelhurst-Ave-Pittsburgh-PA-15227/11304201_zpid/","","","205251","205800","1550","104000","07/14/2023","1745","sqft","117.62","2983.86","sqft","68.79","4","2","","Damon Watkins","No","No","","3006 Hazelhurst Ave","Pittsburgh","15227","PA","USA","40.383568","-79.96937"
"https://www.zillow.com/homedetails/3577-Bakerstown-Rd-Bakerstown-PA-15007/11363867_zpid/","","","202500","203000","1500","76800","07/14/2023","1124","sqft","180.16","0.45","acres","446822.59","2","1","","Barry Woolner","No","No","","3577 Bakerstown Rd","Bakerstown","15007","PA","USA","40.6507","-79.9328"
"https://www.zillow.com/homedetails/45-Amherst-Ave-Pittsburgh-PA-15229/11405754_zpid/","","","205000","205600","1294","102700","07/11/2023","1248","sqft","164.26","5998.21","sqft","34.18","2","1","","Jessica Branchen","No","No","","45 Amherst Ave","Pittsburgh","15229","PA","USA","40.51926","-80.0457"
"https://www.zillow.com/homedetails/230-Rolling-Dr-Pittsburgh-PA-15229/11439568_zpid/","","","202000","202600","1627","116300","07/11/2023","1000","sqft","202","7697.05","sqft","26.24","2","2","","Janet McKay","No","No","","230 Rolling Dr","Pittsburgh","15229","PA","USA","40.526943","-80.05903"
"https://www.zillow.com/homedetails/44-Bismark-St-Pittsburgh-PA-15209/11272299_zpid/","","","205000","205400","1614","99800","07/10/2023","936","sqft","219.02","4356","sqft","47.06","3","1","","","No","No","","44 Bismark St","Pittsburgh","15209","PA","USA","40.483418","-79.97003"
"https://www.zillow.com/homedetails/15-Lodge-St-Pittsburgh-PA-15227/11305987_zpid/","","","205000","205600","988","39800","07/10/2023","","","","3271.36","sqft","62.67","2","2","","Brian Kirchner","No","No","","15 Lodge St","Pittsburgh","15227","PA","USA","40.38144","-79.99342"
"https://www.zillow.com/homedetails/5227-Meadowcrest-Rd-Pittsburgh-PA-15236/11469300_zpid/","","","205000","205400","1300","97100","07/10/2023","925","sqft","221.62","8145","sqft","25.17","2","2","","","No","No","","5227 Meadowcrest Rd","Pittsburgh","15236","PA","USA","40.34401","-79.992935"
"https://www.zillow.com/homedetails/839-McNeilly-Rd-Pittsburgh-PA-15226/11309398_zpid/","","","206000","206500","1614","122600","07/07/2023","1536","sqft","134.11","10454.4","sqft","19.7","2","2","","Michael Reed","No","No","","839 McNeilly Rd","Pittsburgh","15226","PA","USA","40.38316","-80.02272"
"https://www.zillow.com/homedetails/560-Center-Hill-Rd-Pittsburgh-PA-15239/11626465_zpid/","","","205000","205500","1514","106400","07/07/2023","","","","0.28","acres","740072.2","3","2","","Daniel Howell","No","No","","560 Center Hill Rd","Pittsburgh","15239","PA","USA","40.477028","-79.752815"
"https://www.zillow.com/homedetails/272-Hulton-Rd-Verona-PA-15147/11490959_zpid/","","","205000","205500","1413","65400","07/05/2023","1474","sqft","139.08","0.52","acres","394230.77","3","2","","Georgie Smigel","No","No","","272 Hulton Rd","Verona","15147","PA","USA","40.4887","-79.82021"
"https://www.zillow.com/homedetails/160-Cedarcove-St-Pittsburgh-PA-15227/11645687_zpid/","","","204000","204600","1428","84500","06/30/2023","","","","6324.91","sqft","32.25","3","2","","Richard Charles","No","No","","160 Cedarcove St","Pittsburgh","15227","PA","USA","40.38807","-79.97323"
"https://www.zillow.com/homedetails/215-Kaelin-Dr-Pittsburgh-PA-15239/11650794_zpid/","","","205000","205600","1500","135300","06/30/2023","","","","7501.03","sqft","27.33","3","2","","Lauren Pearlman","No","No","","215 Kaelin Dr","Pittsburgh","15239","PA","USA","40.497272","-79.739494"
"https://www.zillow.com/homedetails/1307-Belasco-Ave-Pittsburgh-PA-15216/11335868_zpid/","","","202500","203100","1499","93600","06/29/2023","1488","sqft","136.09","4499.75","sqft","45","3","2","","Michael Reed","No","No","","1307 Belasco Ave","Pittsburgh","15216","PA","USA","40.41587","-80.02745"
"https://www.zillow.com/homedetails/10-5th-St-Aspinwall-PA-15215/11334953_zpid/","","","201000","201600","1407","155800","06/28/2023","1440","sqft","139.58","3040","sqft","66.12","3","1","","","No","No","","10 5th St","Aspinwall","15215","PA","USA","40.494423","-79.90744"
"https://www.zillow.com/homedetails/390-Roosevelt-Ave-Mc-Kees-Rocks-PA-15136/11265305_zpid/","","","206700","207400","1800","96100","06/26/2023","1896","sqft","109.02","6246.5","sqft","33.09","4","2","","Gina Cuccaro","No","No","","390 Roosevelt Ave","Mc Kees Rocks","15136","PA","USA","40.485016","-80.07757"
"https://www.zillow.com/homedetails/130-Eisner-Ave-Bridgeville-PA-15017/11362015_zpid/","","","205000","205800","1250","102300","06/23/2023","1369","sqft","149.74","5005.04","sqft","40.96","2","1","","Jeanne Bendik","No","No","","130 Eisner Ave","Bridgeville","15017","PA","USA","40.36634","-80.11627"
"https://www.zillow.com/homedetails/1300-Alton-St-Pittsburgh-PA-15216/11335891_zpid/","","","201000","202100","1481","41400","06/16/2023","1152","sqft","174.48","2748.64","sqft","73.13","3","1","","Dan Haeck","No","No","","1300 Alton St","Pittsburgh","15216","PA","USA","40.413937","-80.02142"
"https://www.zillow.com/homedetails/1108-Sunday-St-Pittsburgh-PA-15212/11375521_zpid/","","","202000","169400","1295","35200","06/16/2023","","","","8712","sqft","23.19","2","1","","Bobby West","No","No","","1108 Sunday St","Pittsburgh","15212","PA","USA","40.46051","-80.023544"
"https://www.zillow.com/homedetails/5111-Shirley-St-Verona-PA-15147/11450163_zpid/","","","205000","206100","1552","84500","06/16/2023","1350","sqft","151.85","7230.96","sqft","28.35","3","2","","Lori Hummel","No","No","","5111 Shirley St","Verona","15147","PA","USA","40.480556","-79.84545"
"https://www.zillow.com/homedetails/423-Lucy-Dr-Pittsburgh-PA-15236/11469535_zpid/","","","205000","206100","1486","96700","06/16/2023","1276","sqft","160.66","6873.77","sqft","29.82","3","2","","Sandra Rodeheaver","No","No","","423 Lucy Dr","Pittsburgh","15236","PA","USA","40.341354","-79.99907"
"https://www.zillow.com/homedetails/239-Oak-Rd-Gibsonia-PA-15044/11330162_zpid/","","","202000","203100","1704","95000","06/14/2023","1393","sqft","145.01","1.95","acres","103589.74","3","2","","Karen Dietrich","No","No","","239 Oak Rd","Gibsonia","15044","PA","USA","40.628727","-79.89222"
"https://www.zillow.com/homedetails/5109-Grand-Ave-Pittsburgh-PA-15225/11367337_zpid/","","","205000","206100","1564","83700","06/14/2023","1164","sqft","176.12","5662.8","sqft","36.2","3","2","","Sandra Toulouse","No","No","","5109 Grand Ave","Pittsburgh","15225","PA","USA","40.51066","-80.12754"
"https://www.zillow.com/homedetails/2335-Greensburg-Pike-Pittsburgh-PA-15221/11418517_zpid/","","","205000","206200","1557","139400","06/13/2023","1929","sqft","106.27","0.27","acres","747356.91","4","3","","William Higgins","No","No","","2335 Greensburg Pike","Pittsburgh","15221","PA","USA","40.441498","-79.85627"
"https://www.zillow.com/homedetails/327-Broadway-Ext-North-Versailles-PA-15137/11497583_zpid/","","","203900","205100","1519","85000","06/12/2023","","","","6298.78","sqft","32.37","3","2","","Angela Chorba","No","No","","327 Broadway Ext","North Versailles","15137","PA","USA","40.375492","-79.820076"
"https://www.zillow.com/homedetails/273-Almar-Dr-Verona-PA-15147/11491138_zpid/","","","206000","207400","1392","96000","06/06/2023","1920","sqft","107.29","10558.94","sqft","19.51","2","2","","Cheryl Kozub","No","No","","273 Almar Dr","Verona","15147","PA","USA","40.482903","-79.82897"
"https://www.zillow.com/homedetails/829-N-Beatty-St-Pittsburgh-PA-15206/11622464_zpid/","","","206953","208400","1550","62400","06/06/2023","1514","sqft","136.69","","","","4","2","","Rick Soria","No","No","","829 N Beatty St","Pittsburgh","15206","PA","USA","40.470776","-79.92129"
"https://www.zillow.com/homedetails/689-Shade-Ave-Pittsburgh-PA-15202/11325159_zpid/","","","206550","208100","2414","112900","06/02/2023","1730","sqft","119.39","2657.16","sqft","77.73","4","3","","Adam Cannon","No","No","","689 Shade Ave","Pittsburgh","15202","PA","USA","40.500053","-80.05948"
"https://www.zillow.com/homedetails/1470-Cathell-Rd-Pittsburgh-PA-15236/11641614_zpid/","","","206500","208100","1650","128500","06/02/2023","","","","0.28","acres","744144.14","3","2","","Ruth Weigers","No","No","","1470 Cathell Rd","Pittsburgh","15236","PA","USA","40.386242","-79.9492"
"https://www.zillow.com/homedetails/189-Colonial-Village-Dr-Pittsburgh-PA-15235/11568845_zpid/","","","205000","206600","1900","99800","06/01/2023","1666","sqft","123.05","8010.68","sqft","25.59","4","3","","Kimberly Keys","No","No","","189 Colonial Village Dr","Pittsburgh","15235","PA","USA","40.47442","-79.789246"
"https://www.zillow.com/homedetails/128-Duffland-St-Pittsburgh-PA-15210/11647593_zpid/","","","205000","206700","1450","68500","05/31/2023","1210","sqft","169.42","3898.62","sqft","52.58","3","2","","Teresa Fine","No","No","","128 Duffland St","Pittsburgh","15210","PA","USA","40.391872","-79.983475"
"https://www.zillow.com/homedetails/139-Fairfax-Rd-Pittsburgh-PA-15221/11420804_zpid/","","","205000","207000","1967","147200","05/26/2023","1680","sqft","122.02","8977.72","sqft","22.83","3","3","","Brian Teyssier","No","No","","139 Fairfax Rd","Pittsburgh","15221","PA","USA","40.422115","-79.85796"
"https://www.zillow.com/homedetails/4403-Davison-St-Pittsburgh-PA-15201/11512876_zpid/","","","205000","207000","1569","57900","05/26/2023","1031","sqft","198.84","871.2","sqft","235.31","2","2","","Ronald Huber","No","No","","4403 Davison St","Pittsburgh","15201","PA","USA","40.47024","-79.95786"
"https://www.zillow.com/homedetails/2266-Chapparal-Dr-Pittsburgh-PA-15239/11281982_zpid/","","","205000","207000","1500","106600","05/25/2023","1120","sqft","183.04","6825.85","sqft","30.03","3","1","","Will Smith","No","No","","2266 Chapparal Dr","Pittsburgh","15239","PA","USA","40.477882","-79.71439"
"https://www.zillow.com/homedetails/1724-Beryl-Dr-Pittsburgh-PA-15227/11391234_zpid/","","","204900","207000","1599","101200","05/24/2023","","","","7200.47","sqft","28.46","3","2","","Prakash Wagley","No","No","","1724 Beryl Dr","Pittsburgh","15227","PA","USA","40.35885","-79.95746"
"https://www.zillow.com/homedetails/846-Tropical-Ave-Pittsburgh-PA-15216/11335405_zpid/","","","201000","203100","1394","75900","05/23/2023","1098","sqft","183.06","3998.81","sqft","50.26","2","2","","Long Pham","No","No","","846 Tropical Ave","Pittsburgh","15216","PA","USA","40.42221","-80.02483"
"https://www.zillow.com/homedetails/1472-Highland-Villa-Dr-Pittsburgh-PA-15234/11393632_zpid/","","","205000","207500","1698","121200","05/17/2023","1182","sqft","173.43","9700","sqft","21.13","3","2","","","No","No","","1472 Highland Villa Dr","Pittsburgh","15234","PA","USA","40.362","-80.00839"
"https://www.zillow.com/homedetails/4472-Scherling-St-Pittsburgh-PA-15214/11328399_zpid/","","","200500","223300","1749","105800","05/15/2023","900","sqft","222.78","7204.82","sqft","27.83","3","2","","Nicole Blinov","No","No","","4472 Scherling St","Pittsburgh","15214","PA","USA","40.497402","-80.00506"
"https://www.zillow.com/homedetails/916-Clay-St-Pittsburgh-PA-15215/11333514_zpid/","","","205000","207800","1542","40500","05/12/2023","1930","sqft","106.22","196.02","sqft","1045.81","3","2","","Robert Strohm","No","No","","916 Clay St","Pittsburgh","15215","PA","USA","40.495277","-79.93289"
"https://www.zillow.com/homedetails/1215-Pittsburgh-McKeesport-Blvd-West-Mifflin-PA-15122/11390368_zpid/","","","206000","208900","1517","88200","05/12/2023","1767","sqft","116.58","2.12","acres","97399.53","3","2","","Allen Robinson","No","No","","1215 Pittsburgh McKeesport Blvd","West Mifflin","15122","PA","USA","40.358025","-79.90582"
"https://www.zillow.com/homedetails/246-Dunseith-St-Pittsburgh-PA-15213/333136483_zpid/","","","200842","426200","2042","64900","05/12/2023","1518","sqft","132.31","","","","3","1.5","","","No","No","","246 Dunseith St","Pittsburgh","15213","PA","USA","40.441982","-79.9648"
"https://www.zillow.com/homedetails/501-Ridge-Ct-Wexford-PA-15090/164287893_zpid/","","","205000","","2139","15600","05/10/2023","","","","1.56","acres","131241.46","","","","","No","No","","501 Ridge Ct","Wexford","15090","PA","USA","40.6418","-80.03586"
"https://www.zillow.com/homedetails/3104-Hebron-Dr-Pittsburgh-PA-15235/11416461_zpid/","","","205000","194100","1548","74300","05/08/2023","1218","sqft","168.31","6865.06","sqft","29.86","3","2","","Harriett Koedel","No","No","","3104 Hebron Dr","Pittsburgh","15235","PA","USA","40.459892","-79.85109"
"https://www.zillow.com/homedetails/5355-Elmwood-Dr-Pittsburgh-PA-15227/11428060_zpid/","","","204000","207000","1649","108300","05/08/2023","936","sqft","217.95","9895","sqft","20.62","3","1.5","","","No","No","","5355 Elmwood Dr","Pittsburgh","15227","PA","USA","40.354534","-79.96187"
"https://www.zillow.com/homedetails/1272-Straka-St-Pittsburgh-PA-15204/11479407_zpid/","","","205000","208000","1599","65000","05/08/2023","1458","sqft","140.6","4499.75","sqft","45.56","3","2","","Matthew Mendelson","No","No","","1272 Straka St","Pittsburgh","15204","PA","USA","40.449604","-80.05883"
"https://www.zillow.com/homedetails/1152-Stanton-Ter-Pittsburgh-PA-15201/11615618_zpid/","","","205000","","1599","93000","05/08/2023","1155","sqft","177.49","6634.19","sqft","30.9","3","1","","Libby Sosinski","No","No","","1152 Stanton Ter","Pittsburgh","15201","PA","USA","40.4792","-79.93812"
"https://www.zillow.com/homedetails/2616-Kenn-St-Pittsburgh-PA-15214/11505235_zpid/","","","205000","208300","1385","69900","05/04/2023","1269","sqft","161.54","0.31","acres","654725.42","3","1","","","No","No","","2616 Kenn St","Pittsburgh","15214","PA","USA","40.467957","-80.014656"
"https://www.zillow.com/homedetails/2616-Kenn-Perry-Pittsburgh-PA-15214/2058380743_zpid/","","","205000","","1099","","05/03/2023","","","","","","","3","2","","Shelley Killinger","No","No","","2616 Kenn Perry","Pittsburgh","15214","PA","USA","",""
"https://www.zillow.com/homedetails/720-Rose-Ln-Pittsburgh-PA-15234/11306730_zpid/","","","205000","208400","1499","93900","05/01/2023","875","sqft","234.29","6499.15","sqft","31.54","3","2","","Mark Ratti","No","No","","720 Rose Ln","Pittsburgh","15234","PA","USA","40.38133","-80.014336"
"https://www.zillow.com/homedetails/969-Diane-Dr-North-Versailles-PA-15137/11573093_zpid/","","","202500","205900","1501","91100","05/01/2023","1431","sqft","141.51","6050.48","sqft","33.47","3","2","","Donna Hornicak","No","No","","969 Diane Dr","North Versailles","15137","PA","USA","40.367226","-79.799355"
"https://www.zillow.com/homedetails/1708-Ringwalt-St-Pittsburgh-PA-15216/11445948_zpid/","","","202000","182700","1571","89000","04/28/2023","1488","sqft","135.75","2199.78","sqft","91.83","3","2","","Danielle Delmonico","No","No","","1708 Ringwalt St","Pittsburgh","15216","PA","USA","40.408146","-80.02022"
"https://www.zillow.com/homedetails/319-Kingsboro-St-Pittsburgh-PA-15211/11323579_zpid/","","","201000","204700","1813","66500","04/27/2023","2090","sqft","96.17","2225.92","sqft","90.3","4","2","","Nancy Dorn","No","No","","319 Kingsboro St","Pittsburgh","15211","PA","USA","40.421947","-80.00093"
"https://www.zillow.com/homedetails/402-E-11th-Ave-Tarentum-PA-15084/11279052_zpid/","","","202000","205800","1394","106900","04/26/2023","","","","5501.63","sqft","36.72","3","3","","Laura Negley","No","No","","402 E 11th Ave","Tarentum","15084","PA","USA","40.60671","-79.7546"
"https://www.zillow.com/homedetails/1624-Vista-View-Dr-Verona-PA-15147/59837288_zpid/","","","206000","203200","1548","58800","04/24/2023","1313","sqft","156.89","6599.34","sqft","31.22","4","2","","Diane Ray","No","No","","1624 Vista View Dr","Verona","15147","PA","USA","40.49537","-79.84105"
"https://www.zillow.com/homedetails/417-N-Graham-St-Pittsburgh-PA-15206/11519714_zpid/","","","205000","209200","1628","46000","04/21/2023","1971","sqft","104.01","2420","sqft","84.71","5","1","","Sean Kelly","No","No","","417 N Graham St","Pittsburgh","15206","PA","USA","40.467953","-79.93371"
"https://www.zillow.com/homedetails/922-Edward-Dr-Pittsburgh-PA-15227/11554575_zpid/","","","201000","205100","1599","102300","04/21/2023","1596","sqft","125.94","0.28","acres","729582.58","4","2","","Bill Dapper","No","No","","922 Edward Dr","Pittsburgh","15227","PA","USA","40.394794","-79.9674"
"https://www.zillow.com/homedetails/1453-Abers-Creek-Rd-Pittsburgh-PA-15239/11281888_zpid/","","","205000","209400","1934","114700","04/19/2023","1396","sqft","146.85","8777.34","sqft","23.36","3","3","","Diana Adams","No","No","","1453 Abers Creek Rd","Pittsburgh","15239","PA","USA","40.479782","-79.71406"
"https://www.zillow.com/homedetails/171-Curry-Hollow-Rd-Pittsburgh-PA-15236/11507502_zpid/","","","206500","211300","1694","100300","04/14/2023","","","","8293.82","sqft","24.9","3","3","","Francis Barry","No","No","","171 Curry Hollow Rd","Pittsburgh","15236","PA","USA","40.33583","-79.981766"
"https://www.zillow.com/homedetails/71-N-Emily-St-Pittsburgh-PA-15205/11583215_zpid/","","","202000","206700","1450","103800","04/14/2023","2210","sqft","91.4","3998.81","sqft","50.52","4","2","","Daniel Seigel","No","No","","71 N Emily St","Pittsburgh","15205","PA","USA","40.432602","-80.06997"
"https://www.zillow.com/homedetails/2551-Woodward-Ave-Pittsburgh-PA-15226/11566122_zpid/","","","205000","210000","1499","60300","04/11/2023","1370","sqft","149.64","3497.87","sqft","58.61","3","3","","Susan Deely","No","No","","2551 Woodward Ave","Pittsburgh","15226","PA","USA","40.397324","-80.02501"
"https://www.zillow.com/homedetails/2616-Fox-Chase-Ct-Bridgeville-PA-15017/59856643_zpid/","","","205000","267000","1632","125000","04/11/2023","1440","sqft","142.36","10624.28","sqft","19.3","3","2","","Michael Pohlot","No","No","","2616 Fox Chase Ct","Bridgeville","15017","PA","USA","40.32237","-80.12075"
"https://www.zillow.com/homedetails/220-McGregor-Dr-Verona-PA-15147/11491050_zpid/","","","205000","209600","1500","90100","04/10/2023","1388","sqft","147.69","0.51","acres","405860.23","5","2","","Justin Kalnicky","No","No","","220 McGregor Dr","Verona","15147","PA","USA","40.48688","-79.818825"
"https://www.zillow.com/homedetails/1211-9th-Ave-Natrona-Heights-PA-15065/11301341_zpid/","","","205000","209900","1562","121100","04/06/2023","1782","sqft","115.04","6899.9","sqft","29.71","3","2","","Sarah McGonagle","No","No","","1211 9th Ave","Natrona Heights","15065","PA","USA","40.611393","-79.73509"
"https://www.zillow.com/homedetails/3904-Beechwood-Blvd-Pittsburgh-PA-15217/11539546_zpid/","","","205000","209900","2166","110000","04/06/2023","1854","sqft","110.57","4416.98","sqft","46.41","4","2","","Lindsey Kingston","No","No","","3904 Beechwood Blvd","Pittsburgh","15217","PA","USA","40.428474","-79.93344"
"https://www.zillow.com/homedetails/1126-Edward-Dr-Pittsburgh-PA-15227/11642229_zpid/","","","206000","211400","1297","90000","04/06/2023","","","","7840.8","sqft","26.27","2","2","","Mark Ratti","No","No","","1126 Edward Dr","Pittsburgh","15227","PA","USA","40.392185","-79.9638"
"https://www.zillow.com/homedetails/824-Malvern-Rd-Pittsburgh-PA-15202/11325077_zpid/","","","205000","210600","1514","120300","04/05/2023","2196","sqft","93.35","6960.89","sqft","29.45","5","2","","Melissa Merriman","No","No","","824 Malvern Rd","Pittsburgh","15202","PA","USA","40.50369","-80.07216"
"https://www.zillow.com/homedetails/716-Joyce-Dr-West-Mifflin-PA-15122/11352870_zpid/","","","201600","207000","1575","103000","04/04/2023","","","","6011.28","sqft","33.54","3","2","","Susan Kaczorek","No","No","","716 Joyce Dr","West Mifflin","15122","PA","USA","40.367477","-79.926674"
"https://www.zillow.com/homedetails/1735-Jancey-St-Pittsburgh-PA-15206/11278288_zpid/","","","206000","211300","1962","104600","03/31/2023","1826","sqft","112.81","2800.91","sqft","73.55","5","2","","Brandi Cugini","No","No","","1735 Jancey St","Pittsburgh","15206","PA","USA","40.48574","-79.92712"
"https://www.zillow.com/homedetails/2063-McKees-Rocks-Rd-Mc-Kees-Rocks-PA-15136/11320857_zpid/","","","205000","210300","1400","123900","03/31/2023","1862","sqft","110.1","0.34","acres","595320","3","2","","Kim Stotlemyer","No","No","","2063 McKees Rocks Rd","Mc Kees Rocks","15136","PA","USA","40.457733","-80.109726"
"https://www.zillow.com/homedetails/627-Rebecca-St-McKeesport-PA-15132/2060150596_zpid/","","","202000","","1314","","03/30/2023","2100","sqft","96.19","0.4","acres","502362.6","","1","","Sabrina Geraci","No","No","","627 Rebecca St","McKeesport","15132","PA","USA","40.347973","-79.87316"
"https://www.zillow.com/homedetails/1128-Dagmar-Ave-Pittsburgh-PA-15216/11335627_zpid/","","","201000","206400","1400","85800","03/27/2023","","","","5584.39","sqft","35.99","2","2","","Daniel Howell","No","No","","1128 Dagmar Ave","Pittsburgh","15216","PA","USA","40.417236","-80.02342"
"https://www.zillow.com/homedetails/2611-Broadway-Ave-Pittsburgh-PA-15216/11565544_zpid/","","","205000","210500","1729","71700","03/27/2023","1674","sqft","122.46","3049.2","sqft","67.23","5","2","","Mary DeCort-Rhodes","No","No","","2611 Broadway Ave","Pittsburgh","15216","PA","USA","40.40043","-80.03208"
"https://www.zillow.com/homedetails/56-Coraopolis-Rd-Coraopolis-PA-15108/11322165_zpid/","","","204000","209700","1394","163600","03/24/2023","","","","0.39","acres","516586.48","3","1","","Melanie Marsh","No","No","","56 Coraopolis Rd","Coraopolis","15108","PA","USA","40.487396","-80.10634"
"https://www.zillow.com/homedetails/302-Crescent-Pl-Pittsburgh-PA-15238/11414425_zpid/","","","205000","210700","1700","138700","03/24/2023","1510","sqft","135.76","0.31","acres","667100.55","3","2","","Christine Healy","No","No","","302 Crescent Pl","Pittsburgh","15238","PA","USA","40.496727","-79.863144"
"https://www.zillow.com/homedetails/1619-Hollyrood-Rd-Pittsburgh-PA-15227/11390960_zpid/","","","205000","210800","1599","99100","03/23/2023","","","","7048.01","sqft","29.09","3","2","","Kula Kharel","No","No","","1619 Hollyrood Rd","Pittsburgh","15227","PA","USA","40.36259","-79.95977"
"https://www.zillow.com/homedetails/101-Hornaday-Rd-Pittsburgh-PA-15210/11557340_zpid/","","","201500","154700","1650","121900","03/16/2023","2162","sqft","93.2","0.26","acres","775596.61","5","2","","Michael Pohlot","No","No","","101 Hornaday Rd","Pittsburgh","15210","PA","USA","40.39493","-79.985794"
"https://www.zillow.com/homedetails/107-Murrayhill-Ave-Cheswick-PA-15024/11564485_zpid/","","","207000","213400","1300","81600","03/16/2023","1264","sqft","163.77","8359.16","sqft","24.76","3","2","","Jennifer Cloherty","No","No","","107 Murrayhill Ave","Cheswick","15024","PA","USA","40.541508","-79.79611"
"https://www.zillow.com/homedetails/825-Maine-St-Pittsburgh-PA-15221/11419513_zpid/","","","205000","211500","1949","108700","03/14/2023","1500","sqft","136.67","5998.21","sqft","34.18","3","3","","Kevin Honsberger","No","No","","825 Maine St","Pittsburgh","15221","PA","USA","40.427036","-79.853004"
"https://www.zillow.com/homedetails/4747-Bowes-Ave-West-Mifflin-PA-15122/11349808_zpid/","","","206250","213100","1500","118700","03/10/2023","1512","sqft","136.41","6738.73","sqft","30.61","3","2","","Kacey Amorose","No","No","","4747 Bowes Ave","West Mifflin","15122","PA","USA","40.379616","-79.88715"
"https://www.zillow.com/homedetails/27-Pioneer-Ave-Pittsburgh-PA-15229/11406884_zpid/","","","202500","209300","1485","91700","03/10/2023","1224","sqft","165.44","9347.98","sqft","21.66","3","1","","Joe Larkin","No","No","","27 Pioneer Ave","Pittsburgh","15229","PA","USA","40.513046","-80.040726"
"https://www.zillow.com/homedetails/742-King-St-McKeesport-PA-15132/11501777_zpid/","","","205000","212200","1495","118000","03/06/2023","","","","7501.03","sqft","27.33","4","3","","Jane Bloch","No","No","","742 King St","McKeesport","15132","PA","USA","40.334545","-79.82593"
"https://www.zillow.com/homedetails/627-Malibran-Dr-Pittsburgh-PA-15237/11558514_zpid/","","","202500","209800","1498","101500","03/03/2023","951","sqft","212.93","10497.96","sqft","19.29","2","1","","Janet Mundy","No","No","","627 Malibran Dr","Pittsburgh","15237","PA","USA","40.557434","-80.02582"
"https://www.zillow.com/homedetails/2311-Bull-Creek-Rd-Tarentum-PA-15084/11319431_zpid/","","","204500","212100","2064","108600","03/01/2023","","","","0.74","acres","276351.35","3","3","","Alexis Sutton","No","No","","2311 Bull Creek Rd","Tarentum","15084","PA","USA","40.625694","-79.76478"
"https://www.zillow.com/homedetails/556-Long-Rd-Pittsburgh-PA-15235/11452578_zpid/","","","202000","209500","1800","40000","03/01/2023","1412","sqft","143.06","0.29","acres","700659.04","3","2","","Allen Robinson","No","No","","556 Long Rd","Pittsburgh","15235","PA","USA","40.45479","-79.837585"
"https://www.zillow.com/homedetails/3090-Amy-Dr-South-Park-PA-15129/11251555_zpid/","","","203000","305900","1814","133300","02/24/2023","1287","sqft","157.73","9147.6","sqft","22.19","4","3","","Lori Maffeo","No","No","","3090 Amy Dr","South Park","15129","PA","USA","40.2857","-79.985435"
"https://www.zillow.com/homedetails/300-Ophelia-St-Pittsburgh-PA-15213/11413185_zpid/","","","202000","209900","1994","59000","02/24/2023","1800","sqft","112.22","1960.2","sqft","103.05","4","1","","Angie Flowers","No","No","","300 Ophelia St","Pittsburgh","15213","PA","USA","40.43489","-79.96333"
"https://www.zillow.com/homedetails/1350-Herman-St-Pittsburgh-PA-15212/11394582_zpid/","","","205000","213100","1550","40100","02/22/2023","","","","3049.2","sqft","67.23","3","1","","Felix Krynicky","No","No","","1350 Herman St","Pittsburgh","15212","PA","USA","40.46054","-79.987236"
"https://www.zillow.com/homedetails/417-Hankey-Farms-Dr-Oakdale-PA-15071/59848942_zpid/","","","202000","210400","1862","126300","02/21/2023","1602","sqft","126.09","0.26","acres","776141.84","3","2","","","No","No","","417 Hankey Farms Dr","Oakdale","15071","PA","USA","40.439323","-80.203896"
"https://www.zillow.com/homedetails/3756-Colby-St-Pittsburgh-PA-15214/11270341_zpid/","","","205000","213500","1929","88800","02/17/2023","","","","5227.2","sqft","39.22","5","3","","Kristi Stebler","No","No","","3756 Colby St","Pittsburgh","15214","PA","USA","40.489426","-80.00653"
"https://www.zillow.com/homedetails/3528-Wayne-Rd-Homestead-PA-15120/11295258_zpid/","","","206000","246300","1571","84900","02/17/2023","1707","sqft","120.68","5000.69","sqft","41.19","3","2","","Maximilian Lieberth","No","No","","3528 Wayne Rd","Homestead","15120","PA","USA","40.38569","-79.91098"
"https://www.zillow.com/homedetails/417-Hankey-Farms-Dr-N-Oakdale-PA-15071/2059981402_zpid/","","","202000","","1584","","02/17/2023","1602","sqft","126.09","0.26","acres","776027.66","3","2","","Kimberly Thurner","No","No","","417 Hankey Farms Dr N","Oakdale","15071","PA","USA","",""
"https://www.zillow.com/homedetails/6530-Swan-Dr-Verona-PA-15147/11449326_zpid/","","","202500","211100","1927","78300","02/15/2023","1522","sqft","133.05","6141.96","sqft","32.97","3","3","","Jeannine Dabecco","No","No","","6530 Swan Dr","Verona","15147","PA","USA","40.49705","-79.83968"
"https://www.zillow.com/homedetails/145-Lawrence-Ave-Homestead-PA-15120/11295674_zpid/","","","202000","210700","1567","72600","02/13/2023","1320","sqft","153.03","3598.06","sqft","56.14","3","2","","Alison Race","No","No","","145 Lawrence Ave","Homestead","15120","PA","USA","40.382935","-79.90817"
"https://www.zillow.com/homedetails/326-Johnston-Rd-Pittsburgh-PA-15241/11549764_zpid/","","","203000","211100","2100","174800","02/13/2023","1455","sqft","139.52","0.58","acres","349900.28","3","2.5","","","No","No","","326 Johnston Rd","Pittsburgh","15241","PA","USA","40.317604","-80.076"
"https://www.zillow.com/homedetails/118-Hillview-Rd-Clairton-PA-15025/11637345_zpid/","","","202000","210400","1542","140000","02/08/2023","1349","sqft","149.74","0.35","acres","578962.45","3","2","","Melissa Steffey","No","No","","118 Hillview Rd","Clairton","15025","PA","USA","40.28957","-79.96188"
"https://www.zillow.com/homedetails/333-Barnes-St-Pittsburgh-PA-15221/11342755_zpid/","","","205000","200600","1447","135400","02/03/2023","1900","sqft","107.89","2809.62","sqft","72.96","5","1","","","No","No","","333 Barnes St","Pittsburgh","15221","PA","USA","40.436768","-79.89004"
"https://www.zillow.com/homedetails/447-Englewood-Dr-Pittsburgh-PA-15237/11485480_zpid/","","","205000","214000","1934","139000","02/03/2023","","","","0.25","acres","820000","3","3","","Andrew Bencsics","No","No","","447 Englewood Dr","Pittsburgh","15237","PA","USA","40.533382","-79.988716"
"https://www.zillow.com/homedetails/3219-Laurel-Dr-Glenshaw-PA-15116/11523646_zpid/","","","206000","213500","1966","139400","02/02/2023","1061","sqft","194.16","9099.68","sqft","22.64","3","2","","April Hubal","No","No","","3219 Laurel Dr","Glenshaw","15116","PA","USA","40.54869","-79.98664"
"https://www.zillow.com/homedetails/4230-Tuxey-Ave-Pittsburgh-PA-15227/11391814_zpid/","","","205000","214100","1617","115400","02/01/2023","1104","sqft","185.69","5501.63","sqft","37.26","3","2","","Aida Agovic-Corna","No","No","","4230 Tuxey Ave","Pittsburgh","15227","PA","USA","40.362347","-79.980896"
"https://www.zillow.com/homedetails/1422-Coraopolis-Heights-Rd-Coraopolis-PA-15108/11517456_zpid/","","","202500","211500","1435","120000","02/01/2023","1115","sqft","181.61","3.48","acres","58173.08","3","1","","","No","No","","1422 Coraopolis Heights Rd","Coraopolis","15108","PA","USA","40.504623","-80.18462"
"https://www.zillow.com/homedetails/423-Burlington-Rd-Pittsburgh-PA-15221/11382642_zpid/","","","206000","215200","1300","103800","01/31/2023","1400","sqft","147.14","5998.21","sqft","34.34","3","1","","Elaine Krelis","No","No","","423 Burlington Rd","Pittsburgh","15221","PA","USA","40.423824","-79.866325"
"https://www.zillow.com/homedetails/137-Bost-Dr-West-Mifflin-PA-15122/11466699_zpid/","","","204000","213100","1559","98100","01/31/2023","1140","sqft","178.95","6987.02","sqft","29.2","3","2","","Mary Frances Miller","No","No","","137 Bost Dr","West Mifflin","15122","PA","USA","40.34549","-79.928894"
"https://www.zillow.com/homedetails/4814-Hamilton-Rd-Homestead-PA-15120/11295921_zpid/","","","201000","210100","1577","160900","01/27/2023","1026","sqft","195.91","0.33","acres","612804.88","3","2","","Kris Keller","No","No","","4814 Hamilton Rd","Homestead","15120","PA","USA","40.38071","-79.915504"
"https://www.zillow.com/homedetails/3126-Harts-Run-Rd-Allison-Park-PA-15101/11593197_zpid/","","","205000","214400","1400","149500","01/26/2023","1076","sqft","190.52","0.39","acres","522159.96","2","1","","Michelle Mattioli","No","No","","3126 Harts Run Rd","Allison Park","15101","PA","USA","40.562675","-79.9307"
"https://www.zillow.com/homedetails/102-Cherry-Tree-Pl-Coraopolis-PA-15108/11517951_zpid/","","","203000","212500","2570","176400","01/20/2023","2032","sqft","99.9","0.3","acres","666447.8","4","3","","Rand Hudson","No","No","","102 Cherry Tree Pl","Coraopolis","15108","PA","USA","40.52758","-80.19305"
"https://www.zillow.com/homedetails/186-Senate-Dr-Pittsburgh-PA-15236/11506551_zpid/","","","207000","216700","1314","119700","01/19/2023","1275","sqft","162.35","7801.6","sqft","26.53","3","2","","","No","No","","186 Senate Dr","Pittsburgh","15236","PA","USA","40.336037","-79.957565"
"https://www.zillow.com/homedetails/1407-Glenmar-St-Natrona-Heights-PA-15065/11331655_zpid/","","","205000","214900","1514","126300","01/13/2023","1800","sqft","113.89","8102.16","sqft","25.3","4","3","","Robert Singer","No","No","","1407 Glenmar St","Natrona Heights","15065","PA","USA","40.635265","-79.72392"
"https://www.zillow.com/homedetails/125-College-Park-Dr-Monroeville-PA-15146/11651490_zpid/","","","205000","214900","1739","97300","01/13/2023","898","sqft","228.29","10702.69","sqft","19.15","4","2","","Sandy Turi","No","No","","125 College Park Dr","Monroeville","15146","PA","USA","40.443935","-79.742165"
"https://www.zillow.com/homedetails/2371-Inglewood-Dr-White-Oak-PA-15131/11574679_zpid/","","","206185","216200","1800","151900","01/11/2023","","","","4.6","acres","44822.83","3","3","","Adam Slivka","No","No","","2371 Inglewood Dr","White Oak","15131","PA","USA","40.315704","-79.78595"
"https://www.zillow.com/homedetails/103-Opal-Ct-Natrona-Heights-PA-15065/11320654_zpid/","","","200200","210200","1800","105100","01/05/2023","1260","sqft","158.89","0.27","acres","736029.41","3","3","","Janet Czekalski","No","No","","103 Opal Ct","Natrona Heights","15065","PA","USA","40.62752","-79.70886"
"https://www.zillow.com/homedetails/128-Delfred-Dr-Carnegie-PA-15106/59843362_zpid/","","","205000","215300","1764","120600","01/03/2023","","","","7405.2","sqft","27.68","4","2","","Lynn Niman","No","No","","128 Delfred Dr","Carnegie","15106","PA","USA","40.407192","-80.10397"
"https://www.zillow.com/homedetails/5651-Melvin-St-Pittsburgh-PA-15217/11635397_zpid/","","","205000","215400","1919","161800","12/30/2022","1830","sqft","112.02","4512.82","sqft","45.43","3","2","","David Onufer","No","No","","5651 Melvin St","Pittsburgh","15217","PA","USA","40.430634","-79.92566"
"https://www.zillow.com/homedetails/1511-Ridge-Ave-Coraopolis-PA-15108/11439051_zpid/","","","205000","215500","1450","68200","12/27/2022","1402","sqft","146.22","3750.52","sqft","54.66","3","2","","Katherine Nath","No","No","","1511 Ridge Ave","Coraopolis","15108","PA","USA","40.513046","-80.15637"
"https://www.zillow.com/homedetails/233-Commonwealth-Ave-West-Mifflin-PA-15122/11386960_zpid/","","","205000","215700","1364","92000","12/21/2022","1128","sqft","181.74","7405.2","sqft","27.68","3","2","","Lori Bost","No","No","","233 Commonwealth Ave","West Mifflin","15122","PA","USA","40.38248","-79.88073"
"https://www.zillow.com/homedetails/517-McKee-Rd-White-Oak-PA-15131/11573302_zpid/","","","205000","215700","1494","91000","12/21/2022","","","","0.44","acres","469107.55","3","2","","Laurie Kiss","No","No","","517 McKee Rd","White Oak","15131","PA","USA","40.35961","-79.79649"
"https://www.zillow.com/homedetails/145-McMichael-Rd-Carnegie-PA-15106/59843612_zpid/","","","205000","215700","1450","123600","12/21/2022","1200","sqft","170.83","2.62","acres","78214.42","3","1","","Chad Church","No","No","","145 McMichael Rd","Carnegie","15106","PA","USA","40.418568","-80.141884"
"https://www.zillow.com/homedetails/677-Margaret-St-Pittsburgh-PA-15210/11435312_zpid/","","","205000","215800","1442","52700","12/14/2022","2037","sqft","100.64","4081.57","sqft","50.23","4","3","","Marissa Mott","No","No","","677 Margaret St","Pittsburgh","15210","PA","USA","40.407925","-79.98259"
"https://www.zillow.com/homedetails/1620-Beechwood-Blvd-APT-2-Pittsburgh-PA-15217/2112788564_zpid/","","","205000","","1427","","12/14/2022","1632","sqft","125.61","1598.65","sqft","128.23","4","1","","Frankie Jo Kunselman","No","No","Apt 2","1620 Beechwood Blvd APT 2","Pittsburgh","15217","PA","USA","40.4217","-79.92734"
"https://www.zillow.com/homedetails/3807-Brownsville-Rd-Pittsburgh-PA-15227/11354254_zpid/","","","206500","217600","1650","105000","12/09/2022","1851","sqft","111.56","9199.87","sqft","22.45","3","2","","Magen Bedillion","No","No","","3807 Brownsville Rd","Pittsburgh","15227","PA","USA","40.370007","-79.97478"
"https://www.zillow.com/homedetails/2349-Haven-Dr-Sewickley-PA-15143/11642892_zpid/","","","205000","216000","2998","186400","12/07/2022","2244","sqft","91.35","0.85","acres","241176.47","5","3","","Sonia Aronhalt","No","No","","2349 Haven Dr","Sewickley","15143","PA","USA","40.58085","-80.08628"
"https://www.zillow.com/homedetails/2049-Arnold-Acres-Dr-Pittsburgh-PA-15205/11356115_zpid/","","","202000","213000","1357","92800","12/01/2022","1120","sqft","180.36","5401.44","sqft","37.4","2","1","","Jennifer Crouse","No","No","","2049 Arnold Acres Dr","Pittsburgh","15205","PA","USA","40.427773","-80.048225"
"https://www.zillow.com/homedetails/99-Forest-Grove-Rd-Coraopolis-PA-15108/11366313_zpid/","","","205000","216200","1631","113500","11/30/2022","1160","sqft","176.72","0.34","acres","595238.1","3","2","","Dora Rudick","No","No","","99 Forest Grove Rd","Coraopolis","15108","PA","USA","40.48252","-80.12573"
"https://www.zillow.com/homedetails/6506-Springvale-Dr-Pittsburgh-PA-15236/11546978_zpid/","","","205500","216700","1681","107500","11/30/2022","","","","9975.24","sqft","20.6","3","2","","Sherry Harkins","No","No","","6506 Springvale Dr","Pittsburgh","15236","PA","USA","40.320457","-79.99467"
"https://www.zillow.com/homedetails/4723-Gardenville-Rd-Pittsburgh-PA-15236/11430468_zpid/","","","203500","265200","1752","121900","11/29/2022","1576","sqft","129.12","8320","sqft","24.46","4","2","","","No","No","","4723 Gardenville Rd","Pittsburgh","15236","PA","USA","40.34929","-80.007706"
"https://www.zillow.com/homedetails/761-Dutch-Hill-Rd-Oakdale-PA-15071/11657636_zpid/","","","205000","216200","1662","80200","11/29/2022","1040","sqft","197.12","1.58","acres","129746.84","4","2","","Mark McAdams-Templeton","No","No","","761 Dutch Hill Rd","Oakdale","15071","PA","USA","40.375023","-80.139824"
"https://www.zillow.com/homedetails/2281-Lynnbrook-Ave-Pittsburgh-PA-15226/11562336_zpid/","","","207000","218300","1253","95600","11/28/2022","1026","sqft","201.75","6346.69","sqft","32.62","2","1","","Ashley Schultz","No","No","","2281 Lynnbrook Ave","Pittsburgh","15226","PA","USA","40.39686","-80.00953"
"https://www.zillow.com/homedetails/109-Farnsworth-Ave-Turtle-Creek-PA-15145/11494937_zpid/","","","201000","218300","1500","80000","11/22/2022","","","","0.49","acres","410204.08","3","2","","Ilona Tassone","No","No","","109 Farnsworth Ave","Turtle Creek","15145","PA","USA","40.4238","-79.8202"
"https://www.zillow.com/homedetails/42-Glasgow-Rd-Gibsonia-PA-15044/11370680_zpid/","","","205000","216300","1493","125700","11/18/2022","","","","0.86","acres","237653.61","3","2","","Linda Boettcher","No","No","","42 Glasgow Rd","Gibsonia","15044","PA","USA","40.65718","-79.90298"
"https://www.zillow.com/homedetails/2737-Bingham-Dr-Pittsburgh-PA-15241/11582562_zpid/","","","205000","216400","1450","120500","11/15/2022","1056","sqft","194.13","1564","sqft","131.07","2","2","","","No","No","","2737 Bingham Dr","Pittsburgh","15241","PA","USA","40.312195","-80.10717"
"https://www.zillow.com/homedetails/132-Bigham-St-Pittsburgh-PA-15211/11363475_zpid/","","","205000","216400","1498","70800","11/14/2022","","","","2879.32","sqft","71.2","3","1","","Maureen States","No","No","","132 Bigham St","Pittsburgh","15211","PA","USA","40.434925","-80.01514"
"https://www.zillow.com/homedetails/1372-4th-St-Jefferson-Hills-PA-15025/11289162_zpid/","","","203500","214800","1441","120000","11/11/2022","1092","sqft","186.36","0.5","acres","407407.41","3","2","","Wayne Carson","No","No","","1372 4th St","JEFFERSON HILLS","15025","PA","USA","40.26009","-79.92307"
"https://www.zillow.com/homedetails/38-Edinburg-Dr-Pittsburgh-PA-15235/11533776_zpid/","","","202000","213300","1407","91300","11/10/2022","1723","sqft","117.24","9191.16","sqft","21.98","3","2","","Shane Smith","No","No","","38 Edinburg Dr","Pittsburgh","15235","PA","USA","40.454624","-79.80499"
"https://www.zillow.com/homedetails/1238-Gallupe-Dr-Pittsburgh-PA-15226/11562587_zpid/","","","202000","213300","1624","91500","11/09/2022","1389","sqft","145.43","5000","sqft","40.4","3","2","","","No","No","","1238 Gallupe Dr","Pittsburgh","15226","PA","USA","40.394592","-80.01021"
"https://www.zillow.com/homedetails/326-Hamilton-Drive-Ext-Pittsburgh-PA-15235/11568773_zpid/","","","205000","216500","1581","81400","11/07/2022","1314","sqft","156.01","0.33","acres","623589.39","3","2","","","No","No","","326 Hamilton Drive Ext","Pittsburgh","15235","PA","USA","40.47351","-79.79842"
"https://www.zillow.com/homedetails/326-Hamilton-Dr-Pittsburgh-PA-15235/2061480158_zpid/","","","205000","","1297","","11/04/2022","","","","0.32","acres","633302.44","3","2","","Kyle Crilley","No","No","","326 Hamilton Dr","Pittsburgh","15235","PA","USA","",""
"https://www.zillow.com/homedetails/233-Green-St-Pittsburgh-PA-15221/11342246_zpid/","","","203770","215200","2845","169400","11/03/2022","2125","sqft","95.89","1089","sqft","187.12","4","4","","Bobby West","No","No","","233 Green St","Pittsburgh","15221","PA","USA","40.439426","-79.89296"
"https://www.zillow.com/homedetails/1826-Saint-Paul-St-Pittsburgh-PA-15203/11307321_zpid/","","","205000","282400","1834","159600","11/02/2022","1195","sqft","171.55","2191.07","sqft","93.56","3","3","","Simone Fujikawa","No","No","","1826 Saint Paul St","Pittsburgh","15203","PA","USA","40.421677","-79.98138"
"https://www.zillow.com/homedetails/Circle-Markvue-M-Pl-Irwin-PA-15642/294918996_zpid/","","","207000","211100","1376","18790","11/02/2022","","","","0.3","acres","688787.72","","","","","No","No","","Circle Markvue M Pl","Irwin","15642","PA","USA","40.3496","-79.78295"
"https://www.zillow.com/homedetails/1109-Premier-St-Pittsburgh-PA-15201/11275723_zpid/","","","205500","217100","1650","86500","11/01/2022","1456","sqft","141.14","3001.28","sqft","68.47","3","2","","Jennifer Faure","No","No","","1109 Premier St","Pittsburgh","15201","PA","USA","40.483265","-79.939545"
"https://www.zillow.com/homedetails/5272-Adobe-Dr-Pittsburgh-PA-15236/11469981_zpid/","","","205000","216600","1289","94200","11/01/2022","950","sqft","215.79","6534","sqft","31.37","3","2","","CHRISTOPHER CARR","No","No","","5272 Adobe Dr","Pittsburgh","15236","PA","USA","40.340164","-79.98838"
"https://www.zillow.com/homedetails/1509-Transverse-Ave-Pittsburgh-PA-15210/11556541_zpid/","","","202000","213400","1495","67400","11/01/2022","1825","sqft","110.68","6202.94","sqft","32.57","4","2","","Theresa White","No","No","","1509 Transverse Ave","Pittsburgh","15210","PA","USA","40.401432","-79.98312"
"https://www.zillow.com/homedetails/2031-Brookfield-Rd-Pittsburgh-PA-15243/11361888_zpid/","","","206500","218100","1841","126600","10/31/2022","","","","5998.21","sqft","34.43","3","2","","Melissa Shipley","No","No","","2031 Brookfield Rd","Pittsburgh","15243","PA","USA","40.366837","-80.0897"
"https://www.zillow.com/homedetails/4609-W-Brightview-Ave-Pittsburgh-PA-15227/11392531_zpid/","","","202000","","1517","180100","10/31/2022","1892","sqft","106.77","0.26","acres","776923.08","4","3","","Robert Moncavage","No","No","","4609 W Brightview Ave","Pittsburgh","15227","PA","USA","40.36422","-79.994514"
"https://www.zillow.com/homedetails/3730-Woodrow-Ave-Pittsburgh-PA-15227/11353977_zpid/","","","205000","216600","1599","133000","10/28/2022","1399","sqft","146.53","6834.56","sqft","29.99","3","2","","Krista Sipos","No","No","","3730 Woodrow Ave","Pittsburgh","15227","PA","USA","40.372063","-79.97322"
"https://www.zillow.com/homedetails/71-Bonel-Ct-Pittsburgh-PA-15227/11299994_zpid/","","","205000","216600","1650","126000","10/27/2022","1170","sqft","175.21","0.25","acres","810276.68","3","2","","Magen Bedillion","No","No","","71 Bonel Ct","Pittsburgh","15227","PA","USA","40.375072","-79.94843"
"https://www.zillow.com/homedetails/224-Marshall-Dr-McKeesport-PA-15132/11502009_zpid/","","","205000","216600","1500","133700","10/26/2022","1622","sqft","126.39","0.41","acres","500732.78","3","2","","Craig Baum","No","No","","224 Marshall Dr","McKeesport","15132","PA","USA","40.33031","-79.82725"
"https://www.zillow.com/homedetails/3740-Perrysville-Ave-Pittsburgh-PA-15214/11270491_zpid/","","","202000","213400","3994","101200","10/25/2022","3500","sqft","57.71","7716","sqft","26.18","5","4","","","No","No","","3740 Perrysville Ave","Pittsburgh","15214","PA","USA","40.487354","-80.01587"
"https://www.zillow.com/homedetails/1407-Woodland-Ave-Pittsburgh-PA-15212/11498656_zpid/","","","205000","216600","1670","100000","10/24/2022","1494","sqft","137.22","5401.44","sqft","37.95","3","2","","Megan McNeish","No","No","","1407 Woodland Ave","Pittsburgh","15212","PA","USA","40.468487","-80.03179"
"https://www.zillow.com/homedetails/2087-Woodward-Ave-Pittsburgh-PA-15226/11565327_zpid/","","","205000","216400","1400","78600","10/20/2022","1132","sqft","181.1","","","","3","2","","Jackie Horvath","No","No","","2087 Woodward Ave","Pittsburgh","15226","PA","USA","40.402138","-80.01962"
"https://www.zillow.com/homedetails/4445-Stilley-Rd-Pittsburgh-PA-15227/11392125_zpid/","","","204000","215400","1681","82700","10/19/2022","1302","sqft","156.68","9783.58","sqft","20.85","3","3","","Eileen Allan","No","No","","4445 Stilley Rd","Pittsburgh","15227","PA","USA","40.36016","-79.98086"
"https://www.zillow.com/homedetails/2101-Parklyn-St-Pittsburgh-PA-15234/11650163_zpid/","","","205000","231200","1479","87500","10/18/2022","1346","sqft","152.3","7130.77","sqft","28.75","4","1","","Lori Bost","No","No","","2101 Parklyn St","Pittsburgh","15234","PA","USA","40.38811","-80.005646"
"https://www.zillow.com/homedetails/3909-Edge-Rd-Pittsburgh-PA-15227/11354622_zpid/","","","201750","213000","1614","111000","10/14/2022","1445","sqft","139.62","6804.07","sqft","29.65","3","2","","Kimberly Smozski","No","No","","3909 Edge Rd","Pittsburgh","15227","PA","USA","40.365883","-79.9743"
"https://www.zillow.com/homedetails/129-Laurie-Dr-Pittsburgh-PA-15235/11534362_zpid/","","","200170","211300","1749","80200","10/14/2022","1050","sqft","190.64","10846.44","sqft","18.45","3","3","","Courtney Anderson","No","No","","129 Laurie Dr","Pittsburgh","15235","PA","USA","40.449856","-79.801735"
"https://www.zillow.com/homedetails/3909-S-Edge-Rd-Pittsburgh-PA-15227/2061816417_zpid/","","","201750","","1401","","10/14/2022","","","","","","","","","","","No","No","","3909 S Edge Rd","Pittsburgh","15227","PA","USA","",""
"https://www.zillow.com/homedetails/318-West-St-Pittsburgh-PA-15221/11342427_zpid/","","","205000","216400","1799","104800","10/12/2022","","","","2922.88","sqft","70.14","4","2","","Diana Adams","No","No","","318 West St","Pittsburgh","15221","PA","USA","40.439583","-79.890915"
"https://www.zillow.com/homedetails/106-Maple-Ave-Pittsburgh-PA-15202/11367527_zpid/","","","205000","216400","1500","87100","10/12/2022","949","sqft","216.02","7248.38","sqft","28.28","2","2","","Terrence Thurber","No","No","","106 Maple Ave","Pittsburgh","15202","PA","USA","40.509537","-80.09764"
"https://www.zillow.com/homedetails/713-Division-St-West-Mifflin-PA-15122/11385703_zpid/","","","206000","217400","1499","111100","10/10/2022","1196","sqft","172.24","0.3","acres","686666.67","3","2","","Reena Blumberger","No","No","","713 Division St","West Mifflin","15122","PA","USA","40.395008","-79.87913"
"https://www.zillow.com/homedetails/157-Spring-St-Pittsburgh-PA-15223/11372954_zpid/","","","207000","219100","1597","61300","10/07/2022","1263","sqft","163.9","2500.34","sqft","82.79","3","2","","Nancy Yagesh","No","No","","157 Spring St","Pittsburgh","15223","PA","USA","40.50232","-79.95695"
"https://www.zillow.com/homedetails/2648-Campbell-Cir-West-Mifflin-PA-15122/11389452_zpid/","","","205000","216300","1364","60400","10/07/2022","1008","sqft","203.37","0.25","acres","813169.38","3","3","","Dominic Battista","No","No","","2648 Campbell Cir","West Mifflin","15122","PA","USA","40.363934","-79.87583"
"https://www.zillow.com/homedetails/2510-Henderson-Rd-White-Oak-PA-15131/11501399_zpid/","","","206000","217400","1184","80500","10/06/2022","1408","sqft","146.31","0.58","acres","356216.5","2","1","","Lauren Frankie","No","No","","2510 Henderson Rd","White Oak","15131","PA","USA","40.3421","-79.81725"
"https://www.zillow.com/homedetails/7480-Steubenville-Pike-Oakdale-PA-15071/59849667_zpid/","","","205000","216300","1399","94100","10/05/2022","960","sqft","213.54","7723","sqft","26.54","3","1","","","No","No","","7480 Steubenville Pike","Oakdale","15071","PA","USA","40.441864","-80.19828"
"https://www.zillow.com/homedetails/971-Ella-St-Bridgeville-PA-15017/11400157_zpid/","","","205000","216300","1500","127900","10/03/2022","893","sqft","229.56","4800.31","sqft","42.71","3","2","","Nicholas Rough","No","No","","971 Ella St","Bridgeville","15017","PA","USA","40.356625","-80.10248"
"https://www.zillow.com/homedetails/1535-Powers-Run-Rd-Pittsburgh-PA-15238/11413718_zpid/","","","205000","216300","1752","194500","10/03/2022","1312","sqft","156.25","0.54","acres","380263.4","3","2","","Julie Rost","No","No","","1535 Powers Run Rd","Pittsburgh","15238","PA","USA","40.520386","-79.865456"
"https://www.zillow.com/homedetails/1404-Orangewood-Ave-Pittsburgh-PA-15216/11445031_zpid/","","","206000","218000","1700","82800","09/30/2022","1232","sqft","167.21","3001.28","sqft","68.64","3","2","","Joey Booker","No","No","","1404 Orangewood Ave","Pittsburgh","15216","PA","USA","40.412903","-80.0186"
"https://www.zillow.com/homedetails/413-Colonial-Dr-Monroeville-PA-15146/11627024_zpid/","","","206000","217900","1650","96300","09/26/2022","1095","sqft","188.13","6799.72","sqft","30.3","3","2","","Amy Rick","No","No","","413 Colonial Dr","Monroeville","15146","PA","USA","40.452713","-79.76641"
"https://www.zillow.com/homedetails/1544-Reamer-St-Pittsburgh-PA-15226/11649748_zpid/","","","205000","216800","1399","109600","09/26/2022","1832","sqft","111.9","3990.1","sqft","51.38","3","1","","Magen Bedillion","No","No","","1544 Reamer St","Pittsburgh","15226","PA","USA","40.391724","-80.002975"
"https://www.zillow.com/homedetails/3773-Rural-Ct-E-Pittsburgh-PA-15221/11454562_zpid/","","","207000","218900","1300","127100","09/23/2022","1176","sqft","176.02","6912.97","sqft","29.94","3","1","","Krista Verrico","No","No","","3773 Rural Ct E","Pittsburgh","15221","PA","USA","40.43112","-79.84755"
"https://www.zillow.com/homedetails/143-Fern-Hollow-Rd-Coraopolis-PA-15108/11518217_zpid/","","","202500","214100","1492","133800","09/21/2022","1053","sqft","192.31","0.52","acres","390173.41","2","2","","Jason Mosesso","No","No","","143 Fern Hollow Rd","Coraopolis","15108","PA","USA","40.522865","-80.194435"
"https://www.zillow.com/homedetails/1120-Harvard-Rd-Monroeville-PA-15146/11628059_zpid/","","","206000","217700","1741","108600","09/20/2022","","","","0.26","acres","792003.08","3","2","","Joe Yost","No","No","","1120 Harvard Rd","Monroeville","15146","PA","USA","40.416115","-79.75562"
"https://www.zillow.com/homedetails/151-Victoria-Dr-White-Oak-PA-15131/11540658_zpid/","","","207000","218700","1994","99900","09/15/2022","","","","0.32","acres","644057.25","3","3","","Erica Shulsky","No","No","","151 Victoria Dr","White Oak","15131","PA","USA","40.355183","-79.811745"
"https://www.zillow.com/homedetails/6336-Stanton-Ave-Pittsburgh-PA-15206/11284250_zpid/","","","202500","366400","2340","112500","09/14/2022","2100","sqft","96.43","","","","3","1","","","No","No","","6336 Stanton Ave","Pittsburgh","15206","PA","USA","40.468475","-79.915436"
"https://www.zillow.com/homedetails/3090-Woodridge-Dr-Pittsburgh-PA-15227/11306286_zpid/","","","205000","216500","1681","126900","09/12/2022","1040","sqft","197.12","0.26","acres","800781.25","3","2","","Cindy Demel","No","No","","3090 Woodridge Dr","Pittsburgh","15227","PA","USA","40.37687","-79.99201"
"https://www.zillow.com/homedetails/212-Davis-Ave-Pittsburgh-PA-15223/11330947_zpid/","","","207000","218600","1694","97500","09/12/2022","828","sqft","250","8398.37","sqft","24.65","2","2","","Christine Grossman","No","No","","212 Davis Ave","Pittsburgh","15223","PA","USA","40.495083","-79.95734"
"https://www.zillow.com/homedetails/586-Filmore-Rd-Pittsburgh-PA-15221/11419259_zpid/","","","203000","214300","1594","100700","09/09/2022","","","","5998.21","sqft","33.84","3","2","","Eileen Doheny","No","No","","586 Filmore Rd","Pittsburgh","15221","PA","USA","40.429646","-79.85146"
"https://www.zillow.com/homedetails/716-Bittersweet-Rd-Monroeville-PA-15146/11569448_zpid/","","","200927","228900","1731","95100","09/09/2022","1422","sqft","141.3","0.28","acres","722620.55","3","2","","","No","No","","716 Bittersweet Rd","Monroeville","15146","PA","USA","40.449757","-79.78987"
"https://www.zillow.com/homedetails/1047-McKenna-Ave-Pittsburgh-PA-15205/11356188_zpid/","","","204000","295700","1817","143000","09/07/2022","1444","sqft","141.27","9000","sqft","22.67","3","1.5","","","No","No","","1047 McKenna Ave","Pittsburgh","15205","PA","USA","40.424873","-80.04646"
"https://www.zillow.com/homedetails/119-College-Park-Dr-Monroeville-PA-15146/11651487_zpid/","","","204000","215200","1798","112200","09/01/2022","1313","sqft","155.37","9533","sqft","21.4","4","2","","","No","No","","119 College Park Dr","Monroeville","15146","PA","USA","40.44351","-79.742584"
"https://www.zillow.com/homedetails/807-Woodbourne-Ave-Pittsburgh-PA-15226/11652814_zpid/","","","202700","213800","1610","90100","08/29/2022","1616","sqft","125.43","3598.06","sqft","56.34","3","2","","Gina Rowlands","No","No","","807 Woodbourne Ave","Pittsburgh","15226","PA","USA","40.392467","-80.021065"
"https://www.zillow.com/homedetails/326-McKinney-Dr-Coraopolis-PA-15108/11552750_zpid/","","","205000","216200","1849","159500","08/26/2022","1143","sqft","179.35","0.39","acres","525641.03","3","2","","Rosina Scalamogna","No","No","","326 McKinney Dr","Coraopolis","15108","PA","USA","40.505306","-80.21229"
"https://www.zillow.com/homedetails/432-Garden-City-Dr-Monroeville-PA-15146/11600396_zpid/","","","206000","217300","1650","91000","08/26/2022","","","","7840.8","sqft","26.27","3","2","","Shelley Killinger","No","No","","432 Garden City Dr","Monroeville","15146","PA","USA","40.446644","-79.77629"
"https://www.zillow.com/homedetails/2754-Milford-Dr-Bethel-Park-PA-15102/11471739_zpid/","","","203500","214600","1849","135000","08/24/2022","1505","sqft","135.22","0.25","acres","814000","3","2","","Paige Swindell","No","No","","2754 Milford Dr","Bethel Park","15102","PA","USA","40.34207","-80.040596"
"https://www.zillow.com/homedetails/157-Oak-St-Monroeville-PA-15146/11572230_zpid/","","","201500","218200","1500","98200","08/24/2022","1940","sqft","103.87","0.37","acres","548597.88","3","2","","Lauren Klein","No","No","","157 Oak St","Monroeville","15146","PA","USA","40.41482","-79.78354"
"https://www.zillow.com/homedetails/290-Barclay-Ave-Pittsburgh-PA-15221/11454842_zpid/","","","203000","214100","1300","95500","08/23/2022","1264","sqft","160.6","5998.21","sqft","33.84","3","1","","Eileen Doheny","No","No","","290 Barclay Ave","Pittsburgh","15221","PA","USA","40.428627","-79.84885"
"https://www.zillow.com/homedetails/8-Marycrest-Dr-Pittsburgh-PA-15235/11532402_zpid/","","","205000","216200","2353","110700","08/23/2022","1996","sqft","102.71","9239.08","sqft","22.19","4","3","","Taylor Drawbaugh","No","No","","8 Marycrest Dr","Pittsburgh","15235","PA","USA","40.470016","-79.807755"
"https://www.zillow.com/homedetails/4214-New-Texas-Rd-Pittsburgh-PA-15239/11625899_zpid/","","","205000","216100","1281","58700","08/19/2022","1056","sqft","194.13","0.38","acres","540184.45","2","1","","Courtney Podvasnik","No","No","","4214 New Texas Rd","Pittsburgh","15239","PA","USA","40.496628","-79.7526"
"https://www.zillow.com/homedetails/542-W-8th-Ave-Tarentum-PA-15084/11259822_zpid/","","","205000","216100","2250","93400","08/18/2022","2026","sqft","101.18","0.31","acres","670372.79","3","3","","Robert Iseman","No","No","","542 W 8th Ave","Tarentum","15084","PA","USA","40.59609","-79.76988"
"https://www.zillow.com/homedetails/4314-Foster-St-Pittsburgh-PA-15201/11512861_zpid/","","","206000","217200","1499","49900","08/18/2022","1088","sqft","189.34","679.54","sqft","303.15","2","1","","Catherine McConnell","No","No","","4314 Foster St","Pittsburgh","15201","PA","USA","40.47184","-79.96104"
"https://www.zillow.com/homedetails/649-Dunster-St-Pittsburgh-PA-15226/11561812_zpid/","","","205000","216100","1500","105900","08/18/2022","1100","sqft","186.36","3001.28","sqft","68.3","3","2","","Jacob Rady","No","No","","649 Dunster St","Pittsburgh","15226","PA","USA","40.40255","-80.01269"
"https://www.zillow.com/homedetails/1096-Starr-Rd-Crescent-PA-15046/11613939_zpid/","","","203200","214200","1602","86500","08/18/2022","1899","sqft","107","9545","sqft","21.29","3","2","","","No","No","","1096 Starr Rd","Crescent","15046","PA","USA","40.558674","-80.24305"
"https://www.zillow.com/homedetails/10120-Old-Perry-Hwy-Wexford-PA-15090/11258059_zpid/","","","205000","216100","1982","135700","08/17/2022","1000","sqft","205","0.61","acres","335900.38","3","1","","Kaedi Knepshield","No","No","","10120 Old Perry Hwy","Wexford","15090","PA","USA","40.59709","-80.045845"
"https://www.zillow.com/homedetails/1104-Shadycrest-Pl-Pittsburgh-PA-15216/11335448_zpid/","","","205000","216000","1500","66100","08/12/2022","","","","5266.4","sqft","38.93","3","1","","Jenn Reddinger","No","No","","1104 Shadycrest Pl","Pittsburgh","15216","PA","USA","40.422028","-80.0257"
"https://www.zillow.com/homedetails/811-E-Hutchinson-Ave-Pittsburgh-PA-15218/11342999_zpid/","","","207000","218100","1377","100000","08/12/2022","1280","sqft","161.72","2848.82","sqft","72.66","3","1","","Eric Tallon","No","No","","811 E Hutchinson Ave","Pittsburgh","15218","PA","USA","40.435806","-79.88487"
"https://www.zillow.com/homedetails/322-N-Fairmount-St-Pittsburgh-PA-15206/11623223_zpid/","","","205000","409800","3417","116200","08/12/2022","2882","sqft","71.13","4099","sqft","50.01","6","2","","Emily Fraser","No","No","","322 N Fairmount St","Pittsburgh","15206","PA","USA","40.467155","-79.93098"
"https://www.zillow.com/homedetails/222-Sunflower-Ave-Pittsburgh-PA-15202/11326499_zpid/","","","201250","212000","1564","99500","08/11/2022","1125","sqft","178.89","6973.96","sqft","28.86","2","2","","Becca Knezevich","No","No","","222 Sunflower Ave","Pittsburgh","15202","PA","USA","40.500095","-80.04635"
"https://www.zillow.com/homedetails/4608-Lolly-Dr-Monroeville-PA-15146/11652009_zpid/","","","205500","216400","1691","105700","08/05/2022","1200","sqft","171.25","9504.79","sqft","21.62","3","2","","Frank Pekarek","No","No","","4608 Lolly Dr","Monroeville","15146","PA","USA","40.42763","-79.7334"
"https://www.zillow.com/homedetails/5529-Clark-Ave-Bethel-Park-PA-15102/11547461_zpid/","","","205513","216400","2100","148900","08/03/2022","1516","sqft","135.56","0.26","acres","800800.28","3","2.5","","","No","No","","5529 Clark Ave","Bethel Park","15102","PA","USA","40.320206","-80.030655"
"https://www.zillow.com/homedetails/179-Morrison-Dr-Pittsburgh-PA-15216/11571428_zpid/","","","203608","214400","1510","130600","08/01/2022","1296","sqft","157.1","4155.62","sqft","49","2","2","","Aida Agovic-Corna","No","No","","179 Morrison Dr","Pittsburgh","15216","PA","USA","40.394794","-80.047195"
"https://www.zillow.com/homedetails/229-Catskill-Ave-Pittsburgh-PA-15227/11305155_zpid/","","","205000","215800","1650","142500","07/29/2022","1230","sqft","166.67","5471.14","sqft","37.47","3","2","","Danielle Gundlach","No","No","","229 Catskill Ave","Pittsburgh","15227","PA","USA","40.37784","-79.97001"
"https://www.zillow.com/homedetails/1301-Justine-St-Pittsburgh-PA-15204/11479469_zpid/","","","202500","213100","1257","76900","07/29/2022","1000","sqft","202.5","3898.62","sqft","51.94","2","1","","Eli Cominos","No","No","","1301 Justine St","Pittsburgh","15204","PA","USA","40.448452","-80.05821"
"https://www.zillow.com/homedetails/1301-Justine-Sheraden-PA-15204/2130741237_zpid/","","","202500","110200","1050","","07/29/2022","","","","","","","2","1","","","No","No","","1301 Justine","Sheraden","15204","PA","USA","40.448463","-80.05822"
"https://www.zillow.com/homedetails/1139-Woodbourne-Ave-Pittsburgh-PA-15226/11649877_zpid/","","","207000","217900","1495","67000","07/28/2022","1450","sqft","142.76","3598.06","sqft","57.53","3","1","","Lauren Coulter","No","No","","1139 Woodbourne Ave","Pittsburgh","15226","PA","USA","40.388805","-80.01613"
"https://www.zillow.com/homedetails/732-Bar-Harbor-Dr-Pittsburgh-PA-15239/11282907_zpid/","","","206100","216900","1694","120600","07/27/2022","1107","sqft","186.18","8359.16","sqft","24.66","3","2","","Cynthia Hughes","No","No","","732 Bar Harbor Dr","Pittsburgh","15239","PA","USA","40.472027","-79.716286"
"https://www.zillow.com/homedetails/400-Hulton-Ln-Oakmont-PA-15139/11446793_zpid/","","","202000","212600","1300","72500","07/26/2022","1120","sqft","180.36","1594.3","sqft","126.7","3","1","","Lori Hummel","No","No","","400 Hulton Ln","Oakmont","15139","PA","USA","40.526737","-79.83857"
"https://www.zillow.com/homedetails/1870-Kiralfy-Ave-Pittsburgh-PA-15216/11446230_zpid/","","","202750","213300","1497","85800","07/25/2022","1494","sqft","135.71","2748.64","sqft","73.76","3","2","","Del Burrell","No","No","","1870 Kiralfy Ave","Pittsburgh","15216","PA","USA","40.40552","-80.021835"
"https://www.zillow.com/homedetails/2350-Palm-Beach-Ave-Pittsburgh-PA-15216/11565649_zpid/","","","205000","215700","1275","79500","07/25/2022","","","","3297.49","sqft","62.17","2","1","","Maureen States","No","No","","2350 Palm Beach Ave","Pittsburgh","15216","PA","USA","40.401226","-80.02626"
"https://www.zillow.com/homedetails/2004-Wolford-St-Pittsburgh-PA-15226/11566336_zpid/","","","206000","216800","1662","70000","07/25/2022","1850","sqft","111.35","4229.68","sqft","48.7","3","2","","Sara Augustine","No","No","","2004 Wolford St","Pittsburgh","15226","PA","USA","40.398594","-80.01749"
"https://www.zillow.com/homedetails/394-Rockhill-Rd-Pittsburgh-PA-15243/11361997_zpid/","","","202900","213400","1623","112600","07/22/2022","1092","sqft","185.81","7000.09","sqft","28.99","3","1","","Wayne Reck","No","No","","394 Rockhill Rd","Pittsburgh","15243","PA","USA","40.366676","-80.08686"
"https://www.zillow.com/homedetails/1304-Berkshire-Ave-Pittsburgh-PA-15226/11649855_zpid/","","","203000","213500","1488","89200","07/19/2022","1393","sqft","145.73","3598.06","sqft","56.42","3","1","","Robert Oliverio","No","No","","1304 Berkshire Ave","Pittsburgh","15226","PA","USA","40.388493","-80.01487"
"https://www.zillow.com/homedetails/157-Laurie-Dr-Pittsburgh-PA-15235/11534237_zpid/","","","201750","212200","1397","81900","07/18/2022","1200","sqft","168.13","8712","sqft","23.16","3","","","Staci Rullo","No","No","","157 Laurie Dr","Pittsburgh","15235","PA","USA","40.450874","-79.80168"
"https://www.zillow.com/homedetails/635-Harborview-Dr-Pittsburgh-PA-15239/11283396_zpid/","","","204500","215000","1697","121300","07/15/2022","","","","7623","sqft","26.83","3","2","","Richard Creo","No","No","","635 Harborview Dr","Pittsburgh","15239","PA","USA","40.464928","-79.71576"
"https://www.zillow.com/homedetails/25-E-Woodford-Ave-Pittsburgh-PA-15210/11647207_zpid/","","","204600","215100","1701","106000","07/15/2022","","","","","","","6","3","","Jackie Horvath","No","No","","25 E Woodford Ave","Pittsburgh","15210","PA","USA","40.393562","-79.98545"
"https://www.zillow.com/homedetails/135-Chalfonte-Ave-Pittsburgh-PA-15229/11406196_zpid/","","","206000","216600","1646","75900","07/14/2022","1347","sqft","152.93","3598.06","sqft","57.25","2","2","","Morgan Valecko","No","No","","135 Chalfonte Ave","Pittsburgh","15229","PA","USA","40.5207","-80.03563"
"https://www.zillow.com/homedetails/1106-Grouse-Dr-Pittsburgh-PA-15243/11313827_zpid/","","","206000","216500","1802","112600","07/11/2022","960","sqft","214.58","10511.03","sqft","19.6","3","2","","Charlene Jenkins","No","No","","1106 Grouse Dr","Pittsburgh","15243","PA","USA","40.382458","-80.06966"
"https://www.zillow.com/homedetails/611-Chestnut-St-Coraopolis-PA-15108/11438644_zpid/","","","205809","216300","1485","114200","07/08/2022","1519","sqft","135.49","3550.14","sqft","57.97","3","2","","Brenda Dzurko","No","No","","611 Chestnut St","Coraopolis","15108","PA","USA","40.51476","-80.1604"
"https://www.zillow.com/homedetails/219-6th-Ave-Pittsburgh-PA-15229/11441421_zpid/","","","201000","211200","1662","118500","07/08/2022","1008","sqft","199.4","6250.86","sqft","32.16","2","2","","Georgie Smigel","No","No","","219 6th Ave","Pittsburgh","15229","PA","USA","40.529804","-80.02201"
"https://www.zillow.com/homedetails/526-Thompson-Run-Rd-Pittsburgh-PA-15237/11485458_zpid/","","","203000","213300","1681","95400","07/08/2022","1014","sqft","200.2","0.9","acres","225555.56","3","1","","Emily Ochman","No","No","","526 Thompson Run Rd","Pittsburgh","15237","PA","USA","40.533855","-79.98889"
"https://www.zillow.com/homedetails/526-Thompson-Run-Rd-LOT-2-Pittsburgh-PA-15235/11569293_zpid/","","","203000","","1399","60200","07/08/2022","1014","sqft","200.2","0.78","acres","261850.16","3","1","","","No","No","lot 2","526 Thompson Run Rd LOT 2","Pittsburgh","15235","PA","USA","40.451107","-79.796745"
"https://www.zillow.com/homedetails/3-Monterey-Dr-Pittsburgh-PA-15235/11531652_zpid/","","","205900","383000","3200","205900","07/07/2022","2889","sqft","71.27","0.3","acres","679727.47","4","2.5","","","No","No","","3 Monterey Dr","Pittsburgh","15235","PA","USA","40.483154","-79.816475"
"https://www.zillow.com/homedetails/2431-Arlington-Ave-Pittsburgh-PA-15210/11308484_zpid/","","","205000","215300","1550","58000","07/01/2022","1864","sqft","109.98","3484.8","sqft","58.83","4","2","","Jane Bloch","No","No","","2431 Arlington Ave","Pittsburgh","15210","PA","USA","40.41781","-79.97166"
"https://www.zillow.com/homedetails/231-Old-Clairton-Rd-Clairton-PA-15025/11577940_zpid/","","","205000","215300","1442","113600","07/01/2022","","","","10454.4","sqft","19.61","3","2","","Mary Alice Macioce","No","No","","231 Old Clairton Rd","Clairton","15025","PA","USA","40.314987","-79.95336"
"https://www.zillow.com/homedetails/1218-Berkshire-Ave-Pittsburgh-PA-15226/11649859_zpid/","","","203000","213200","1603","105900","07/01/2022","1370","sqft","148.18","3598.06","sqft","56.42","3","2","","Pia Colucci","No","No","","1218 Berkshire Ave","Pittsburgh","15226","PA","USA","40.388706","-80.01502"
"https://www.zillow.com/homedetails/5410-Carnegie-St-Pittsburgh-PA-15201/11272780_zpid/","","","205500","215800","1421","70700","06/30/2022","1515","sqft","135.64","1999.4","sqft","102.78","2","1","","Mary Kay Abdulovic","No","No","","5410 Carnegie St","Pittsburgh","15201","PA","USA","40.482426","-79.950005"
"https://www.zillow.com/homedetails/3206-Mayflower-Dr-Pittsburgh-PA-15227/11306363_zpid/","","","201000","211100","1499","106000","06/30/2022","975","sqft","206.15","9748.73","sqft","20.62","3","2","","Sandra Rodeheaver","No","No","","3206 Mayflower Dr","Pittsburgh","15227","PA","USA","40.37564","-79.98807"
"https://www.zillow.com/homedetails/207-Spartan-Dr-Monroeville-PA-15146/11651540_zpid/","","","205500","215800","1739","133200","06/30/2022","","","","0.52","acres","398255.81","4","2","","Nancy Hammill","No","No","","207 Spartan Dr","Monroeville","15146","PA","USA","40.44513","-79.74114"
"https://www.zillow.com/homedetails/5308-Adobe-Dr-Pittsburgh-PA-15236/11469897_zpid/","","","205000","215100","1650","109800","06/27/2022","1100","sqft","186.36","6534","sqft","31.37","3","1","","Tracy Khalil","No","No","","5308 Adobe Dr","Pittsburgh","15236","PA","USA","40.33957","-79.988266"
"https://www.zillow.com/homedetails/821-Pittsburgh-St-Springdale-PA-15144/11595761_zpid/","","","205000","215200","2895","106200","06/27/2022","","","","10759.32","sqft","19.05","4","3","","Kevin Shaner","No","No","","821 Pittsburgh St","Springdale","15144","PA","USA","40.54158","-79.77921"
"https://www.zillow.com/homedetails/159-Mardi-Gras-Dr-Pittsburgh-PA-15239/11281621_zpid/","","","202000","212000","1498","106700","06/24/2022","","","","7819.02","sqft","25.83","3","2","","","No","No","","159 Mardi Gras Dr","Pittsburgh","15239","PA","USA","40.48533","-79.70913"
"https://www.zillow.com/homedetails/5337-Brownsville-Rd-Pittsburgh-PA-15236/11469987_zpid/","","","204000","214200","1698","115600","06/24/2022","","","","0.43","acres","474418.6","3","2","","Diane D'Amico","No","No","","5337 Brownsville Rd","Pittsburgh","15236","PA","USA","40.340538","-79.98405"
"https://www.zillow.com/homedetails/472-N-Lewis-Run-Rd-West-Mifflin-PA-15122/11506393_zpid/","","","205000","215200","1400","85000","06/24/2022","1484","sqft","138.14","0.53","acres","383392.56","3","3","","Linda Backo","No","No","","472 N Lewis Run Rd","West Mifflin","15122","PA","USA","40.33108","-79.93725"
"https://www.zillow.com/homedetails/231-Logan-Rd-Bethel-Park-PA-15102/11510199_zpid/","","","205000","215200","1470","121000","06/24/2022","1439","sqft","142.46","0.25","acres","817710.41","4","2","","Michael Bello","No","No","","231 Logan Rd","Bethel Park","15102","PA","USA","40.327606","-80.05002"
"https://www.zillow.com/homedetails/412-Clifton-Ave-Glenshaw-PA-15116/11443996_zpid/","","","205000","215200","1999","131000","06/21/2022","1144","sqft","179.2","0.5","acres","410000","3","2","","Cathy Wanserski","No","No","","412 Clifton Ave","Glenshaw","15116","PA","USA","40.52103","-79.95353"
"https://www.zillow.com/homedetails/460-Ridgemont-Dr-Pittsburgh-PA-15220/11355821_zpid/","","","205000","215100","1685","82600","06/20/2022","947","sqft","216.47","0.34","acres","602409.64","3","2","","Frankie Jo Kunselman","No","No","","460 Ridgemont Dr","Pittsburgh","15220","PA","USA","40.432735","-80.03581"
"https://www.zillow.com/homedetails/2329-W-Hardies-Rd-Gibsonia-PA-15044/11276034_zpid/","","","206000","216200","1675","112300","06/17/2022","1035","sqft","199.03","0.37","acres","556756.76","2","2","","Lisa Corbett","No","No","","2329 W Hardies Rd","Gibsonia","15044","PA","USA","40.599846","-79.96835"
"https://www.zillow.com/homedetails/801-Virginia-Avenue-Ext-Pittsburgh-PA-15215/11334989_zpid/","","","205000","215100","1407","109900","06/17/2022","","","","3528.36","sqft","58.1","3","1","","Mary Scafede","No","No","","801 Virginia Avenue Ext","Pittsburgh","15215","PA","USA","40.495895","-79.90173"
"https://www.zillow.com/homedetails/103-Peony-Ave-Pittsburgh-PA-15229/11440789_zpid/","","","206000","216200","1866","112600","06/17/2022","1125","sqft","183.11","5501.63","sqft","37.44","3","2","","Thom McDonell","No","No","","103 Peony Ave","Pittsburgh","15229","PA","USA","40.524277","-80.04905"
"https://www.zillow.com/homedetails/2498-Driftwood-Dr-Bethel-Park-PA-15102/11471781_zpid/","","","206000","173300","1914","140200","06/17/2022","","","","0.33","acres","624242.42","3","3","","Andrew Bencsics","No","No","","2498 Driftwood Dr","Bethel Park","15102","PA","USA","40.34289","-80.03313"
"https://www.zillow.com/homedetails/102-Indian-Dr-Pittsburgh-PA-15238/11562729_zpid/","","","202500","212500","1546","130500","06/17/2022","1448","sqft","139.85","0.51","acres","400040.82","3","1","","","No","No","","102 Indian Dr","Pittsburgh","15238","PA","USA","40.555084","-79.88973"
"https://www.zillow.com/homedetails/3952-Grand-Ave-Allison-Park-PA-15101/11592090_zpid/","","","205000","215100","1500","109200","06/16/2022","","","","0.29","acres","714285.71","3","1","","Georgie Smigel","No","No","","3952 Grand Ave","Allison Park","15101","PA","USA","40.561615","-79.96113"
"https://www.zillow.com/homedetails/2301-Carrie-St-Pittsburgh-PA-15212/11510916_zpid/","","","207000","217000","1648","68700","06/15/2022","1134","sqft","182.54","0.5","acres","414000","3","2","","Vic Franceschini","No","No","","2301 Carrie St","Pittsburgh","15212","PA","USA","40.470764","-79.9854"
"https://www.zillow.com/homedetails/160-S-18th-St-Pittsburgh-PA-15203/11291928_zpid/","","","207000","217200","1731","102000","06/14/2022","1576","sqft","131.35","1200","sqft","172.5","3","1.5","","","No","No","","160 S 18th St","Pittsburgh","15203","PA","USA","40.4258","-79.98108"
"https://www.zillow.com/homedetails/1011-Valora-St-Pittsburgh-PA-15220/11355744_zpid/","","","201000","210800","1800","110000","06/10/2022","1596","sqft","125.94","2500.34","sqft","80.39","4","2","","Christine Yarosz","No","No","","1011 Valora St","Pittsburgh","15220","PA","USA","40.433044","-80.04408"
"https://www.zillow.com/homedetails/132-Jamaica-Ave-Pittsburgh-PA-15229/11406077_zpid/","","","203500","213400","1749","122600","06/10/2022","1590","sqft","127.99","4800.31","sqft","42.39","3","2","","Jennifer Waters","No","No","","132 Jamaica Ave","Pittsburgh","15229","PA","USA","40.519623","-80.03546"
"https://www.zillow.com/homedetails/1413-Stanley-Dr-Verona-PA-15147/11450182_zpid/","","","205000","215000","1550","89100","06/10/2022","1610","sqft","127.33","6490.44","sqft","31.58","4","2","","Loreen Abriola","No","No","","1413 Stanley Dr","Verona","15147","PA","USA","40.480667","-79.8443"
"https://www.zillow.com/homedetails/633-Lois-Dr-Pittsburgh-PA-15236/11470643_zpid/","","","207000","226500","1580","104700","06/09/2022","","","","4500","sqft","46","3","2","","Kathy Narr","No","No","","633 Lois Dr","Pittsburgh","15236","PA","USA","40.341965","-80.00319"
"https://www.zillow.com/homedetails/135-Convair-Dr-Coraopolis-PA-15108/11583914_zpid/","","","205000","215000","1834","123600","06/08/2022","1310","sqft","156.49","9016.92","sqft","22.74","3","2","","Robin Ross","No","No","","135 Convair Dr","Coraopolis","15108","PA","USA","40.5091","-80.22889"
"https://www.zillow.com/homedetails/2729-Queensboro-Ave-Pittsburgh-PA-15226/11653749_zpid/","","","205000","215000","1099","62900","06/08/2022","977","sqft","209.83","4965.84","sqft","41.28","2","2","","Krista Lorenzo","No","No","","2729 Queensboro Ave","Pittsburgh","15226","PA","USA","40.3895","-80.01925"
"https://www.zillow.com/homedetails/4837-Brierly-Dr-W-West-Mifflin-PA-15122/11351701_zpid/","","","205000","215000","1400","91500","06/07/2022","1292","sqft","158.67","0.44","acres","470831.42","3","2","","Anthony DiThomas","No","No","","4837 Brierly Dr W","West Mifflin","15122","PA","USA","40.373455","-79.90291"
"https://www.zillow.com/homedetails/426-Presque-Isle-Dr-Pittsburgh-PA-15239/11282370_zpid/","","","202511","211700","1780","121000","06/03/2022","1232","sqft","164.38","9056.12","sqft","22.36","3","2","","Scott Schramm","No","No","","426 Presque Isle Dr","Pittsburgh","15239","PA","USA","40.473114","-79.71371"
"https://www.zillow.com/homedetails/111-Garlow-Dr-Pittsburgh-PA-15235/11491513_zpid/","","","203000","212800","1994","98200","05/31/2022","1712","sqft","118.57","9452.52","sqft","21.48","4","3","","Dustin Nulf","No","No","","111 Garlow Dr","Pittsburgh","15235","PA","USA","40.476982","-79.83244"
"https://www.zillow.com/homedetails/145-Canaveral-Dr-Pittsburgh-PA-15235/11532241_zpid/","","","205000","214900","1495","139000","05/31/2022","1092","sqft","187.73","7309.37","sqft","28.05","3","2","","Laurel Tokarczyk","No","No","","145 Canaveral Dr","Pittsburgh","15235","PA","USA","40.471508","-79.80761"
"https://www.zillow.com/homedetails/1668-Oblock-Rd-Pittsburgh-PA-15239/11261888_zpid/","","","205000","214800","1746","102500","05/27/2022","1260","sqft","162.7","9069.19","sqft","22.6","3","2","","Jen Wylie","No","No","","1668 Oblock Rd","Pittsburgh","15239","PA","USA","40.47184","-79.71859"
"https://www.zillow.com/homedetails/7219-Witherspoon-St-Pittsburgh-PA-15206/11278049_zpid/","","","205000","214800","1757","100000","05/26/2022","1584","sqft","129.42","4800.31","sqft","42.71","4","2","","Regina Mungo","No","No","","7219 Witherspoon St","Pittsburgh","15206","PA","USA","40.48742","-79.922585"
"https://www.zillow.com/homedetails/688-Orchard-Ave-Bellevue-PA-15202/11369390_zpid/","","","206500","216400","1736","86400","05/26/2022","1120","sqft","184.38","4791.6","sqft","43.1","3","2","","Erin Autenreith","No","No","","688 Orchard Ave","Bellevue","15202","PA","USA","40.501503","-80.05925"
"https://www.zillow.com/homedetails/1507-Dagmar-Ave-Pittsburgh-PA-15216/11444819_zpid/","","","201000","210700","1550","64400","05/26/2022","1292","sqft","155.57","3001.28","sqft","66.97","3","2","","Monica Sample","No","No","","1507 Dagmar Ave","Pittsburgh","15216","PA","USA","40.412777","-80.022705"
"https://www.zillow.com/homedetails/1128-Carnahan-Rd-Pittsburgh-PA-15216/11452948_zpid/","","","205700","215600","1450","81900","05/26/2022","950","sqft","216.53","6629.83","sqft","31.03","2","2","","Tanner Hall","No","No","","1128 Carnahan Rd","Pittsburgh","15216","PA","USA","40.409218","-80.03858"
"https://www.zillow.com/homedetails/1520-Wareman-Ave-Pittsburgh-PA-15226/11650147_zpid/","","","201000","210700","1596","80600","05/25/2022","","","","4400","sqft","45.68","3","2","","Roberta Allen","No","No","","1520 Wareman Ave","Pittsburgh","15226","PA","USA","40.388863","-80.01083"
"https://www.zillow.com/homedetails/4516-Perrysville-Ave-Pittsburgh-PA-15229/11327397_zpid/","","","202000","211700","1834","124000","05/24/2022","1800","sqft","112.22","0.36","acres","564088.24","3","2","","Michael Netzel","No","No","","4516 Perrysville Ave","Pittsburgh","15229","PA","USA","40.499714","-80.0205"
"https://www.zillow.com/homedetails/125-Glenhurst-Dr-Verona-PA-15147/11531285_zpid/","","","205000","214800","1594","95100","05/24/2022","1346","sqft","152.3","8019.4","sqft","25.56","3","2","","Jan Jursa","No","No","","125 Glenhurst Dr","Verona","15147","PA","USA","40.499428","-79.81136"
"https://www.zillow.com/homedetails/3981-Beechwood-Blvd-Pittsburgh-PA-15217/11539894_zpid/","","","205000","214900","1905","106300","05/20/2022","","","","3598.06","sqft","56.98","3","1","","Nancy Snider","No","No","","3981 Beechwood Blvd","Pittsburgh","15217","PA","USA","40.42748","-79.93597"
"https://www.zillow.com/homedetails/1024-Old-Gate-Rd-Pittsburgh-PA-15235/11417974_zpid/","","","207000","217000","1571","120800","05/19/2022","1232","sqft","168.02","7801.6","sqft","26.53","3","2","","Kristie Jahromi","No","No","","1024 Old Gate Rd","Pittsburgh","15235","PA","USA","40.44682","-79.85537"
"https://www.zillow.com/homedetails/7314-Shannon-Rd-Verona-PA-15147/11449170_zpid/","","","201000","210700","1400","28000","05/18/2022","1205","sqft","166.8","0.74","acres","273469.39","3","1","","Amanda Buccilli","No","No","","7314 Shannon Rd","Verona","15147","PA","USA","40.500504","-79.83555"
"https://www.zillow.com/homedetails/422-Catoma-St-Pittsburgh-PA-15212/11387571_zpid/","","","205000","214900","1510","67100","05/17/2022","1664","sqft","123.2","3632.9","sqft","56.43","3","2","","Kevin Miller","No","No","","422 Catoma St","Pittsburgh","15212","PA","USA","40.46095","-80.00333"
"https://www.zillow.com/homedetails/1709-Beryl-Dr-Pittsburgh-PA-15227/11391229_zpid/","","","205000","214900","1999","115000","05/16/2022","1473","sqft","139.17","7405.2","sqft","27.68","4","3","","Cristy Smith","No","No","","1709 Beryl Dr","Pittsburgh","15227","PA","USA","40.35951","-79.9576"
"https://www.zillow.com/homedetails/128-Rosecrest-Dr-Monroeville-PA-15146/11571856_zpid/","","","205000","214900","1540","113100","05/16/2022","1278","sqft","160.41","7069.79","sqft","29","3","2","","Lisa Yates","No","No","","128 Rosecrest Dr","Monroeville","15146","PA","USA","40.423225","-79.790375"
"https://www.zillow.com/homedetails/5929-Heberton-Dr-Verona-PA-15147/11491019_zpid/","","","205000","214900","1498","97400","05/12/2022","1128","sqft","181.74","0.61","acres","338228.02","3","2","","Richard Creo","No","No","","5929 Heberton Dr","Verona","15147","PA","USA","40.485287","-79.82198"
"https://www.zillow.com/homedetails/568-Jenne-Dr-Pittsburgh-PA-15236/11430696_zpid/","","","202000","211700","1314","142600","05/11/2022","900","sqft","224.44","7405.2","sqft","27.28","2","2","","Margo Cicci","No","No","","568 Jenne Dr","Pittsburgh","15236","PA","USA","40.346855","-80.002846"
"https://www.zillow.com/homedetails/589-Catskill-Dr-Pittsburgh-PA-15239/11262221_zpid/","","","205000","214900","1800","140000","05/09/2022","1230","sqft","166.67","8463.71","sqft","24.22","3","2","","Jeffrey Johnson","No","No","","589 Catskill Dr","Pittsburgh","15239","PA","USA","40.466267","-79.71773"
"https://www.zillow.com/homedetails/151-Winifred-Dr-Pittsburgh-PA-15236/11507276_zpid/","","","204000","213800","1634","124100","05/06/2022","912","sqft","223.68","7871.29","sqft","25.92","3","2","","Emily Schwartz","No","No","","151 Winifred Dr","Pittsburgh","15236","PA","USA","40.330555","-79.956825"
"https://www.zillow.com/homedetails/539-E-Ohio-St-Pittsburgh-PA-15212/2067761787_zpid/","","","205000","","1700","","05/06/2022","","","","936.54","sqft","218.89","2","2","","Karl Owens","No","No","","539 E Ohio St","Pittsburgh","15212","PA","USA","40.453526","-79.999275"
"https://www.zillow.com/homedetails/539-701-Washington-Rd-Pittsburgh-PA-15228/2067761810_zpid/","","","205000","","1700","","05/06/2022","","","","","","","","","","","No","No","","539 701 Washington Rd","Pittsburgh","15228","PA","USA","",""
"https://www.zillow.com/homedetails/242-Calmar-Dr-Verona-PA-15147/11376772_zpid/","","","203500","213300","1795","54500","05/04/2022","1100","sqft","185","7078.5","sqft","28.75","3","3","","Jackie Smith","No","No","","242 Calmar Dr","Verona","15147","PA","USA","40.469364","-79.87404"
"https://www.zillow.com/homedetails/207-Congress-Dr-Pittsburgh-PA-15236/11506700_zpid/","","","204500","214400","1500","113200","05/03/2022","1276","sqft","160.27","7252.74","sqft","28.2","3","1","","Sandra Rodeheaver","No","No","","207 Congress Dr","Pittsburgh","15236","PA","USA","40.334198","-79.957085"
"https://www.zillow.com/homedetails/3482-Brickley-Dr-Pittsburgh-PA-15227/11303479_zpid/","","","205000","215000","1557","88200","05/02/2022","1025","sqft","200","7290","sqft","28.12","3","2","","","No","No","","3482 Brickley Dr","Pittsburgh","15227","PA","USA","40.378387","-79.94994"
"https://www.zillow.com/homedetails/353-Avenue-F-Pittsburgh-PA-15221/11456561_zpid/","","","205000","214900","1300","82600","05/02/2022","1304","sqft","157.21","4565.09","sqft","44.91","4","2","","Nina Lang","No","No","","353 Avenue F","Pittsburgh","15221","PA","USA","40.41564","-79.842384"
"https://www.zillow.com/homedetails/409-Eden-Dr-Monroeville-PA-15146/11262647_zpid/","","","205000","214900","1794","95100","04/29/2022","925","sqft","221.62","0.26","acres","800781.25","3","2","","Roxanne Humes","No","No","","409 Eden Dr","Monroeville","15146","PA","USA","40.44666","-79.72964"
"https://www.zillow.com/homedetails/4710-Bert-Dr-Monroeville-PA-15146/11263087_zpid/","","","200500","210200","1514","89400","04/29/2022","1134","sqft","176.81","8712","sqft","23.01","3","2","","Lauren Klein","No","No","","4710 Bert Dr","Monroeville","15146","PA","USA","40.426094","-79.73079"
"https://www.zillow.com/homedetails/630-Kelso-Rd-Pittsburgh-PA-15243/11360833_zpid/","","","201400","211100","1648","132200","04/29/2022","1215","sqft","165.76","9600.62","sqft","20.98","3","1","","Kimberly Phares","No","No","","630 Kelso Rd","Pittsburgh","15243","PA","USA","40.36793","-80.074455"
"https://www.zillow.com/homedetails/209-Watson-Ave-Pittsburgh-PA-15238/11414228_zpid/","","","202629","212400","1641","161700","04/29/2022","1424","sqft","142.3","7714.48","sqft","26.27","3","2","","Diana McKay","No","No","","209 Watson Ave","Pittsburgh","15238","PA","USA","40.50588","-79.85541"
"https://www.zillow.com/homedetails/835-Everglade-Dr-McKeesport-PA-15135/11575402_zpid/","","","206000","216000","1315","141800","04/29/2022","2175","sqft","94.71","0.39","acres","534128.57","6","2","","Shirley McNamara","No","No","","835 Everglade Dr","McKeesport","15135","PA","USA","40.307796","-79.80444"
"https://www.zillow.com/homedetails/1006-Georgia-Dr-Pittsburgh-PA-15209/11371103_zpid/","","","206000","216000","1700","117700","04/27/2022","876","sqft","235.16","6000","sqft","34.33","2","2","","","No","No","","1006 Georgia Dr","Pittsburgh","15209","PA","USA","40.50593","-79.98565"
"https://www.zillow.com/homedetails/110-5th-St-West-View-PA-15229/11484478_zpid/","","","203755","213700","1985","133200","04/26/2022","1326","sqft","153.66","4861.3","sqft","41.91","3","2","","Blanca Pifano-Lenk","No","No","","110 5th St","West View","15229","PA","USA","40.53056","-80.02145"
"https://www.zillow.com/homedetails/4601-Veman-Ave-Pittsburgh-PA-15227/11392320_zpid/","","","205000","215000","1681","106500","04/22/2022","1325","sqft","154.72","9583.2","sqft","21.39","3","2","","Beverly Fusco","No","No","","4601 Veman Ave","Pittsburgh","15227","PA","USA","40.35782","-79.979675"
"https://www.zillow.com/homedetails/513-Judith-Dr-Pittsburgh-PA-15236/11470364_zpid/","","","205000","215000","1681","106600","04/20/2022","1027","sqft","199.61","7152","sqft","28.66","3","2","","","No","No","","513 Judith Dr","Pittsburgh","15236","PA","USA","40.34501","-80.00079"
"https://www.zillow.com/homedetails/4325-E-Brightview-Ave-Pittsburgh-PA-15227/11355348_zpid/","","","205000","215100","1900","137100","04/19/2022","1279","sqft","160.28","7191","sqft","28.51","3","3","","","No","No","","4325 E Brightview Ave","Pittsburgh","15227","PA","USA","40.367687","-79.987465"
"https://www.zillow.com/homedetails/431-Wilcox-St-Carnegie-PA-15106/11255205_zpid/","","","203500","213500","1745","108800","04/14/2022","1664","sqft","122.3","0.25","acres","814000","4","2","","Karen Crochunis","No","No","","431 Wilcox St","Carnegie","15106","PA","USA","40.413754","-80.08931"
"https://www.zillow.com/homedetails/303-Rock-Run-Rd-Elizabeth-PA-15037/11264852_zpid/","","","202000","212000","1697","106400","04/14/2022","1426","sqft","141.65","8881.88","sqft","22.74","3","3","","Kevin Obendorfer","No","No","","303 Rock Run Rd","Elizabeth","15037","PA","USA","40.27412","-79.829704"
"https://www.zillow.com/homedetails/1015-Tanner-Ave-Elizabeth-PA-15037/11288711_zpid/","","","205000","172500","1400","73600","04/14/2022","1455","sqft","140.89","5998.21","sqft","34.18","4","1","","Craig Kostelac","No","No","","1015 Tanner Ave","Elizabeth","15037","PA","USA","40.266968","-79.89262"
"https://www.zillow.com/homedetails/1479-Gene-Dr-Pittsburgh-PA-15234/11396226_zpid/","","","205000","262000","1914","115400","04/14/2022","1163","sqft","176.27","0.31","acres","664815.37","3","2.5","","","No","No","","1479 Gene Dr","Pittsburgh","15234","PA","USA","40.358295","-80.02075"
"https://www.zillow.com/homedetails/1134-Mississippi-Ave-Pittsburgh-PA-15216/11653104_zpid/","","","201000","212200","1650","87300","04/11/2022","1254","sqft","160.29","2861.89","sqft","70.23","3","3","","Aimee O'Connor","No","No","","1134 Mississippi Ave","Pittsburgh","15216","PA","USA","40.391197","-80.03207"
"https://www.zillow.com/homedetails/202-Alcan-Dr-Pittsburgh-PA-15239/11261637_zpid/","","","205500","216600","1714","122100","04/08/2022","1320","sqft","155.68","10598.15","sqft","19.39","3","2","","Chad Glover","No","No","","202 Alcan Dr","Pittsburgh","15239","PA","USA","40.47886","-79.71781"
"https://www.zillow.com/homedetails/227-Hall-St-Bridgeville-PA-15017/11399707_zpid/","","","202000","212100","1671","89000","04/08/2022","1592","sqft","126.88","3079.69","sqft","65.59","3","2","","Melissa Dryer","No","No","","227 Hall St","Bridgeville","15017","PA","USA","40.35856","-80.11531"
"https://www.zillow.com/homedetails/24-Julian-Dr-Pittsburgh-PA-15235/11450884_zpid/","","","203500","213600","2064","83700","04/08/2022","1692","sqft","120.27","7252.74","sqft","28.06","5","3","","Jerome Yoders","No","No","","24 Julian Dr","Pittsburgh","15235","PA","USA","40.46876","-79.843544"
