Property URL,MLS ID,Number of days on Zillow,Property price (USD),Zestimate (USD),Rent zestimate (USD per month),Tax assessed value (USD),Sold date (MM/DD/YYYY),Living area,Living area unit,Price per living area unit (USD),Lot/land area,Lot/land area unit,Price per lot/land area unit (USD),Bedrooms,Bathrooms,Broker name,Broker agent,Is owner occupied,Property owned by Zillow,Property unit number,Street address,City,Zip,State,Country,Latitude,Longitude
"https://www.zillow.com/homedetails/1506-Center-St-Pittsburgh-PA-15221/11378405_zpid/","","","20000","20000","1314","26100","09/29/2023","1728","sqft","11.57","2413.22","sqft","8.29","4","2","","Libby Sosinski","No","No","","1506 Center St","Pittsburgh","15221","PA","USA","40.448696","-79.87986"
"https://www.zillow.com/homedetails/841-Coal-Hollow-Rd-Verona-PA-15147/11451301_zpid/","","","22000","","1300","39800","09/29/2023","1288","sqft","17.08","5575.68","sqft","3.95","3","1","","Jason Mazzei","No","No","","841 Coal Hollow Rd","Verona","15147","PA","USA","40.464912","-79.84699"
"https://www.zillow.com/homedetails/1027-Uvilla-St-Pittsburgh-PA-15220/11366663_zpid/","","","22000","22000","1300","9000","09/28/2023","1320","sqft","16.67","2421.94","sqft","9.08","2","1","","Brandon Abbott-Nelson","No","No","","1027 Uvilla St","Pittsburgh","15220","PA","USA","40.44613","-80.0392"
"https://www.zillow.com/homedetails/1314-Centennial-St-McKeesport-PA-15132/11464388_zpid/","","","18000","18000","1090","23800","09/28/2023","2108","sqft","8.54","3998.81","sqft","4.5","3","1","","Kaylynn Piper","No","No","","1314 Centennial St","McKeesport","15132","PA","USA","40.343346","-79.85895"
"https://www.zillow.com/homedetails/1415-Denver-St-North-Versailles-PA-15137/11539233_zpid/","","","18000","18000","1498","80400","09/27/2023","1414","sqft","12.73","4800.31","sqft","3.75","3","2","","Kevin Shaner","No","No","","1415 Denver St","North Versailles","15137","PA","USA","40.364582","-79.80519"
"https://www.zillow.com/homedetails/616-Corey-Ave-Braddock-PA-15104/11385180_zpid/","","","24000","24000","1294","30200","09/22/2023","1462","sqft","16.42","3358.48","sqft","7.15","3","1","","Kevin Shaner","No","No","","616 Corey Ave","Braddock","15104","PA","USA","40.4049","-79.86822"
"https://www.zillow.com/homedetails/411-Carl-St-Pittsburgh-PA-15210/11435891_zpid/","","","20000","","1198","39500","09/21/2023","1575","sqft","12.7","2748.64","sqft","7.28","4","2","","Thomas Bencho","No","No","","411 Carl St","Pittsburgh","15210","PA","USA","40.411915","-79.98885"
"https://www.zillow.com/homedetails/727-Delaware-Ave-Glassport-PA-15045/11543779_zpid/","","","17000","","1050","34300","09/21/2023","882","sqft","19.27","3001.28","sqft","5.66","3","1","","Jason Mazzei","No","No","","727 Delaware Ave","Glassport","15045","PA","USA","40.3234","-79.887"
"https://www.zillow.com/homedetails/2506-Irwin-St-McKeesport-PA-15132/11463006_zpid/","","","18000","18000","878","11500","09/20/2023","768","sqft","23.44","3998.81","sqft","4.5","2","1","","Nathaniel Nieland","No","No","","2506 Irwin St","McKeesport","15132","PA","USA","40.340946","-79.84717"
"https://www.zillow.com/homedetails/1334-Pritchard-St-Pittsburgh-PA-15204/11479017_zpid/","","","16000","","1550","56700","09/18/2023","1392","sqft","11.49","3001.28","sqft","5.33","3","2","","Kathy Armstrong","No","No","","1334 Pritchard St","Pittsburgh","15204","PA","USA","40.45238","-80.06496"
"https://www.zillow.com/homedetails/1113-Norwood-Ave-McKeesport-PA-15133/11465550_zpid/","","","23000","","1264","66300","09/15/2023","","","","0.25","acres","91089.11","4","1","","Tina Nobers","No","No","","1113 Norwood Ave","McKeesport","15133","PA","USA","40.340294","-79.87934"
"https://www.zillow.com/homedetails/1368-Ravine-St-Homestead-PA-15120/11347755_zpid/","","","23100","23100","1098","36200","09/14/2023","1056","sqft","21.88","3275.71","sqft","7.05","2","1","","Kevin Shaner","No","No","","1368 Ravine St","Homestead","15120","PA","USA","40.396973","-79.89589"
"https://www.zillow.com/homedetails/2800-Grandview-Ave-McKeesport-PA-15132/11502986_zpid/","","","20000","20000","1492","39100","09/14/2023","1680","sqft","11.9","8651.02","sqft","2.31","3","2","","Jason Mazzei","No","No","","2800 Grandview Ave","McKeesport","15132","PA","USA","40.332874","-79.83547"
"https://www.zillow.com/homedetails/2923-Frederick-Marshall-Pittsburgh-PA-15212/2059182746_zpid/","","","24000","","1348","","09/14/2023","","","","1450","sqft","16.55","3","1","","Ronald May","No","No","","2923 Frederick Marshall","Pittsburgh","15212","PA","USA","",""
"https://www.zillow.com/homedetails/2260-Douglas-Run-Rd-Sutersville-PA-15083/11321932_zpid/","","","20000","20000","932","20000","09/13/2023","1716","sqft","11.66","0.5","acres","40000","4","1","","Kathy Armstrong","No","No","","2260 Douglas Run Rd","Sutersville","15083","PA","USA","40.24484","-79.8112"
"https://www.zillow.com/homedetails/215-Whitaker-St-Homestead-PA-15120/11347687_zpid/","","","19000","19000","1195","29200","09/08/2023","1232","sqft","15.42","4051.08","sqft","4.69","2","1","","Kim Stotlemyer","No","No","","215 Whitaker St","Homestead","15120","PA","USA","40.400017","-79.88632"
"https://www.zillow.com/homedetails/116-Card-Ave-Wilmerding-PA-15148/11536887_zpid/","","","16000","","1284","20700","09/01/2023","1680","sqft","9.52","6098.4","sqft","2.62","4","1","","Michael Wicker","No","No","","116 Card Ave","Wilmerding","15148","PA","USA","40.39267","-79.81201"
"https://www.zillow.com/homedetails/724-Catharine-St-Duquesne-PA-15110/11459606_zpid/","","","18500","18500","1194","30100","08/31/2023","1392","sqft","13.29","3049.2","sqft","6.07","3","1","","Reena Blumberger","No","No","","724 Catharine St","Duquesne","15110","PA","USA","40.366276","-79.849525"
"https://www.zillow.com/homedetails/810-Oak-St-Duquesne-PA-15110/11459777_zpid/","","","17000","17000","1164","29000","08/29/2023","1456","sqft","11.68","3249.58","sqft","5.23","3","1","","Daniel Seigel","No","No","","810 Oak St","Duquesne","15110","PA","USA","40.365116","-79.843864"
"https://www.zillow.com/homedetails/431-Parklow-St-Pittsburgh-PA-15210/11435514_zpid/","","","17000","","1414","34600","08/28/2023","1376","sqft","12.35","3127.61","sqft","5.44","3","2","","Tenille Bowling","No","No","","431 Parklow St","Pittsburgh","15210","PA","USA","40.41322","-79.99648"
"https://www.zillow.com/homedetails/5401-Bower-Ave-Verona-PA-15147/11450270_zpid/","","","23500","23500","1093","49000","08/21/2023","1845","sqft","12.74","0.28","acres","83600.14","2","1","","Tina Nobers","No","No","","5401 Bower Ave","Verona","15147","PA","USA","40.480488","-79.837776"
"https://www.zillow.com/homedetails/450-High-St-McKeesport-PA-15132/11575509_zpid/","","","17000","","964","26000","08/14/2023","1084","sqft","15.68","6900","sqft","2.46","2","2","","","No","No","","450 High St","McKeesport","15132","PA","USA","40.316242","-79.83152"
"https://www.zillow.com/homedetails/413-6th-Ave-Elizabeth-PA-15037/11266821_zpid/","","","22000","","895","33200","08/11/2023","1076","sqft","20.45","3000","sqft","7.33","2","1","","","No","No","","413 6th Ave","Elizabeth","15037","PA","USA","40.269447","-79.88711"
"https://www.zillow.com/homedetails/724-9th-Ave-Brackenridge-PA-15014/11280258_zpid/","","","21000","","1050","57400","08/07/2023","1597","sqft","13.15","4750","sqft","4.42","3","1","","","No","No","","724 9th Ave","Brackenridge","15014","PA","USA","40.607113","-79.74814"
"https://www.zillow.com/homedetails/48-Ohio-St-Mc-Kees-Rocks-PA-15136/11268004_zpid/","","","23000","","900","20000","08/03/2023","1127","sqft","20.41","1729","sqft","13.3","2","1","","","No","No","","48 Ohio St","Mc Kees Rocks","15136","PA","USA","40.483463","-80.06162"
"https://www.zillow.com/homedetails/7-Greeley-Ave-Pittsburgh-PA-15223/11372665_zpid/","","","21000","86300","1525","48100","08/03/2023","1400","sqft","15","2700","sqft","7.78","3","1.5","","","No","No","","7 Greeley Ave","Pittsburgh","15223","PA","USA","40.50378","-79.95559"
"https://www.zillow.com/homedetails/419-25th-St-McKeesport-PA-15132/11502321_zpid/","","","23000","","879","8700","08/03/2023","","","","5662.8","sqft","4.06","2","1","","Jeffrey Walker","No","No","","419 25th St","McKeesport","15132","PA","USA","40.336132","-79.847984"
"https://www.zillow.com/homedetails/39-Duquesne-Ct-Springdale-PA-15144/11564550_zpid/","","","16566","","1413","22000","08/03/2023","1064","sqft","15.57","2441","sqft","6.79","3","1","","","No","No","","39 Duquesne Ct","Springdale","15144","PA","USA","40.54162","-79.79269"
"https://www.zillow.com/homedetails/901-Oak-Ave-Turtle-Creek-PA-15145/11496364_zpid/","","","23000","23000","1364","35100","08/02/2023","1144","sqft","20.1","2212","sqft","10.4","5","2","","","No","No","","901 Oak Ave","Turtle Creek","15145","PA","USA","40.4067","-79.82234"
"https://www.zillow.com/homedetails/Leetwood-Ave-Sewickley-PA-15143/164641195_zpid/","","","16000","","1550","50600","08/02/2023","","","","10863","sqft","1.47","","","","","No","No","","Leetwood Ave","Sewickley","15143","PA","USA","40.535557","-80.156334"
"https://www.zillow.com/homedetails/530-Stokes-Ave-Braddock-PA-15104/11421655_zpid/","","","23000","23000","1294","34100","07/31/2023","1550","sqft","14.84","2639.74","sqft","8.71","3","1","","Tina Nobers","No","No","","530 Stokes Ave","Braddock","15104","PA","USA","40.409035","-79.86275"
"https://www.zillow.com/homedetails/314-Ohio-Ave-Glassport-PA-15045/11504365_zpid/","","","20000","20000","1433","15800","07/31/2023","2450","sqft","8.16","4950","sqft","4.04","5","2","","","No","No","","314 Ohio Ave","Glassport","15045","PA","USA","40.33018","-79.89176"
"https://www.zillow.com/homedetails/1246-Noblestown-Rd-Oakdale-PA-15071/59844312_zpid/","","","20000","41900","1478","80000","07/31/2023","1336","sqft","14.97","0.48","acres","42105.26","3","1","","","No","No","","1246 Noblestown Rd","Oakdale","15071","PA","USA","40.40887","-80.15098"
"https://www.zillow.com/homedetails/Darlington-Rd-Carnegie-PA-15106/164568869_zpid/","","","17500","","2173","20600","07/27/2023","","","","10019","sqft","1.75","","","","","No","No","","Darlington Rd","Carnegie","15106","PA","USA","40.408894","-80.10123"
"https://www.zillow.com/homedetails/McClintock-Rd-McKeesport-PA-15131/164677055_zpid/","","","19133","","1564","31100","07/27/2023","","","","1.4","acres","13666.43","","","","","No","No","","McClintock Rd","Mckeesport","15131","PA","USA","40.326893","-79.7927"
"https://www.zillow.com/homedetails/3900-Ellsworth-Ave-Homestead-PA-15120/11296707_zpid/","","","22000","","1395","69000","07/26/2023","1280","sqft","17.19","5069","sqft","4.34","3","1","","","No","No","","3900 Ellsworth Ave","Homestead","15120","PA","USA","40.379444","-79.90068"
"https://www.zillow.com/homedetails/2510-Cleveland-St-McKeesport-PA-15132/11501728_zpid/","","","21500","21500","1200","60800","07/25/2023","1515","sqft","14.19","5000","sqft","4.3","3","1","","","No","No","","2510 Cleveland St","McKeesport","15132","PA","USA","40.335682","-79.83323"
"https://www.zillow.com/homedetails/143-Watkins-Ave-Wilmerding-PA-15148/11536739_zpid/","","","23000","23000","1134","30800","07/25/2023","1656","sqft","13.89","2300","sqft","10","2","1.5","","","No","No","","143 Watkins Ave","Wilmerding","15148","PA","USA","40.394615","-79.803345"
"https://www.zillow.com/homedetails/1740-Concordia-St-Pittsburgh-PA-15210/11556934_zpid/","","","20000","20000","1055","33900","07/25/2023","859","sqft","23.28","3300","sqft","6.06","2","1","","","No","No","","1740 Concordia St","Pittsburgh","15210","PA","USA","40.397495","-79.98688"
"https://www.zillow.com/homedetails/3410-Odair-St-McKeesport-PA-15132/11463993_zpid/","","","20500","","1200","16000","07/24/2023","1025","sqft","20","5000","sqft","4.1","3","1","","","No","No","","3410 Odair St","McKeesport","15132","PA","USA","40.337612","-79.83691"
"https://www.zillow.com/homedetails/2507-Fayette-St-McKeesport-PA-15132/11500133_zpid/","","","17500","","1200","38000","07/24/2023","1468","sqft","11.92","1247","sqft","14.03","3","1","","","No","No","","2507 Fayette St","McKeesport","15132","PA","USA","40.354168","-79.83279"
"https://www.zillow.com/homedetails/113-Locust-Ln-Oakdale-PA-15071/59854643_zpid/","","","21000","","1650","93400","07/24/2023","1008","sqft","20.83","0.5","acres","41998.07","3","1.5","","","No","No","","113 Locust Ln","Oakdale","15071","PA","USA","40.369408","-80.13315"
"https://www.zillow.com/homedetails/7314-Monticello-St-Pittsburgh-PA-15208/11339325_zpid/","","","20000","","1399","33800","07/21/2023","2041","sqft","9.8","2326.1","sqft","8.6","5","1","","Michael Pohlot","No","No","","7314 Monticello St","Pittsburgh","15208","PA","USA","40.45869","-79.89275"
"https://www.zillow.com/homedetails/2734-Stafford-St-Pittsburgh-PA-15204/11371278_zpid/","","","20119","","1098","33200","07/20/2023","1200","sqft","16.77","2500.34","sqft","8.05","2","1","","John Walker","No","No","","2734 Stafford St","Pittsburgh","15204","PA","USA","40.45527","-80.04881"
"https://www.zillow.com/homedetails/2035-Chalfant-St-Pittsburgh-PA-15221/11417548_zpid/","","","24000","24000","1099","38300","07/20/2023","","","","3005.64","sqft","7.98","2","1","","Berni Bishop-Pirollo","No","No","","2035 Chalfant St","Pittsburgh","15221","PA","USA","40.449978","-79.861916"
"https://www.zillow.com/homedetails/1723-Maple-St-McKeesport-PA-15132/11463084_zpid/","","","17000","","879","13600","07/20/2023","1222","sqft","13.91","2500","sqft","6.8","2","1","","","No","No","","1723 Maple St","McKeesport","15132","PA","USA","40.340572","-79.8459"
"https://www.zillow.com/homedetails/2404-McCarrell-St-McKeesport-PA-15132/11502478_zpid/","","","20000","","1302","20000","07/20/2023","1430","sqft","13.99","3600","sqft","5.56","4","1","","","No","No","","2404 McCarrell St","McKeesport","15132","PA","USA","40.33601","-79.83988"
"https://www.zillow.com/homedetails/1846-Damas-St-Pittsburgh-PA-15212/11511436_zpid/","","","23000","","1685","35500","07/20/2023","1152","sqft","19.97","0.28","acres","81926.57","3","2","","","No","No","","1846 Damas St","Pittsburgh","15212","PA","USA","40.46528","-79.99067"
"https://www.zillow.com/homedetails/209-McJunkin-Rd-Pittsburgh-PA-15239/11626139_zpid/","","","19100","","1235","87600","07/20/2023","979","sqft","19.51","0.69","acres","27733.41","2","1","","","No","No","","209 McJunkin Rd","Pittsburgh","15239","PA","USA","40.484886","-79.752846"
"https://www.zillow.com/homedetails/535-Harker-St-Pittsburgh-PA-15220/11362475_zpid/","","","23790","","1419","13000","07/19/2023","","","","4316.8","sqft","5.51","4","1","","","No","No","","535 Harker St","Pittsburgh","15220","PA","USA","40.43939","-80.03834"
"https://www.zillow.com/homedetails/1612-Walz-St-Pittsburgh-PA-15212/11511798_zpid/","","","16500","","1264","22100","07/19/2023","806","sqft","20.47","1698.84","sqft","9.71","2","1","","Libby Sosinski","No","No","","1612 Walz St","Pittsburgh","15212","PA","USA","40.46353","-79.99101"
"https://www.zillow.com/homedetails/73-Edenvale-St-Pittsburgh-PA-15212/11506276_zpid/","","","15700","","1476","22300","07/17/2023","1054","sqft","14.9","1206.61","sqft","13.01","3","1","","Michael Gonze","No","No","","73 Edenvale St","Pittsburgh","15212","PA","USA","40.462482","-80.00335"
"https://www.zillow.com/homedetails/2234-Walton-Ave-Pittsburgh-PA-15210/11647735_zpid/","","","22000","46500","1414","52900","07/14/2023","1344","sqft","16.37","2500","sqft","8.8","3","1","","","No","No","","2234 Walton Ave","Pittsburgh","15210","PA","USA","40.38787","-79.9935"
"https://www.zillow.com/homedetails/1366-Woodlawn-Ave-Pittsburgh-PA-15221/11380503_zpid/","","","20000","","1350","38200","07/13/2023","1314","sqft","15.22","","","","4","1","","","No","No","","1366 Woodlawn Ave","Pittsburgh","15221","PA","USA","40.440056","-79.87096"
"https://www.zillow.com/homedetails/206-University-St-Verona-PA-15147/11567321_zpid/","","","22793","","1200","54500","07/07/2023","1333","sqft","17.1","4800","sqft","4.75","3","2","","","No","No","","206 University St","Verona","15147","PA","USA","40.4996","-79.79472"
"https://www.zillow.com/homedetails/17-Schoen-St-Mc-Kees-Rocks-PA-15136/11603062_zpid/","","","16500","","999","20500","07/07/2023","864","sqft","19.1","2830","sqft","5.83","2","1","","","No","No","","17 Schoen St","Mc Kees Rocks","15136","PA","USA","40.473515","-80.052605"
"https://www.zillow.com/homedetails/7215-1-2-Cushing-St-Pittsburgh-PA-15235/11337872_zpid/","","","18250","18300","1168","37800","07/06/2023","1100","sqft","16.59","1842.59","sqft","9.9","2","1","","Sonya Wallace","No","No","","7215 1/2 Cushing St","Pittsburgh","15235","PA","USA","40.469074","-79.88821"
"https://www.zillow.com/homedetails/Private-Way-McKeesport-PA-15132/164632323_zpid/","","","20000","","1099","5200","07/05/2023","","","","0.42","acres","47450.98","","","","","No","No","","Private Way","Mckeesport","15132","PA","USA","40.355446","-79.83671"
"https://www.zillow.com/homedetails/852-8th-Ave-Brackenridge-PA-15014/11280465_zpid/","","","17500","","1050","27200","07/03/2023","1320","sqft","13.26","2500","sqft","7","3","1","","","No","No","","852 8th Ave","Brackenridge","15014","PA","USA","40.607983","-79.74465"
"https://www.zillow.com/homedetails/Bull-Creek-Rd-Tarentum-PA-15084/164590823_zpid/","","","18000","","1028","21000","07/03/2023","","","","5.25","acres","3426.16","","","","","No","No","","Bull Creek Rd","Tarentum","15084","PA","USA","40.648304","-79.79447"
"https://www.zillow.com/homedetails/1318-Louise-St-Homestead-PA-15120/11292730_zpid/","","","22500","","1297","22300","06/30/2023","1868","sqft","12.04","1921","sqft","11.71","3","1","","","No","No","","1318 Louise St","Homestead","15120","PA","USA","40.404312","-79.90222"
"https://www.zillow.com/homedetails/507-Crawford-Ave-Duquesne-PA-15110/11459719_zpid/","","","20000","20000","1164","21600","06/29/2023","1108","sqft","18.05","3432","sqft","5.83","3","1","","","No","No","","507 Crawford Ave","Duquesne","15110","PA","USA","40.36423","-79.84732"
"https://www.zillow.com/homedetails/108-Library-Pl-Duquesne-PA-15110/11459254_zpid/","","","19000","","1200","30400","06/28/2023","1584","sqft","11.99","2469.85","sqft","7.69","3","2","","Michael Pohlot","No","No","","108 Library Pl","Duquesne","15110","PA","USA","40.37163","-79.84559"
"https://www.zillow.com/homedetails/815-Wall-St-Mc-Donald-PA-15057/59849711_zpid/","","","20000","89100","1050","59100","06/27/2023","1752","sqft","11.42","7501.03","sqft","2.67","2","1","","Libby Sosinski","No","No","","815 Wall St","Mc Donald","15057","PA","USA","40.38635","-80.21119"
"https://www.zillow.com/homedetails/1311-Loraine-St-Pittsburgh-PA-15212/11388736_zpid/","","","19782","","1770","12600","06/21/2023","224","sqft","88.31","1970","sqft","10.04","1","1","","","No","No","","1311 Loraine St","Pittsburgh","15212","PA","USA","40.45705","-80.00581"
"https://www.zillow.com/homedetails/874-Center-Rd-Pittsburgh-PA-15239/11626393_zpid/","","","16500","","1200","11500","06/05/2023","1024","sqft","16.11","0.7","acres","23578.17","2","1","","Jaton Hopkins","No","No","","874 Center Rd","Pittsburgh","15239","PA","USA","40.475456","-79.75808"
"https://www.zillow.com/homedetails/7340-Monticello-St-Pittsburgh-PA-15208/11339336_zpid/","","","22500","22600","1392","24900","06/20/2023","1352","sqft","16.64","2308.68","sqft","9.75","3","2","","Corey Burns","No","No","","7340 Monticello St","Pittsburgh","15208","PA","USA","40.45843","-79.89161"
"https://www.zillow.com/homedetails/3740-Frazier-St-Pittsburgh-PA-15213/11420259_zpid/","","","20000","","1934","64300","06/19/2023","2300","sqft","8.7","1875","sqft","10.67","4","1.5","","","No","No","","3740 Frazier St","Pittsburgh","15213","PA","USA","40.42865","-79.95331"
"https://www.zillow.com/homedetails/1223-Paulson-Ave-Pittsburgh-PA-15206/11284488_zpid/","","","20000","","1264","38800","06/16/2023","1450","sqft","13.79","2400","sqft","8.33","2","1","","","No","No","","1223 Paulson Ave","Pittsburgh","15206","PA","USA","40.46859","-79.9026"
"https://www.zillow.com/homedetails/4-Highland-Ct-Pittsburgh-PA-15206/11619972_zpid/","","","17000","17100","1831","5100","06/16/2023","","","","401","sqft","42.39","","","","","No","No","","4 Highland Ct","Pittsburgh","15206","PA","USA","40.47903","-79.92185"
"https://www.zillow.com/homedetails/609-E-9th-Ave-Tarentum-PA-15084/11279534_zpid/","","","24000","","1352","60500","06/15/2023","1679","sqft","14.29","7501.03","sqft","3.2","3","2","","Michael Kusenko","No","No","","609 E 9th Ave","Tarentum","15084","PA","USA","40.606358","-79.75086"
"https://www.zillow.com/homedetails/513-Luella-St-Mc-Kees-Rocks-PA-15136/11487910_zpid/","","","20000","","945","19000","06/15/2023","986","sqft","20.28","1407","sqft","14.21","2","1","","","No","No","","513 Luella St","Mc Kees Rocks","15136","PA","USA","40.470596","-80.062065"
"https://www.zillow.com/homedetails/School-St-Sewickley-PA-15143/164623805_zpid/","","","22500","","1034","6000","06/15/2023","","","","3","acres","7500","","","","","No","No","","School St","Sewickley","15143","PA","USA","40.522278","-80.13574"
"https://www.zillow.com/homedetails/214-Hallock-St-Pittsburgh-PA-15211/164654993_zpid/","","","18000","","1385","14400","06/13/2023","","","","8934.16","sqft","2.01","2","1","","Kevin Obendorfer","No","No","","214 Hallock St","Pittsburgh","15211","PA","USA","40.430054","-80.02355"
"https://www.zillow.com/homedetails/868-Seabright-Rd-Mc-Donald-PA-15057/300249174_zpid/","","","20000","","1763","17900","06/13/2023","","","","1","acres","19950.08","","","","","No","No","","868 Seabright Rd","Mc Donald","15057","PA","USA","40.40595","-80.25374"
"https://www.zillow.com/homedetails/50-Ohio-St-Mc-Kees-Rocks-PA-15136/11268006_zpid/","","","20000","20100","900","22700","06/12/2023","1028","sqft","19.46","1725","sqft","11.59","2","1","","","No","No","","50 Ohio St","Mc Kees Rocks","15136","PA","USA","40.483433","-80.0617"
"https://www.zillow.com/homedetails/2659-Glen-Mawr-St-Pittsburgh-PA-15204/11371336_zpid/","","","20000","20600","1250","25000","06/12/2023","1008","sqft","19.84","1999.4","sqft","10","3","1","","","No","No","","2659 Glen Mawr St","Pittsburgh","15204","PA","USA","40.452763","-80.04906"
"https://www.zillow.com/homedetails/1909-Baldauf-St-Pittsburgh-PA-15203/11307403_zpid/","","","20000","","1594","59100","06/08/2023","819","sqft","24.42","1237.1","sqft","16.17","2","1","","Scott Schramm","No","No","","1909 Baldauf St","Pittsburgh","15203","PA","USA","40.423176","-79.98035"
"https://www.zillow.com/homedetails/510-Kirk-Ave-Pittsburgh-PA-15227/11645005_zpid/","","","17000","17100","1400","45500","06/07/2023","1064","sqft","15.98","6634","sqft","2.56","3","1","","","No","No","","510 Kirk Ave","Pittsburgh","15227","PA","USA","40.39376","-79.97561"
"https://www.zillow.com/homedetails/735-Ceres-Way-Pittsburgh-PA-15210/11314943_zpid/","","","23500","23700","1300","41900","06/06/2023","1400","sqft","16.79","1873","sqft","12.55","2","2","","","No","No","","735 Ceres Way","Pittsburgh","15210","PA","USA","40.404972","-79.97343"
"https://www.zillow.com/homedetails/1026-Worthington-Ave-Clairton-PA-15025/11634033_zpid/","","","21700","21800","984","36200","06/06/2023","952","sqft","22.79","4399.56","sqft","4.93","2","1","","Michael Pohlot","No","No","","1026 Worthington Ave","Clairton","15025","PA","USA","40.291943","-79.89524"
"https://www.zillow.com/homedetails/619-Boden-St-Turtle-Creek-PA-15145/11495293_zpid/","","","20000","20100","1312","96000","06/05/2023","1356","sqft","14.75","0.33","acres","60000","3","1","","","No","No","","619 Boden St","Turtle Creek","15145","PA","USA","40.41568","-79.820076"
"https://www.zillow.com/homedetails/808-Quaill-Ave-Pittsburgh-PA-15202/11369140_zpid/","","","20000","","1533","80000","06/01/2023","884","sqft","22.62","3497.87","sqft","5.72","3","1","","Mackenzie Ziehler","No","No","","808 Quaill Ave","Pittsburgh","15202","PA","USA","40.504677","-80.050285"
"https://www.zillow.com/homedetails/553-Stokes-Ave-Braddock-PA-15104/11421734_zpid/","","","20000","20200","995","12500","06/01/2023","1024","sqft","19.53","2639","sqft","7.58","2","1","","","No","No","","553 Stokes Ave","Braddock","15104","PA","USA","40.408764","-79.86171"
"https://www.zillow.com/homedetails/538-6th-St-Pitcairn-PA-15140/11601698_zpid/","","","20000","20200","1250","41700","06/01/2023","1584","sqft","12.63","2000","sqft","10","3","1","","","No","No","","538 6th St","Pitcairn","15140","PA","USA","40.40583","-79.77719"
"https://www.zillow.com/homedetails/1343-Chartiers-Ave-Pittsburgh-PA-15220/11366393_zpid/","","","17500","","1385","30600","05/31/2023","1340","sqft","13.06","5170","sqft","3.38","3","1","","","No","No","","1343 Chartiers Ave","Pittsburgh","15220","PA","USA","40.449043","-80.044846"
"https://www.zillow.com/homedetails/313-Run-St-Carnegie-PA-15106/11255431_zpid/","","","22300","","1399","30200","05/23/2023","936","sqft","23.82","3419","sqft","6.52","3","1","","","No","No","","313 Run St","Carnegie","15106","PA","USA","40.41116","-80.09228"
"https://www.zillow.com/homedetails/7341-Hermitage-St-Pittsburgh-PA-15208/11339367_zpid/","","","18000","","1392","31300","05/20/2023","1812","sqft","9.93","2805.26","sqft","6.42","4","1","","Naomi Harris","No","No","","7341 Hermitage St","Pittsburgh","15208","PA","USA","40.459515","-79.89121"
"https://www.zillow.com/homedetails/605-E-19th-Ave-Homestead-PA-15120/11293436_zpid/","","","18500","","1095","20600","05/19/2023","1167","sqft","15.85","1840","sqft","10.05","2","1","","","No","No","","605 E 19th Ave","Homestead","15120","PA","USA","40.401714","-79.900314"
"https://www.zillow.com/homedetails/1532-Alverado-Ave-Pittsburgh-PA-15216/11445322_zpid/","","","17000","","1589","32000","05/18/2023","1725","sqft","9.86","3000","sqft","5.67","3","1","","","No","No","","1532 Alverado Ave","Pittsburgh","15216","PA","USA","40.411285","-80.02866"
"https://www.zillow.com/homedetails/614-Friday-Rd-Pittsburgh-PA-15209/164552005_zpid/","","","15700","","1294","10000","05/18/2023","","","","2.2","acres","7136.36","","","","","No","No","","614 Friday Rd","Pittsburgh","15209","PA","USA","40.48929","-79.95886"
"https://www.zillow.com/homedetails/25-Minooka-St-Pittsburgh-PA-15210/11556071_zpid/","","","23000","23300","1399","29000","05/17/2023","1608","sqft","14.3","3500","sqft","6.57","3","1","","","No","No","","25 Minooka St","Pittsburgh","15210","PA","USA","40.403973","-79.99138"
"https://www.zillow.com/homedetails/527-Tingley-Ave-Pittsburgh-PA-15202/11369444_zpid/","","","20000","","1235","39700","05/12/2023","1132","sqft","17.67","2064","sqft","9.69","3","1","","","No","No","","527 Tingley Ave","Pittsburgh","15202","PA","USA","40.503025","-80.05493"
"https://www.zillow.com/homedetails/1304-North-Ave-Pittsburgh-PA-15221/11379925_zpid/","","","23000","23300","1332","22300","05/12/2023","2080","sqft","11.06","7524","sqft","3.06","3","1","","","No","No","","1304 North Ave","Pittsburgh","15221","PA","USA","40.44211","-79.87499"
"https://www.zillow.com/homedetails/934-Miller-Ave-Clairton-PA-15025/11249852_zpid/","","","19500","19800","898","18600","05/11/2023","1016","sqft","19.19","9753.08","sqft","2","2","1","","Tina Nobers","No","No","","934 Miller Ave","Clairton","15025","PA","USA","40.283752","-79.881935"
"https://www.zillow.com/homedetails/416-Cedarhurst-St-Pittsburgh-PA-15210/2057966417_zpid/","","","20000","20300","1014","","05/09/2023","1088","sqft","18.38","3049.2","sqft","6.56","2","1","","Michael Wicker","No","No","","416 Cedarhurst St","Pittsburgh","15210","PA","USA","40.418068","-79.99957"
"https://www.zillow.com/homedetails/218-Bausman-St-Pittsburgh-PA-15210/11316971_zpid/","","","18000","","1399","20000","05/08/2023","1376","sqft","13.08","3800","sqft","4.74","3","1","","","No","No","","218 Bausman St","Pittsburgh","15210","PA","USA","40.414127","-79.991425"
"https://www.zillow.com/homedetails/7153-Wiltsie-St-Pittsburgh-PA-15206/11337364_zpid/","","","17000","","1385","24400","05/08/2023","841","sqft","20.21","4000","sqft","4.25","2","1.5","","","No","No","","7153 Wiltsie St","Pittsburgh","15206","PA","USA","40.47093","-79.89436"
"https://www.zillow.com/homedetails/1355-Wall-Ave-Pitcairn-PA-15140/11601186_zpid/","","","16700","","974","26400","05/08/2023","832","sqft","20.07","1554","sqft","10.75","2","1","","","No","No","","1355 Wall Ave","Pitcairn","15140","PA","USA","40.415936","-79.77678"
"https://www.zillow.com/homedetails/2914-Grover-Ave-McKeesport-PA-15132/11462575_zpid/","","","24000","24400","898","19100","05/05/2023","1080","sqft","22.22","2500.34","sqft","9.6","2","2","","Denay Farrand","No","No","","2914 Grover Ave","McKeesport","15132","PA","USA","40.341362","-79.84281"
"https://www.zillow.com/homedetails/222-Kramer-Way-Pittsburgh-PA-15211/11516702_zpid/","","","24900","","1300","27200","05/05/2023","1024","sqft","24.32","1838.23","sqft","13.55","2","1","","Libby Sosinski","No","No","","222 Kramer Way","Pittsburgh","15211","PA","USA","40.424324","-80.00794"
"https://www.zillow.com/homedetails/2313-Woodstock-Ave-Pittsburgh-PA-15218/11383377_zpid/","","","20000","127100","1200","44000","05/04/2023","1071","sqft","18.67","2875","sqft","6.96","2","2","","","No","No","","2313 Woodstock Ave","Pittsburgh","15218","PA","USA","40.41849","-79.882774"
"https://www.zillow.com/homedetails/625-Independence-Dr-Clairton-PA-15025/11634513_zpid/","","","22500","","929","29900","05/04/2023","1056","sqft","21.31","5397","sqft","4.17","2","2","","","No","No","","625 Independence Dr","Clairton","15025","PA","USA","40.28802","-79.891235"
"https://www.zillow.com/homedetails/1214-Park-St-McKeesport-PA-15132/11464312_zpid/","","","20000","20300","1090","20900","05/03/2023","1934","sqft","10.34","2997","sqft","6.67","3","1","","","No","No","","1214 Park St","McKeesport","15132","PA","USA","40.345325","-79.85087"
"https://www.zillow.com/homedetails/480-W-8th-Ave-Homestead-PA-15120/11640369_zpid/","","","22000","22300","1884","38700","05/03/2023","4027","sqft","5.46","3267","sqft","6.73","3","1.5","","","No","No","","480 W 8th Ave","Homestead","15120","PA","USA","40.400677","-79.918495"
"https://www.zillow.com/homedetails/1125-Rebecca-St-Braddock-PA-15104/87994012_zpid/","","","18000","","1114","14900","05/03/2023","1020","sqft","17.65","3900","sqft","4.62","2","1","","","No","No","","1125 Rebecca St","Braddock","15104","PA","USA","40.40048","-79.85927"
"https://www.zillow.com/homedetails/815-Ridge-St-McKeesport-PA-15132/11425888_zpid/","","","16900","","854","20000","05/01/2023","","","","4230","sqft","4","2","1","","Christian Ivory","No","No","","815 Ridge St","McKeesport","15132","PA","USA","40.34829","-79.85346"
"https://www.zillow.com/homedetails/512-Westinghouse-Ave-North-Versailles-PA-15137/11498058_zpid/","","","20000","","1214","44400","05/01/2023","876","sqft","22.83","5248.98","sqft","3.81","3","1","","Tina Nobers","No","No","","512 Westinghouse Ave","North Versailles","15137","PA","USA","40.369926","-79.82862"
"https://www.zillow.com/homedetails/1922-Tacoma-Ave-McKeesport-PA-15133/11503279_zpid/","","","19500","","857","25800","04/28/2023","608","sqft","32.07","3750","sqft","5.2","1","1","","","No","No","","1922 Tacoma Ave","McKeesport","15133","PA","USA","40.33489","-79.86304"
"https://www.zillow.com/homedetails/316-Woodhill-Rd-West-Mifflin-PA-15122/11427971_zpid/","","","20900","146400","1417","74400","04/26/2023","900","sqft","23.22","6050","sqft","3.45","3","1","","","No","No","","316 Woodhill Rd","West Mifflin","15122","PA","USA","40.345963","-79.93477"
"https://www.zillow.com/homedetails/312-Knox-Ave-Pittsburgh-PA-15210/11315788_zpid/","","","20000","","1466","36600","04/25/2023","1778","sqft","11.25","1873.08","sqft","10.68","3","1","","Tina Nobers","No","No","","312 Knox Ave","Pittsburgh","15210","PA","USA","40.41984","-79.991"
"https://www.zillow.com/homedetails/264-Freidel-St-Homestead-PA-15120/11347794_zpid/","","","22000","22400","1298","37100","04/25/2023","1298","sqft","16.95","5279","sqft","4.17","3","1","","","No","No","","264 Freidel St","Homestead","15120","PA","USA","40.398163","-79.89366"
"https://www.zillow.com/homedetails/2-Colecrest-St-Carnegie-PA-15106/59843218_zpid/","","","20000","223300","1849","113800","04/25/2023","1665","sqft","12.01","10512","sqft","1.9","3","1.5","","","No","No","","2 Colecrest St","Carnegie","15106","PA","USA","40.404755","-80.09922"
"https://www.zillow.com/homedetails/361-Center-New-Texas-Rd-Pittsburgh-PA-15239/164699775_zpid/","","","23000","","1256","23600","04/21/2023","","","","0.42","acres","55021.14","","","","","No","No","","361 Center New Texas Rd","Pittsburgh","15239","PA","USA","40.485847","-79.755745"
"https://www.zillow.com/homedetails/813-Excelsior-St-Pittsburgh-PA-15210/11314961_zpid/","","","20000","20400","1099","18700","04/20/2023","815","sqft","24.54","4499.75","sqft","4.44","2","1","","Tina Nobers","No","No","","813 Excelsior St","Pittsburgh","15210","PA","USA","40.42303","-79.993126"
"https://www.zillow.com/homedetails/1315-Freemont-St-McKeesport-PA-15132/11461946_zpid/","","","20000","20400","1281","13900","04/19/2023","1865","sqft","10.72","2879.32","sqft","6.95","3","1","","Sandra Tokosh","No","No","","1315 Freemont St","McKeesport","15132","PA","USA","40.3438","-79.841934"
"https://www.zillow.com/homedetails/1255-Lovedale-Rd-Elizabeth-PA-15037/164542822_zpid/","","","22200","","993","70700","04/19/2023","","","","20","acres","1110","","","","","No","No","","1255 Lovedale Rd","Elizabeth","15037","PA","USA","40.27976","-79.85589"
"https://www.zillow.com/homedetails/1415-Hays-St-Homestead-PA-15120/11293554_zpid/","","","16500","","1164","22000","04/18/2023","1120","sqft","14.73","1540","sqft","10.71","2","1","","","No","No","","1415 Hays St","Homestead","15120","PA","USA","40.400833","-79.90865"
"https://www.zillow.com/homedetails/386-Davis-Ave-Mc-Kees-Rocks-PA-15136/11598261_zpid/","","","15900","","1394","31900","04/13/2023","1310","sqft","12.14","5600","sqft","2.84","3","1","","","No","No","","386 Davis Ave","Mc Kees Rocks","15136","PA","USA","40.48061","-80.07044"
"https://www.zillow.com/homedetails/310-Sherman-Ave-Dravosburg-PA-15034/11426899_zpid/","","","20000","103900","1300","56500","04/07/2023","866","sqft","23.09","4260","sqft","4.69","4","2","","","No","No","","310 Sherman Ave","Dravosburg","15034","PA","USA","40.350613","-79.89046"
"https://www.zillow.com/homedetails/703-Crawford-Ave-Duquesne-PA-15110/11459734_zpid/","","","20000","20500","925","7600","04/07/2023","832","sqft","24.04","1771","sqft","11.29","2","1","","","No","No","","703 Crawford Ave","Duquesne","15110","PA","USA","40.363678","-79.84882"
"https://www.zillow.com/homedetails/911-6th-Ave-Coraopolis-PA-15108/11478628_zpid/","","","23000","96400","947","24800","04/07/2023","619","sqft","37.16","1153","sqft","19.95","2","1","","","No","No","","911 6th Ave","Coraopolis","15108","PA","USA","40.517426","-80.16668"
"https://www.zillow.com/homedetails/4006-Harvey-Ave-Homestead-PA-15120/11296202_zpid/","","","20000","","1064","53200","04/05/2023","924","sqft","21.65","3750","sqft","5.33","2","1","","","No","No","","4006 Harvey Ave","Homestead","15120","PA","USA","40.380165","-79.90334"
"https://www.zillow.com/homedetails/453-Webster-Rd-New-Kensington-PA-15068/11648679_zpid/","","","18000","","1392","90000","04/05/2023","1344","sqft","13.39","1.32","acres","13646.62","2","1.5","","","No","No","","453 Webster Rd","New Kensington","15068","PA","USA","40.528706","-79.74776"
"https://www.zillow.com/homedetails/648-Baldwin-Rd-Pittsburgh-PA-15207/11299918_zpid/","","","16000","","1450","22500","04/04/2023","1482","sqft","10.8","6200","sqft","2.58","3","1","","","No","No","","648 Baldwin Rd","Pittsburgh","15207","PA","USA","40.381493","-79.93467"
"https://www.zillow.com/homedetails/124-Sherman-St-Mount-Oliver-PA-15210/11317195_zpid/","","","22000","","1299","19000","04/04/2023","1514","sqft","14.53","2069.1","sqft","10.63","3","1","","Jennifer Cash Wade","No","No","","124 Sherman St","Mount Oliver","15210","PA","USA","40.414513","-79.98637"
"https://www.zillow.com/homedetails/3828-Desota-Ave-McKeesport-PA-15132/11460988_zpid/","","","18000","","998","18100","04/04/2023","1123","sqft","16.03","3001.28","sqft","6","2","1","","Linda Carpenter","No","No","","3828 Desota Ave","McKeesport","15132","PA","USA","40.350887","-79.833176"
"https://www.zillow.com/homedetails/234-E-17th-Ave-Homestead-PA-15120/11293247_zpid/","","","18762","","1099","23900","04/03/2023","1308","sqft","14.34","2748.64","sqft","6.83","2","1","","","No","No","","234 E 17th Ave","Homestead","15120","PA","USA","40.402035","-79.902626"
"https://www.zillow.com/homedetails/209-Glen-Caladh-St-Pittsburgh-PA-15207/11550059_zpid/","","","20000","","1195","12300","03/30/2023","1040","sqft","19.23","1098","sqft","18.21","2","1","","","No","No","","209 Glen Caladh St","Pittsburgh","15207","PA","USA","40.409756","-79.94188"
"https://www.zillow.com/homedetails/1419-Wall-Ave-Pitcairn-PA-15140/11601191_zpid/","","","16500","","1279","45600","03/30/2023","1070","sqft","15.42","3841","sqft","4.3","4","1","","","No","No","","1419 Wall Ave","Pitcairn","15140","PA","USA","40.41662","-79.77677"
"https://www.zillow.com/homedetails/719-8th-St-Clairton-PA-15025/11634114_zpid/","","","24000","24600","1146","60200","03/30/2023","1262","sqft","19.02","7305","sqft","3.29","3","1","","","No","No","","719 8th St","Clairton","15025","PA","USA","40.290535","-79.89114"
"https://www.zillow.com/homedetails/608-E-19th-Ave-Homestead-PA-15120/11293929_zpid/","","","20000","20500","1099","20000","03/29/2023","1199","sqft","16.68","1840","sqft","10.87","2","1","","","No","No","","608 E 19th Ave","Homestead","15120","PA","USA","40.401302","-79.90004"
"https://www.zillow.com/homedetails/4th-5th-Ave-Sutersville-PA-15083/10659246_zpid/","","","17000","17300","1257","4630","03/28/2023","","","","4800","sqft","3.54","","","","","No","No","","4th & 5th Ave","Sutersville","15083","PA","USA","40.244316","-79.8101"
"https://www.zillow.com/homedetails/126-Rochelle-St-Pittsburgh-PA-15210/11317042_zpid/","","","18000","","1398","19700","03/28/2023","","","","2613.6","sqft","6.89","4","2","","Elizabeth Kofmehl","No","No","","126 Rochelle St","Pittsburgh","15210","PA","USA","40.41493","-79.98939"
"https://www.zillow.com/homedetails/979-Washington-Blvd-Pittsburgh-PA-15206/11285731_zpid/","","","20717","","1364","400","03/24/2023","1288","sqft","16.08","1617","sqft","12.81","2","1","","","No","No","","979 Washington Blvd","Pittsburgh","15206","PA","USA","40.461765","-79.9061"
"https://www.zillow.com/homedetails/611-Viola-Ave-Duquesne-PA-15110/11423908_zpid/","","","17000","","1294","10800","03/24/2023","1260","sqft","13.49","2265","sqft","7.51","4","1","","","No","No","","611 Viola Ave","Duquesne","15110","PA","USA","40.368725","-79.850296"
"https://www.zillow.com/homedetails/97-Frazier-Ave-Mc-Kees-Rocks-PA-15136/11599511_zpid/","","","17500","","1427","39700","03/24/2023","1437","sqft","12.18","1799.03","sqft","9.73","2","2","","Daniel Seigel","No","No","","97 Frazier Ave","Mc Kees Rocks","15136","PA","USA","40.473682","-80.06972"
"https://www.zillow.com/homedetails/2837-Stanley-St-South-Park-PA-15129/11253174_zpid/","","","22352","23000","1841","115200","03/23/2023","1572","sqft","14.22","9413","sqft","2.37","3","1.5","","","No","No","","2837 Stanley St","South Park","15129","PA","USA","40.284603","-80.017685"
"https://www.zillow.com/homedetails/2715-Leland-St-Pittsburgh-PA-15214/11609973_zpid/","","","22000","22600","1345","55400","03/23/2023","","","","2460","sqft","8.94","3","1","","Alex Deacon","No","No","","2715 Leland St","Pittsburgh","15214","PA","USA","40.472935","-80.01316"
"https://www.zillow.com/homedetails/811-Jefferson-St-McKeesport-PA-15132/11461002_zpid/","","","19000","","994","36700","03/20/2023","858","sqft","22.14","8000","sqft","2.38","2","1","","","No","No","","811 Jefferson St","McKeesport","15132","PA","USA","40.352753","-79.836205"
"https://www.zillow.com/homedetails/840-Ceres-Way-Pittsburgh-PA-15210/11314953_zpid/","","","18000","18500","1222","27000","03/17/2023","1440","sqft","12.5","3750.52","sqft","4.8","2","1","","Libby Sosinski","No","No","","840 Ceres Way","Pittsburgh","15210","PA","USA","40.42315","-79.99219"
"https://www.zillow.com/homedetails/212-E-Warrington-Ave-Pittsburgh-PA-15210/11324035_zpid/","","","21500","","998","18500","03/13/2023","904","sqft","23.78","2178","sqft","9.87","1","1","","","No","No","","212 E Warrington Ave","Pittsburgh","15210","PA","USA","40.420685","-80.004196"
"https://www.zillow.com/homedetails/811-Crucible-St-Pittsburgh-PA-15220/11362275_zpid/","","","19000","","1200","18600","03/09/2023","1299","sqft","14.63","1698.84","sqft","11.18","3","1","","Kelly Luhn","No","No","","811 Crucible St","Pittsburgh","15220","PA","USA","40.442013","-80.04036"
"https://www.zillow.com/homedetails/1704-Milton-St-Braddock-PA-15104/11458270_zpid/","","","23000","66900","1150","25400","03/08/2023","1460","sqft","15.75","2325","sqft","9.89","3","2","","","No","No","","1704 Milton St","Braddock","15104","PA","USA","40.398937","-79.84287"
"https://www.zillow.com/homedetails/911-Orchard-Ct-Duquesne-PA-15110/11459806_zpid/","","","19000","19700","1214","28200","03/02/2023","1008","sqft","18.85","5570","sqft","3.41","3","1","","","No","No","","911 Orchard Ct","Duquesne","15110","PA","USA","40.363583","-79.84356"
"https://www.zillow.com/homedetails/3106-Viola-St-Pittsburgh-PA-15214/11609697_zpid/","","","16500","","1229","46200","03/01/2023","748","sqft","22.06","7064","sqft","2.34","2","1","","","No","No","","3106 Viola St","Pittsburgh","15214","PA","USA","40.477703","-80.010895"
"https://www.zillow.com/homedetails/845-Center-Rd-Pittsburgh-PA-15239/11626510_zpid/","","","22000","","1403","71200","03/01/2023","1363","sqft","16.14","0.46","acres","47465.08","3","1","","","No","No","","845 Center Rd","Pittsburgh","15239","PA","USA","40.47283","-79.75681"
"https://www.zillow.com/homedetails/850-Lillian-St-Pittsburgh-PA-15210/11316342_zpid/","","","20000","20700","1395","16100","02/28/2023","1740","sqft","11.49","2500.34","sqft","8","3","1","","Jennifer Cash Wade","No","No","","850 Lillian St","Pittsburgh","15210","PA","USA","40.418617","-79.99167"
"https://www.zillow.com/homedetails/107-3rd-St-Coulters-PA-15028/11632300_zpid/","","","20000","20700","950","37800","02/27/2023","1230","sqft","16.26","0.57","acres","35235.59","2","1","","","No","No","","107 3rd St","Coulters","15028","PA","USA","40.296143","-79.80127"
"https://www.zillow.com/homedetails/9612-Glendale-Rd-Pittsburgh-PA-15235/11415703_zpid/","","","22500","119100","1381","49600","02/17/2023","1200","sqft","18.75","7100","sqft","3.17","3","1","","","No","No","","9612 Glendale Rd","Pittsburgh","15235","PA","USA","40.46437","-79.86016"
"https://www.zillow.com/homedetails/507-Lobinger-Ave-Braddock-PA-15104/11421553_zpid/","","","20000","20800","1150","42500","02/17/2023","1590","sqft","12.58","2520","sqft","7.94","3","1.5","","","No","No","","507 Lobinger Ave","Braddock","15104","PA","USA","40.4088","-79.864494"
"https://www.zillow.com/homedetails/3130-Middletown-Rd-Pittsburgh-PA-15204/11587709_zpid/","","","20000","","1395","52600","02/17/2023","1520","sqft","13.16","6060","sqft","3.3","3","1","","","No","No","","3130 Middletown Rd","Pittsburgh","15204","PA","USA","40.450905","-80.06641"
"https://www.zillow.com/homedetails/1118-12th-St-Mc-Kees-Rocks-PA-15136/11598856_zpid/","","","20000","20800","1084","36100","02/17/2023","1200","sqft","16.67","2926","sqft","6.84","3","1","","","No","No","","1118 12th St","Mc Kees Rocks","15136","PA","USA","40.473614","-80.07967"
"https://www.zillow.com/homedetails/510-Lowell-St-Pittsburgh-PA-15206/11285613_zpid/","","","18500","","1999","34800","02/16/2023","2363","sqft","7.83","2625","sqft","7.05","3","2","","","No","No","","510 Lowell St","Pittsburgh","15206","PA","USA","40.46241","-79.910416"
"https://www.zillow.com/homedetails/Harrison-Rd-Turtle-Creek-PA-15145/164408338_zpid/","","","16500","","1314","17900","02/16/2023","","","","1.08","acres","15348.84","","","","","No","No","","Harrison Rd","Turtle creek","15145","PA","USA","40.424946","-79.82173"
"https://www.zillow.com/homedetails/394-Center-St-Pittsburgh-PA-15221/11342923_zpid/","","","21000","","1335","25700","02/10/2023","1050","sqft","20","2613.6","sqft","8.03","3","1","","CHRISTOPHER CARR","No","No","","394 Center St","Pittsburgh","15221","PA","USA","40.437695","-79.884"
"https://www.zillow.com/homedetails/1165-Oakleaf-Dr-Pittsburgh-PA-15207/11351478_zpid/","","","19000","","1792","26700","02/10/2023","1335","sqft","14.23","7200","sqft","2.64","3","2.5","","","No","No","","1165 Oakleaf Dr","Pittsburgh","15207","PA","USA","40.373","-79.91489"
"https://www.zillow.com/homedetails/1514-Meadow-St-McKeesport-PA-15132/11462640_zpid/","","","21000","","1121","25800","02/10/2023","1474","sqft","14.25","2178","sqft","9.64","3","3","","Robert Moncavage","No","No","","1514 Meadow St","McKeesport","15132","PA","USA","40.342327","-79.84048"
"https://www.zillow.com/homedetails/721-Frederick-St-Mc-Kees-Rocks-PA-15136/11487835_zpid/","","","22137","","1099","22300","02/10/2023","1200","sqft","18.45","3000","sqft","7.38","3","1","","","No","No","","721 Frederick St","Mc Kees Rocks","15136","PA","USA","40.471943","-80.06546"
"https://www.zillow.com/homedetails/518-Viola-Ave-Duquesne-PA-15110/11423930_zpid/","","","16956","","1294","10800","02/09/2023","1800","sqft","9.42","1325","sqft","12.8","4","1","","","No","No","","518 Viola Ave","Duquesne","15110","PA","USA","40.369175","-79.8497"
"https://www.zillow.com/homedetails/2013-Straubs-Ln-Pittsburgh-PA-15212/11512157_zpid/","","","16014","","1374","38400","02/09/2023","1448","sqft","11.06","1419","sqft","11.29","2","1","","","No","No","","2013 Straubs Ln","Pittsburgh","15212","PA","USA","40.46835","-79.98039"
"https://www.zillow.com/homedetails/6106-Soltis-Dr-Clairton-PA-15025/11633417_zpid/","","","16100","","999","15300","02/08/2023","1144","sqft","14.07","4087","sqft","3.94","2","1","","","No","No","","6106 Soltis Dr","Clairton","15025","PA","USA","40.2893","-79.896736"
"https://www.zillow.com/homedetails/211-Freeport-Rd-Creighton-PA-15030/11595367_zpid/","","","18500","19300","1200","24600","02/07/2023","1309","sqft","14.13","7501.03","sqft","2.47","4","1","","Connie Rusek","No","No","","211 Freeport Rd","Creighton","15030","PA","USA","40.56933","-79.7769"
"https://www.zillow.com/homedetails/2005-Valley-St-West-Mifflin-PA-15122/11424065_zpid/","","","20000","","1241","58600","02/03/2023","1400","sqft","14.29","0.26","acres","77785.71","2","1.25","","","No","No","","2005 Valley St","West Mifflin","15122","PA","USA","40.366062","-79.86525"
"https://www.zillow.com/homedetails/2714-Banker-St-McKeesport-PA-15132/11501883_zpid/","","","20748","21600","983","50300","02/03/2023","1229","sqft","16.88","5000","sqft","4.15","2","1","","","No","No","","2714 Banker St","McKeesport","15132","PA","USA","40.333496","-79.832535"
"https://www.zillow.com/homedetails/16-Torrance-St-Pittsburgh-PA-15235/164578620_zpid/","","","19000","19800","1399","34200","02/03/2023","977","sqft","19.45","2639.74","sqft","7.2","3","1","","Jason Mazzei","No","No","","16 Torrance St","Pittsburgh","15235","PA","USA","40.465157","-79.886475"
"https://www.zillow.com/homedetails/220-W-Schwab-Ave-Homestead-PA-15120/11347457_zpid/","","","19236","20100","1092","51500","02/02/2023","876","sqft","21.96","4500","sqft","4.27","2","1","","","No","No","","220 W Schwab Ave","Homestead","15120","PA","USA","40.40046","-79.89326"
"https://www.zillow.com/homedetails/1103-Franklin-St-Braddock-PA-15104/2060772263_zpid/","","","24000","","1099","","02/02/2023","992","sqft","24.19","3149.39","sqft","7.62","4","1","","Tina Nobers","No","No","","1103 Franklin St","Braddock","15104","PA","USA","40.40052","-79.86081"
"https://www.zillow.com/homedetails/141-Glen-Caladh-St-Pittsburgh-PA-15207/11550072_zpid/","","","18000","18800","1114","11700","02/01/2023","984","sqft","18.29","929","sqft","19.38","2","1","","","No","No","","141 Glen Caladh St","Pittsburgh","15207","PA","USA","40.409134","-79.942375"
"https://www.zillow.com/homedetails/940-Vankirk-St-Clairton-PA-15025/11249875_zpid/","","","20000","20900","850","28600","01/30/2023","896","sqft","22.32","2640","sqft","7.58","2","1","","","No","No","","940 Vankirk St","Clairton","15025","PA","USA","40.28331","-79.882835"
"https://www.zillow.com/homedetails/734-3rd-St-Clairton-PA-15025/11633381_zpid/","","","17000","17700","882","23600","01/30/2023","1340","sqft","12.69","9000","sqft","1.89","2","1","","","No","No","","734 3rd St","Clairton","15025","PA","USA","40.28853","-79.88011"
"https://www.zillow.com/homedetails/816-Semple-Ave-Pittsburgh-PA-15202/11368886_zpid/","","","17550","","1849","96700","01/27/2023","1880","sqft","9.34","9779.22","sqft","1.79","3","2","","John Smithheisler","No","No","","816 Semple Ave","Pittsburgh","15202","PA","USA","40.506435","-80.0636"
"https://www.zillow.com/homedetails/454-Ella-St-Wilkinsburg-PA-15221/11380820_zpid/","","","22500","23500","1299","28600","01/27/2023","","","","5000","sqft","4.5","4","1","","Christian Ivory","No","No","","454 Ella St","Wilkinsburg","15221","PA","USA","40.436337","-79.87881"
"https://www.zillow.com/homedetails/141-Carnegie-Ave-Clairton-PA-15025/11576527_zpid/","","","23972","","950","37900","01/26/2023","1150","sqft","20.85","6208","sqft","3.86","2","1","","","No","No","","141 Carnegie Ave","Clairton","15025","PA","USA","40.30871","-79.892075"
"https://www.zillow.com/homedetails/22-James-St-Pittsburgh-PA-15223/164575785_zpid/","","","22000","","1194","2000","01/26/2023","","","","5198","sqft","4.23","","","","","No","No","","22 James St","Pittsburgh","15223","PA","USA","40.498173","-79.948944"
"https://www.zillow.com/homedetails/323-Victoria-Dr-Monroeville-PA-15146/11627593_zpid/","","","20000","189800","1794","85000","01/25/2023","1278","sqft","15.65","9500","sqft","2.11","3","2","","","No","No","","323 Victoria Dr","Monroeville","15146","PA","USA","40.42936","-79.76617"
"https://www.zillow.com/homedetails/612-Main-St-East-Pittsburgh-PA-15112/11458556_zpid/","","","22000","23000","1281","28400","01/23/2023","2200","sqft","10","1636","sqft","13.45","3","2","","","No","No","","612 Main St","East Pittsburgh","15112","PA","USA","40.39641","-79.841125"
"https://www.zillow.com/homedetails/1032-Spring-Garden-Ave-Pittsburgh-PA-15212/11394836_zpid/","","","17000","","1400","77200","01/20/2023","1672","sqft","10.17","1300","sqft","13.08","2","1","","","No","No","","1032 Spring Garden Ave","Pittsburgh","15212","PA","USA","40.459255","-79.99391"
"https://www.zillow.com/homedetails/330-Wood-St-Wilmerding-PA-15148/11537078_zpid/","","","20500","","1327","20800","01/19/2023","752","sqft","27.26","9138.89","sqft","2.24","3","2","","Harriett Koedel","No","No","","330 Wood St","Wilmerding","15148","PA","USA","40.39013","-79.80693"
"https://www.zillow.com/homedetails/882-Center-Rd-Pittsburgh-PA-15239/11626395_zpid/","","","23500","","1300","71700","01/18/2023","830","sqft","28.31","0.53","acres","44490.72","3","2","","Douglas Brewster","No","No","","882 Center Rd","Pittsburgh","15239","PA","USA","40.475555","-79.75834"
"https://www.zillow.com/homedetails/1205-Pineridge-St-Pittsburgh-PA-15208/11339574_zpid/","","","22000","","1352","16900","01/17/2023","1064","sqft","20.68","1701","sqft","12.93","3","1","","","No","No","","1205 Pineridge St","Pittsburgh","15208","PA","USA","40.459373","-79.89"
"https://www.zillow.com/homedetails/828-Hall-St-Homestead-PA-15120/11346279_zpid/","","","21000","22000","1090","18200","01/17/2023","1163","sqft","18.06","2235","sqft","9.4","2","1","","","No","No","","828 Hall St","Homestead","15120","PA","USA","40.408054","-79.89621"
"https://www.zillow.com/homedetails/Railroad-St-Coulters-PA-15028/246264514_zpid/","","","18605","19500","1474","23700","01/17/2023","","","","0.46","acres","40521.69","","","","","No","No","","Railroad St","Coulters","15028","PA","USA","40.29927","-79.80483"
"https://www.zillow.com/homedetails/233-E-15th-Ave-Homestead-PA-15120/11293106_zpid/","","","17000","","1099","21900","01/13/2023","1292","sqft","13.16","2200","sqft","7.73","2","1","","","No","No","","233 E 15th Ave","Homestead","15120","PA","USA","40.403435","-79.904854"
"https://www.zillow.com/homedetails/612-E-Main-St-Pittsburgh-PA-15112/2065761561_zpid/","","","22000","","1398","","01/13/2023","2200","sqft","10","1637.86","sqft","13.43","4","4","","Michael Cowan","No","No","","612 E Main St","Pittsburgh","15112","PA","USA","40.44077","-80.0363"
"https://www.zillow.com/homedetails/10-Court-Pl-Mc-Kees-Rocks-PA-15136/164685160_zpid/","","","21352","","1205","11900","01/10/2023","","","","4896","sqft","4.36","","","","","No","No","","10 Court Pl","Mc Kees Rocks","15136","PA","USA","40.47937","-80.090225"
"https://www.zillow.com/homedetails/1113-Barbara-Ave-Duquesne-PA-15110/11424378_zpid/","","","22000","23100","1195","24100","01/06/2023","1176","sqft","18.71","2477","sqft","8.88","3","1","","","No","No","","1113 Barbara Ave","Duquesne","15110","PA","USA","40.36744","-79.852936"
"https://www.zillow.com/homedetails/1431-Woodland-Ave-Pittsburgh-PA-15212/11492864_zpid/","","","18000","","1285","91400","01/06/2023","3055","sqft","5.89","2425","sqft","7.42","3","1","","","No","No","","1431 Woodland Ave","Pittsburgh","15212","PA","USA","40.468365","-80.03281"
"https://www.zillow.com/homedetails/1156-South-Ave-Pittsburgh-PA-15221/11380332_zpid/","","","23550","89200","1050","15000","01/05/2023","1014","sqft","23.22","791","sqft","29.77","2","1","","","No","No","","1156 South Ave","Pittsburgh","15221","PA","USA","40.438797","-79.87621"
"https://www.zillow.com/homedetails/4061-Liberty-Ave-Pittsburgh-PA-15224/11514924_zpid/","","","18667","319500","1996","83000","01/05/2023","1984","sqft","9.41","2000","sqft","9.33","4","2","","","No","No","","4061 Liberty Ave","Pittsburgh","15224","PA","USA","40.46343","-79.954865"
"https://www.zillow.com/homedetails/403-Moore-Ave-Pittsburgh-PA-15210/11435777_zpid/","","","20119","","1300","15000","01/04/2023","1589","sqft","12.66","3184.24","sqft","6.32","3","1","","Jennifer Cash Wade","No","No","","403 Moore Ave","Pittsburgh","15210","PA","USA","40.412415","-79.99519"
"https://www.zillow.com/homedetails/17-Arnold-St-Pittsburgh-PA-15205/11476070_zpid/","","","19000","","1712","57000","01/04/2023","1924","sqft","9.88","5000","sqft","3.8","4","2","","","No","No","","17 Arnold St","Pittsburgh","15205","PA","USA","40.440533","-80.05244"
"https://www.zillow.com/homedetails/1627-Lynn-Ave-Turtle-Creek-PA-15145/11536044_zpid/","","","17000","","1046","28100","01/04/2023","1024","sqft","16.6","6879","sqft","2.47","2","1","","","No","No","","1627 Lynn Ave","Turtle Creek","15145","PA","USA","40.407894","-79.813805"
"https://www.zillow.com/homedetails/2512-Banker-St-McKeesport-PA-15132/11501665_zpid/","","","22000","23100","893","34400","01/03/2023","1170","sqft","18.8","2500","sqft","8.8","2","1","","","No","No","","2512 Banker St","McKeesport","15132","PA","USA","40.33566","-79.8323"
"https://www.zillow.com/homedetails/521-McClintock-Ave-Pittsburgh-PA-15214/11505964_zpid/","","","20000","","1250","78300","01/03/2023","2144","sqft","9.33","3375","sqft","5.93","3","1","","","No","No","","521 McClintock Ave","Pittsburgh","15214","PA","USA","40.462585","-80.01449"
"https://www.zillow.com/homedetails/3641-Harlow-Pl-Pittsburgh-PA-15204/11592428_zpid/","","","20600","21600","1300","68700","01/03/2023","1130","sqft","18.23","5426","sqft","3.8","3","1","","","No","No","","3641 Harlow Pl","Pittsburgh","15204","PA","USA","40.45902","-80.07256"
"https://www.zillow.com/homedetails/336-W-14th-Ave-Homestead-PA-15120/11293580_zpid/","","","23500","","1400","8000","12/30/2022","1344","sqft","17.49","2613.6","sqft","8.99","3","1","","Robert Moncavage","No","No","","336 W 14th Ave","Homestead","15120","PA","USA","40.400196","-79.91014"
"https://www.zillow.com/homedetails/1707-Patterson-Ave-McKeesport-PA-15132/11462652_zpid/","","","23500","","1140","12500","12/30/2022","1540","sqft","15.26","2461.14","sqft","9.55","3","1","","John Pavlik","No","No","","1707 Patterson Ave","McKeesport","15132","PA","USA","40.341255","-79.83808"
"https://www.zillow.com/homedetails/2600-Jenny-Lind-St-McKeesport-PA-15132/11463650_zpid/","","","24000","","891","20200","12/30/2022","965","sqft","24.87","5749.92","sqft","4.17","2","1","","Cory Fast","No","No","","2600 Jenny Lind St","McKeesport","15132","PA","USA","40.338608","-79.846146"
"https://www.zillow.com/homedetails/516-Vincent-St-North-Versailles-PA-15137/11496769_zpid/","","","22000","","1234","54400","12/30/2022","1500","sqft","14.67","0.46","acres","47770.3","2","1","","","No","No","","516 Vincent St","North Versailles","15137","PA","USA","40.397423","-79.8223"
"https://www.zillow.com/homedetails/2113-Allison-St-McKeesport-PA-15132/11501562_zpid/","","","24000","103700","1300","41200","12/30/2022","","","","4791.6","sqft","5.01","3","2","","Richard Charles","No","No","","2113 Allison St","McKeesport","15132","PA","USA","40.338535","-79.83311"
"https://www.zillow.com/homedetails/1200-Glass-Run-Rd-Pittsburgh-PA-15236/164706069_zpid/","","","21666","","1650","13800","12/30/2022","","","","0.31","acres","70116.71","","","","","No","No","","1200 Glass Run Rd","Pittsburgh","15236","PA","USA","40.38952","-79.95637"
"https://www.zillow.com/homedetails/520-Marie-Ave-Pittsburgh-PA-15202/11368690_zpid/","","","16000","16800","1214","63800","12/28/2022","1376","sqft","11.63","2640","sqft","6.06","3","1","","","No","No","","520 Marie Ave","Pittsburgh","15202","PA","USA","40.503098","-80.070564"
"https://www.zillow.com/homedetails/910-Harker-St-Pittsburgh-PA-15220/11362109_zpid/","","","23500","24700","1393","35000","12/27/2022","1414","sqft","16.62","5998.21","sqft","3.92","3","2","","Libby Sosinski","No","No","","910 Harker St","Pittsburgh","15220","PA","USA","40.442142","-80.0427"
"https://www.zillow.com/homedetails/16-Erwin-St-Duquesne-PA-15110/11423565_zpid/","","","23000","24200","948","8800","12/27/2022","800","sqft","28.75","2106","sqft","10.92","2","1","","","No","No","","16 Erwin St","Duquesne","15110","PA","USA","40.372272","-79.85345"
"https://www.zillow.com/homedetails/Buckhill-Rd-Pittsburgh-PA-15237/164657347_zpid/","","","20000","","1665","8700","12/27/2022","","","","0.51","acres","39299.89","","","","","No","No","","Buckhill Rd","Pittsburgh","15237","PA","USA","40.54668","-80.044815"
"https://www.zillow.com/homedetails/628-Southern-Ave-Penn-Hills-PA-15235/11416699_zpid/","","","20000","86200","1117","46600","12/20/2022","825","sqft","24.24","7500","sqft","2.67","2","1","","","No","No","","628 Southern Ave","Penn Hills","15235","PA","USA","40.456886","-79.85179"
"https://www.zillow.com/homedetails/2300-Carson-St-McKeesport-PA-15132/11463853_zpid/","","","20000","21000","950","30900","12/19/2022","1056","sqft","18.94","5786","sqft","3.46","2","1","","","No","No","","2300 Carson St","McKeesport","15132","PA","USA","40.336903","-79.837425"
"https://www.zillow.com/homedetails/304-Rochelle-St-Pittsburgh-PA-15210/11316889_zpid/","","","23000","24200","1400","49000","12/16/2022","1651","sqft","13.93","3301.85","sqft","6.97","3","1","","Joy Hill","No","No","","304 Rochelle St","Pittsburgh","15210","PA","USA","40.41482","-79.993355"
"https://www.zillow.com/homedetails/845-Wool-St-Duquesne-PA-15110/11424773_zpid/","","","20000","","1016","30600","12/16/2022","","","","3645","sqft","5.49","2","","","Philomena Gross","No","No","","845 Wool St","Duquesne","15110","PA","USA","40.36409","-79.850716"
"https://www.zillow.com/homedetails/2213-Harbor-St-Pittsburgh-PA-15212/11511093_zpid/","","","21100","22200","1350","48100","12/16/2022","1176","sqft","17.94","4082","sqft","5.17","2","1","","","No","No","","2213 Harbor St","Pittsburgh","15212","PA","USA","40.469475","-79.99012"
"https://www.zillow.com/homedetails/104-Wilmot-St-Duquesne-PA-15110/11423715_zpid/","","","20000","21000","1327","50400","12/15/2022","1934","sqft","10.34","6447","sqft","3.1","4","1","","","No","No","","104 Wilmot St","Duquesne","15110","PA","USA","40.36929","-79.85616"
"https://www.zillow.com/homedetails/2722-Sacramento-Ave-Pittsburgh-PA-15204/11371270_zpid/","","","22000","","1182","27900","12/14/2022","1209","sqft","18.2","2500.34","sqft","8.8","3","1","","Harriett Koedel","No","No","","2722 Sacramento Ave","Pittsburgh","15204","PA","USA","40.455666","-80.04808"
"https://www.zillow.com/homedetails/11-Crest-St-Russellton-PA-15076/11319314_zpid/","","","20000","","1048","21500","12/13/2022","646","sqft","30.96","3731","sqft","5.36","2","1","","","No","No","","11 Crest St","Russellton","15076","PA","USA","40.619453","-79.834496"
"https://www.zillow.com/homedetails/2332-Osgood-St-Pittsburgh-PA-15214/11505534_zpid/","","","20000","21000","1352","32400","12/12/2022","1360","sqft","14.71","2500","sqft","8","3","1","","","No","No","","2332 Osgood St","Pittsburgh","15214","PA","USA","40.46758","-80.007454"
"https://www.zillow.com/homedetails/8-Spring-St-Pittsburgh-PA-15209/2065534681_zpid/","","","17000","","1374","","12/12/2022","1360","sqft","12.5","1350.36","sqft","12.59","4","2","","Bill Dapper","No","No","","8 Spring St","Pittsburgh","15209","PA","USA","40.479767","-79.97892"
"https://www.zillow.com/homedetails/8149-Conemaugh-St-Pittsburgh-PA-15221/11377903_zpid/","","","19700","","1134","19700","12/09/2022","900","sqft","21.89","1087","sqft","18.12","2","1","","","No","No","","8149 Conemaugh St","Pittsburgh","15221","PA","USA","40.454796","-79.882065"
"https://www.zillow.com/homedetails/230-McCutcheon-Ln-Pittsburgh-PA-15235/11415554_zpid/","","","20000","","1099","49200","12/09/2022","762","sqft","26.25","5670","sqft","3.53","2","1","","","No","No","","230 McCutcheon Ln","Pittsburgh","15235","PA","USA","40.466537","-79.8541"
"https://www.zillow.com/homedetails/2304-Lawndale-Ave-McKeesport-PA-15132/11461032_zpid/","","","18000","","1170","37700","12/09/2022","911","sqft","19.76","4094.64","sqft","4.4","3","2","","Cory Fast","No","No","","2304 Lawndale Ave","McKeesport","15132","PA","USA","40.348877","-79.849236"
"https://www.zillow.com/homedetails/705-12th-St-Elizabeth-PA-15037/11288852_zpid/","","","22000","23200","1077","28100","12/07/2022","1290","sqft","17.05","3600","sqft","6.11","3","1","","","No","No","","705 12th St","Elizabeth","15037","PA","USA","40.2663","-79.88627"
"https://www.zillow.com/homedetails/442-Swissvale-Ave-Pittsburgh-PA-15221/11380736_zpid/","","","17000","","1469","28000","12/05/2022","1605","sqft","10.59","4765.46","sqft","3.57","3","1","","Billy Burleson","No","No","","442 Swissvale Ave","Pittsburgh","15221","PA","USA","40.436573","-79.88035"
"https://www.zillow.com/homedetails/191-Penn-Ave-Pittsburgh-PA-15210/11436140_zpid/","","","20000","","1425","17000","12/02/2022","1665","sqft","12.01","4430.05","sqft","4.51","4","2","","Bryan Reilly","No","No","","191 Penn Ave","Pittsburgh","15210","PA","USA","40.41374","-79.98366"
"https://www.zillow.com/homedetails/600-Jones-Ave-Braddock-PA-15104/11422104_zpid/","","","19000","250000","1300","46800","11/30/2022","3358","sqft","5.66","7448.76","sqft","2.55","6","4","","","No","No","","600 Jones Ave","Braddock","15104","PA","USA","40.403378","-79.862495"
"https://www.zillow.com/homedetails/655-3rd-St-Pitcairn-PA-15140/11602341_zpid/","","","21000","22100","1150","18600","11/28/2022","1560","sqft","13.46","2600.53","sqft","8.08","3","2","","Selena Schiller","No","No","","655 3rd St","Pitcairn","15140","PA","USA","40.403595","-79.77504"
"https://www.zillow.com/homedetails/242-E-19th-Ave-Homestead-PA-15120/11293921_zpid/","","","18500","19500","1099","18500","11/25/2022","1155","sqft","16.02","2200","sqft","8.41","2","1","","","No","No","","242 E 19th Ave","Homestead","15120","PA","USA","40.40083","-79.90111"
"https://www.zillow.com/homedetails/743-Reed-St-Clairton-PA-15025/11633385_zpid/","","","21000","","1096","34900","11/23/2022","728","sqft","28.85","5280","sqft","3.98","3","1","","","No","No","","743 Reed St","Clairton","15025","PA","USA","40.28848","-79.879524"
"https://www.zillow.com/homedetails/Oak-Rd-Pittsburgh-PA-15239/164215314_zpid/","","","22000","","1083","12800","11/22/2022","","","","0.91","acres","24244.08","","","","","No","No","","Oak Rd","Pittsburgh","15239","PA","USA","40.500614","-79.72342"
"https://www.zillow.com/homedetails/521-Sunnyside-Ave-East-Pittsburgh-PA-15112/11458741_zpid/","","","21000","22100","974","23200","11/21/2022","782","sqft","26.85","2260","sqft","9.29","2","1","","","No","No","","521 Sunnyside Ave","East Pittsburgh","15112","PA","USA","40.39448","-79.84058"
"https://www.zillow.com/homedetails/304-Sloan-St-Pittsburgh-PA-15204/11482445_zpid/","","","17500","","999","45600","11/21/2022","1457","sqft","12.01","3000","sqft","5.83","2","1","","","No","No","","304 Sloan St","Pittsburgh","15204","PA","USA","40.462296","-80.05237"
"https://www.zillow.com/homedetails/1-Neville-Ave-Mc-Kees-Rocks-PA-15136/2061263067_zpid/","","","16000","","1032","","11/18/2022","","","","4342.93","sqft","3.68","2","","","Christopher Schneider","No","No","","1 Neville Ave","Mc Kees Rocks","15136","PA","USA","40.489067","-80.08002"
"https://www.zillow.com/homedetails/78-Glenn-Way-Mc-Kees-Rocks-PA-15136/11265198_zpid/","","","18055","","1099","23800","11/17/2022","1308","sqft","13.8","4812","sqft","3.75","2","1","","","No","No","","78 Glenn Way","Mc Kees Rocks","15136","PA","USA","40.48933","-80.07911"
"https://www.zillow.com/homedetails/53-Orphan-St-Pittsburgh-PA-15206/11284330_zpid/","","","20000","21100","1497","27100","11/17/2022","1972","sqft","10.14","5564","sqft","3.59","3","1","","","No","No","","53 Orphan St","Pittsburgh","15206","PA","USA","40.46876","-79.910126"
"https://www.zillow.com/homedetails/4404-Kennywood-Blvd-West-Mifflin-PA-15122/11386357_zpid/","","","20000","21100","950","28100","11/15/2022","640","sqft","31.25","3300","sqft","6.06","1","1","","","No","No","","4404 Kennywood Blvd","West Mifflin","15122","PA","USA","40.38981","-79.86884"
"https://www.zillow.com/homedetails/225-E-14th-Ave-Homestead-PA-15120/11293218_zpid/","","","20000","48200","957","7800","11/14/2022","978","sqft","20.45","1703.2","sqft","11.74","2","1","","","No","No","","225 E 14th Ave","Homestead","15120","PA","USA","40.403973","-79.90573"
"https://www.zillow.com/homedetails/Red-Mud-Hollow-Rd-Sewickley-PA-15143/246259666_zpid/","","","20000","","2258","4700","11/14/2022","","","","0.6","acres","33411.31","","","","","No","No","","Red Mud Hollow Rd","Sewickley","15143","PA","USA","40.566498","-80.1152"
"https://www.zillow.com/homedetails/67-Pride-Rd-Pittsburgh-PA-15235/11377383_zpid/","","","23000","24300","2734","41500","11/10/2022","2446","sqft","9.4","4399.56","sqft","5.23","3","1","","Billy Burleson","No","No","","67 Pride Rd","Pittsburgh","15235","PA","USA","40.462536","-79.873825"
"https://www.zillow.com/homedetails/502-Wilson-Ave-Clairton-PA-15025/11633576_zpid/","","","22000","23200","1281","29000","11/09/2022","1803","sqft","12.2","5000","sqft","4.4","3","1.5","","","No","No","","502 Wilson Ave","Clairton","15025","PA","USA","40.296154","-79.884766"
"https://www.zillow.com/homedetails/Roy-St-Sutersville-PA-15083/245290967_zpid/","","","19000","","1200","19800","11/09/2022","","","","0.86","acres","21975.47","","","","","No","No","","Roy St","Sutersville","15083","PA","USA","40.241203","-79.81137"
"https://www.zillow.com/homedetails/2604-Jenny-Lind-St-McKeesport-PA-15132/11463652_zpid/","","","18000","","882","21100","11/08/2022","1146","sqft","15.71","2962.08","sqft","6.08","2","1","","Jason Mazzei","No","No","","2604 Jenny Lind St","McKeesport","15132","PA","USA","40.338623","-79.845924"
"https://www.zillow.com/homedetails/37-Pine-St-Natrona-Heights-PA-15065/11302401_zpid/","","","16500","","1300","25500","11/07/2022","1890","sqft","8.73","2500.34","sqft","6.6","3","2","","","No","No","","37 Pine St","Natrona Heights","15065","PA","USA","40.611153","-79.723526"
"https://www.zillow.com/homedetails/1914-Evans-Ave-McKeesport-PA-15132/11465066_zpid/","","","15229","","1090","9700","11/07/2022","1637","sqft","9.3","3210","sqft","4.74","3","1","","","No","No","","1914 Evans Ave","McKeesport","15132","PA","USA","40.338135","-79.85048"
"https://www.zillow.com/homedetails/1342-Paulson-Ave-Pittsburgh-PA-15206/11337692_zpid/","","","20119","","1533","29800","11/04/2022","1232","sqft","16.33","3123.25","sqft","6.44","4","2","","Kathy Armstrong","No","No","","1342 Paulson Ave","Pittsburgh","15206","PA","USA","40.46934","-79.89911"
"https://www.zillow.com/homedetails/450-Ohio-Ave-Clairton-PA-15025/11576246_zpid/","","","22000","","950","26800","11/04/2022","800","sqft","27.5","2992.57","sqft","7.35","2","1","","Long Pham","No","No","","450 Ohio Ave","Clairton","15025","PA","USA","40.3108","-79.898186"
"https://www.zillow.com/homedetails/Fernhurst-Ave-Coraopolis-PA-15108/164361481_zpid/","","","20000","","1099","19800","11/03/2022","","","","0.58","acres","34533.06","","","","","No","No","","Fernhurst Ave","Coraopolis","15108","PA","USA","40.504047","-80.15371"
"https://www.zillow.com/homedetails/832-Hall-St-Homestead-PA-15120/11346281_zpid/","","","20000","21100","1099","8500","10/31/2022","1124","sqft","17.79","4008","sqft","4.99","2","1","","","No","No","","832 Hall St","Homestead","15120","PA","USA","40.407913","-79.89618"
"https://www.zillow.com/homedetails/2608-Stewart-St-McKeesport-PA-15132/11462320_zpid/","","","18000","","1280","35000","10/28/2022","1889","sqft","9.53","5000.69","sqft","3.6","6","2","","Melissa Vogel","No","No","","2608 Stewart St","McKeesport","15132","PA","USA","40.34268","-79.8462"
"https://www.zillow.com/homedetails/92-Highland-Ave-Mc-Kees-Rocks-PA-15136/11599419_zpid/","","","20000","21100","1084","41800","10/28/2022","","","","1800","sqft","11.11","3","1","","Vicky Chang","No","No","","92 Highland Ave","Mc Kees Rocks","15136","PA","USA","40.47295","-80.06897"
"https://www.zillow.com/homedetails/424-Mifflin-Rd-Pittsburgh-PA-15207/11640744_zpid/","","","19500","20600","2199","25000","10/28/2022","","","","2744.28","sqft","7.11","4","3","","Lisa Gasperoni","No","No","","424 Mifflin Rd","Pittsburgh","15207","PA","USA","40.386856","-79.932175"
"https://www.zillow.com/homedetails/637-Paulson-Ave-Pittsburgh-PA-15206/11284756_zpid/","","","17500","","1194","17100","10/27/2022","672","sqft","26.04","4880","sqft","3.59","2","1","","","No","No","","637 Paulson Ave","Pittsburgh","15206","PA","USA","40.46558","-79.90936"
"https://www.zillow.com/homedetails/154-Lincoln-Ave-Homestead-PA-15120/11347648_zpid/","","","20000","","1194","51700","10/26/2022","1","sqft","20000","5908","sqft","3.39","","","","","No","No","","154 Lincoln Ave","Homestead","15120","PA","USA","40.39976","-79.889824"
"https://www.zillow.com/homedetails/129-Calhoun-Ave-Pittsburgh-PA-15210/11437534_zpid/","","","23000","24300","1112","51900","10/26/2022","984","sqft","23.37","6257","sqft","3.68","2","1","","","No","No","","129 Calhoun Ave","Pittsburgh","15210","PA","USA","40.405903","-79.98791"
"https://www.zillow.com/homedetails/1406-Hamilton-St-McKeesport-PA-15132/11462555_zpid/","","","22000","","1300","11700","10/25/2022","1478","sqft","14.88","2860","sqft","7.69","4","1","","","No","No","","1406 Hamilton St","McKeesport","15132","PA","USA","40.343407","-79.844536"
"https://www.zillow.com/homedetails/1506-Wesley-St-McKeesport-PA-15132/11462846_zpid/","","","21000","","1117","46000","10/25/2022","1122","sqft","18.72","5767","sqft","3.64","2","1","","","No","No","","1506 Wesley St","McKeesport","15132","PA","USA","40.343075","-79.834915"
"https://www.zillow.com/homedetails/142-Newburn-Ave-Pittsburgh-PA-15227/11304375_zpid/","","","20606","154100","1421","52500","10/21/2022","1980","sqft","10.41","5166","sqft","3.99","5","2","","","No","No","","142 Newburn Ave","Pittsburgh","15227","PA","USA","40.381645","-79.98113"
"https://www.zillow.com/homedetails/21-N-5th-St-Duquesne-PA-15110/11423238_zpid/","","","22500","","1394","33200","10/21/2022","2065","sqft","10.9","4530.24","sqft","4.97","4","2","","Ryan Shedlock","No","No","","21 N 5th St","Duquesne","15110","PA","USA","40.37295","-79.851036"
"https://www.zillow.com/homedetails/353-Baldwin-Rd-Pittsburgh-PA-15207/11640591_zpid/","","","24000","","1450","87500","10/21/2022","1624","sqft","14.78","0.26","acres","93167.7","3","1","","Dana Rowell","No","No","","353 Baldwin Rd","Pittsburgh","15207","PA","USA","40.388348","-79.93232"
"https://www.zillow.com/homedetails/345-Sylvania-Ave-Pittsburgh-PA-15210/11324537_zpid/","","","20000","","1534","19000","10/19/2022","2411","sqft","8.3","6477","sqft","3.09","4","1","","","No","No","","345 Sylvania Ave","Pittsburgh","15210","PA","USA","40.417645","-80.00059"
"https://www.zillow.com/homedetails/40-Bridge-St-Pittsburgh-PA-15223/11333108_zpid/","","","20000","21100","1250","27400","10/17/2022","960","sqft","20.83","1023","sqft","19.55","2","1","","","No","No","","40 Bridge St","Pittsburgh","15223","PA","USA","40.497017","-79.942604"
"https://www.zillow.com/homedetails/209-Wall-Ave-Wall-PA-15148/11572438_zpid/","","","24900","102100","916","25100","10/12/2022","","","","1742.4","sqft","14.29","4","2","","Lori Maffeo","No","No","","209 Wall Ave","Wall","15148","PA","USA","40.3931","-79.79887"
"https://www.zillow.com/homedetails/83-Spruce-St-Natrona-Heights-PA-15065/11302232_zpid/","","","20000","","1150","13300","10/11/2022","1660","sqft","12.05","2500","sqft","8","4","2","","","No","No","","83 Spruce St","Natrona Heights","15065","PA","USA","40.612724","-79.72496"
"https://www.zillow.com/homedetails/29-Lafferty-Ave-Pittsburgh-PA-15210/11324310_zpid/","","","24000","","1704","24000","10/11/2022","1560","sqft","15.38","2640","sqft","9.09","4","2","","","No","No","","29 Lafferty Ave","Pittsburgh","15210","PA","USA","40.417404","-80.009"
"https://www.zillow.com/homedetails/204-Jucunda-St-Pittsburgh-PA-15210/11316292_zpid/","","","21000","","1634","29300","10/07/2022","2024","sqft","10.38","2500","sqft","8.4","4","2","","","No","No","","204 Jucunda St","Pittsburgh","15210","PA","USA","40.41713","-79.99128"
"https://www.zillow.com/homedetails/124-Irwin-St-Mc-Kees-Rocks-PA-15136/11594301_zpid/","","","18350","19400","982","21800","10/07/2022","1088","sqft","16.87","1306.8","sqft","14.04","2","1","","Kathy Armstrong","No","No","","124 Irwin St","Mc Kees Rocks","15136","PA","USA","40.470097","-80.06763"
"https://www.zillow.com/homedetails/4288-Hochberg-Rd-Pittsburgh-PA-15235/11415456_zpid/","","","16119","17000","1631","80200","10/06/2022","1693","sqft","9.52","0.34","acres","46812.7","3","2","","","No","No","","4288 Hochberg Rd","Pittsburgh","15235","PA","USA","40.466747","-79.86307"
"https://www.zillow.com/homedetails/Herbst-Rd-Coraopolis-PA-15108/164591962_zpid/","","","20000","","1098","35400","10/06/2022","","","","0.36","acres","56337.3","","","","","No","No","","Herbst Rd","Coraopolis","15108","PA","USA","40.494183","-80.1174"
"https://www.zillow.com/homedetails/66-Walnut-St-Natrona-Heights-PA-15065/11302325_zpid/","","","20000","21100","904","20300","10/05/2022","1281","sqft","15.61","3750","sqft","5.33","2","1","","","No","No","","66 Walnut St","Natrona Heights","15065","PA","USA","40.612743","-79.724106"
"https://www.zillow.com/homedetails/5121-Blair-St-Pittsburgh-PA-15207/11550614_zpid/","","","20000","","1200","28100","10/04/2022","1296","sqft","15.43","1331","sqft","15.03","2","1","","","No","No","","5121 Blair St","Pittsburgh","15207","PA","USA","40.40593","-79.94607"
"https://www.zillow.com/homedetails/680-Division-St-Wall-PA-15148/11602493_zpid/","","","20000","21100","983","31400","10/04/2022","1184","sqft","16.89","2500","sqft","8","2","1","","","No","No","","680 Division St","Wall","15148","PA","USA","40.394417","-79.778015"
"https://www.zillow.com/homedetails/1220-Ravine-St-McKeesport-PA-15132/11464256_zpid/","","","24900","93200","854","22900","09/30/2022","1482","sqft","16.8","1258.88","sqft","19.78","3","1","","Cory Fast","No","No","","1220 Ravine St","McKeesport","15132","PA","USA","40.345955","-79.85268"
"https://www.zillow.com/homedetails/4288-Hochberg-Road-Ext-Pittsburgh-PA-15235/2061827664_zpid/","","","16119","","1298","","09/30/2022","","","","2178","sqft","7.4","3","2","","Jeffrey Walker","No","No","","4288 Hochberg Road Ext","Pittsburgh","15235","PA","USA","40.46683","-79.86298"
"https://www.zillow.com/homedetails/410-Nicholas-St-Pittsburgh-PA-15210/11436771_zpid/","","","23500","","1457","59900","09/29/2022","1225","sqft","19.18","5684","sqft","4.13","3","2","","","No","No","","410 Nicholas St","Pittsburgh","15210","PA","USA","40.41009","-79.98362"
"https://www.zillow.com/homedetails/624-Archer-St-McKeesport-PA-15132/11465198_zpid/","","","16000","","995","24000","09/29/2022","1104","sqft","14.49","2750","sqft","5.82","2","1","","","No","No","","624 Archer St","McKeesport","15132","PA","USA","40.345497","-79.87807"
"https://www.zillow.com/homedetails/738-N-Beatty-St-Pittsburgh-PA-15206/11622948_zpid/","","","24742","","2139","68000","09/27/2022","2243","sqft","11.03","1900","sqft","13.02","4","2","","","No","No","","738 N Beatty St","Pittsburgh","15206","PA","USA","40.469368","-79.92211"
"https://www.zillow.com/homedetails/1103-Heberton-St-Pittsburgh-PA-15206/11282810_zpid/","","","20000","590000","3442","302600","09/23/2022","2714","sqft","7.37","3389","sqft","5.9","4","2","","","No","No","","1103 Heberton St","Pittsburgh","15206","PA","USA","40.47345","-79.915245"
"https://www.zillow.com/homedetails/2110-Brent-St-Pittsburgh-PA-15210/11308921_zpid/","","","20000","21100","1200","19200","09/23/2022","1024","sqft","19.53","3125","sqft","6.4","2","1","","","No","No","","2110 Brent St","Pittsburgh","15210","PA","USA","40.41543","-79.977325"
"https://www.zillow.com/homedetails/2606-Kansas-St-McKeesport-PA-15132/11502539_zpid/","","","16000","","895","57400","09/23/2022","1901","sqft","8.42","3333","sqft","4.8","2","1","","","No","No","","2606 Kansas St","McKeesport","15132","PA","USA","40.334866","-79.836464"
"https://www.zillow.com/homedetails/2501-Rockwood-St-McKeesport-PA-15132/11502233_zpid/","","","20000","","851","29900","09/22/2022","1056","sqft","18.94","1688","sqft","11.85","2","1","","","No","No","","2501 Rockwood St","McKeesport","15132","PA","USA","40.335564","-79.84819"
"https://www.zillow.com/homedetails/1047-Stoneville-St-Pittsburgh-PA-15221/11377476_zpid/","","","18000","19000","1200","17600","09/19/2022","945","sqft","19.05","3750.52","sqft","4.8","2","1","","Bradley Cohen","No","No","","1047 Stoneville St","Pittsburgh","15221","PA","USA","40.458027","-79.88008"
"https://www.zillow.com/homedetails/3305-Garbett-St-McKeesport-PA-15132/11462654_zpid/","","","24000","","1240","22000","09/19/2022","1040","sqft","23.08","3001.28","sqft","8","3","2","","Ryan Shedlock","No","No","","3305 Garbett St","McKeesport","15132","PA","USA","40.342445","-79.8388"
"https://www.zillow.com/homedetails/1916-Grandview-Ave-McKeesport-PA-15132/11463552_zpid/","","","24000","","1205","37900","09/16/2022","1080","sqft","22.22","3001.28","sqft","8","3","1","","Clint Boling","No","No","","1916 Grandview Ave","McKeesport","15132","PA","USA","40.339466","-79.83683"
"https://www.zillow.com/homedetails/128-Card-Ave-Wilmerding-PA-15148/11536834_zpid/","","","20000","21100","1281","35400","09/16/2022","1950","sqft","10.26","6098.4","sqft","3.28","4","1","","Michael Wicker","No","No","","128 Card Ave","Wilmerding","15148","PA","USA","40.392365","-79.8121"
"https://www.zillow.com/homedetails/212-Merry-Dr-Verona-PA-15147/11567418_zpid/","","","18500","","1264","42900","09/16/2022","1476","sqft","12.53","1.5","acres","12349.8","2","","","Kevin Shaner","No","No","","212 Merry Dr","Verona","15147","PA","USA","40.49719","-79.79397"
"https://www.zillow.com/homedetails/3047-Santiago-Rd-Imperial-PA-15126/59845263_zpid/","","","20000","","1018","39100","09/13/2022","836","sqft","23.92","0.97","acres","20708.34","2","1","","","No","No","","3047 Santiago Rd","Imperial","15126","PA","USA","40.445087","-80.26085"
"https://www.zillow.com/homedetails/1401-Freemont-St-McKeesport-PA-15132/11461945_zpid/","","","24000","","1200","24400","09/12/2022","1336","sqft","17.96","3720","sqft","6.45","3","1","","","No","No","","1401 Freemont St","McKeesport","15132","PA","USA","40.343616","-79.84196"
"https://www.zillow.com/homedetails/3427-Gleason-St-McKeesport-PA-15132/11463469_zpid/","","","24000","","1150","30400","09/12/2022","1184","sqft","20.27","2500","sqft","9.6","3","1.5","","","No","No","","3427 Gleason St","McKeesport","15132","PA","USA","40.340546","-79.83734"
"https://www.zillow.com/homedetails/2406-Cleveland-St-McKeesport-PA-15132/11463922_zpid/","","","24000","","1213","19900","09/12/2022","1400","sqft","17.14","2500","sqft","9.6","3","1","","","No","No","","2406 Cleveland St","McKeesport","15132","PA","USA","40.336502","-79.83343"
"https://www.zillow.com/homedetails/901-Pineview-Dr-Elizabeth-PA-15037/11356284_zpid/","","","20000","28200","1375","71500","09/09/2022","1624","sqft","12.32","3","acres","6666.67","4","1","","","No","No","","901 Pineview Dr","Elizabeth","15037","PA","USA","40.225086","-79.8294"
"https://www.zillow.com/homedetails/1150-Thompson-Run-Rd-West-Mifflin-PA-15122/11390359_zpid/","","","20000","202500","1581","108000","09/08/2022","1482","sqft","13.5","0.63","acres","31746.96","3","1.5","","","No","No","","1150 Thompson Run Rd","West Mifflin","15122","PA","USA","40.36148","-79.90474"
"https://www.zillow.com/homedetails/269-Seneca-St-Turtle-Creek-PA-15145/11457500_zpid/","","","21000","22100","1194","12600","09/06/2022","1328","sqft","15.81","7296.3","sqft","2.88","2","1","","Libby Sosinski","No","No","","269 Seneca St","Turtle Creek","15145","PA","USA","40.408833","-79.832954"
"https://www.zillow.com/homedetails/3109-Hamlet-St-Pittsburgh-PA-15213/11413186_zpid/","","","22500","","1242","56400","09/02/2022","890","sqft","25.28","1176","sqft","19.13","2","1","","","No","No","","3109 Hamlet St","Pittsburgh","15213","PA","USA","40.434746","-79.96367"
"https://www.zillow.com/homedetails/920-Glass-Run-Rd-Pittsburgh-PA-15236/11642364_zpid/","","","20000","","1392","80200","08/26/2022","1057","sqft","18.92","0.48","acres","41467.94","2","1","","","No","No","","920 Glass Run Rd","Pittsburgh","15236","PA","USA","40.388054","-79.964005"
"https://www.zillow.com/homedetails/1109-Blackadore-St-Pittsburgh-PA-15221/11339679_zpid/","","","18762","","1550","23900","08/23/2022","1536","sqft","12.21","4103","sqft","4.57","5","1.5","","","No","No","","1109 Blackadore St","Pittsburgh","15221","PA","USA","40.459713","-79.883934"
"https://www.zillow.com/homedetails/22-Highland-Ave-Mc-Kees-Rocks-PA-15136/11599395_zpid/","","","18200","117200","1364","62800","08/23/2022","1444","sqft","12.6","2443","sqft","7.45","3","1.5","","","No","No","","22 Highland Ave","Mc Kees Rocks","15136","PA","USA","40.4736","-80.06638"
"https://www.zillow.com/homedetails/2592-Douglas-Run-Rd-Elizabeth-PA-15037/11336920_zpid/","","","23500","102200","900","59900","08/19/2022","784","sqft","29.97","0.35","acres","67142.86","2","1","","Robert Moncavage","No","No","","2592 Douglas Run Rd","Elizabeth","15037","PA","USA","40.235474","-79.81873"
"https://www.zillow.com/homedetails/126-Division-Ave-Clairton-PA-15025/11604876_zpid/","","","20000","","1185","40400","08/19/2022","1194","sqft","16.75","9440","sqft","2.12","3","1","","","No","No","","126 Division Ave","Clairton","15025","PA","USA","40.3062","-79.88773"
"https://www.zillow.com/homedetails/5025-Langhorn-St-Pittsburgh-PA-15207/11550315_zpid/","","","17500","","1050","8800","08/17/2022","840","sqft","20.83","1113","sqft","15.72","2","1","","","No","No","","5025 Langhorn St","Pittsburgh","15207","PA","USA","40.406902","-79.9477"
"https://www.zillow.com/homedetails/568-3rd-St-Clairton-PA-15025/11633099_zpid/","","","20000","21100","1061","18700","08/17/2022","925","sqft","21.62","3300","sqft","6.06","3","1","","","No","No","","568 3rd St","Clairton","15025","PA","USA","40.292492","-79.88151"
"https://www.zillow.com/homedetails/1531-Saturn-Way-Pittsburgh-PA-15212/11387880_zpid/","","","20000","","1685","71400","08/12/2022","907","sqft","22.05","632","sqft","31.65","3","2","","","No","No","","1531 Saturn Way","Pittsburgh","15212","PA","USA","40.458393","-80.01192"
"https://www.zillow.com/homedetails/243-Industry-Rd-Buena-Vista-PA-15018/11264652_zpid/","","","20000","21000","852","25100","08/11/2022","","","","3005.64","sqft","6.65","2","1","","Richard Charles","No","No","","243 Industry Rd","Buena Vista","15018","PA","USA","40.271294","-79.79663"
"https://www.zillow.com/homedetails/524-Pacific-Ave-McKeesport-PA-15132/11426074_zpid/","","","18000","18900","996","18700","08/09/2022","1142","sqft","15.76","3600","sqft","5","2","1","","","No","No","","524 Pacific Ave","McKeesport","15132","PA","USA","40.34872","-79.87932"
"https://www.zillow.com/homedetails/42-Bridge-St-Pittsburgh-PA-15223/11333109_zpid/","","","17000","","1250","27200","08/01/2022","960","sqft","17.71","998","sqft","17.03","2","1","","","No","No","","42 Bridge St","Pittsburgh","15223","PA","USA","40.496998","-79.94256"
"https://www.zillow.com/homedetails/242-Hogans-Way-Carnegie-PA-15106/11253241_zpid/","","","24000","","1294","62700","07/28/2022","1010","sqft","23.76","5000","sqft","4.8","1","1.5","","","No","No","","242 Hogans Way","Carnegie","15106","PA","USA","40.392277","-80.09786"
"https://www.zillow.com/homedetails/3102-Frederick-St-Pittsburgh-PA-15212/11606241_zpid/","","","24000","","1250","37000","07/28/2022","896","sqft","26.79","2832","sqft","8.47","1","1.5","","","No","No","","3102 Frederick St","Pittsburgh","15212","PA","USA","40.47353","-80.03063"
"https://www.zillow.com/homedetails/617-Sickles-St-Pittsburgh-PA-15221/11340788_zpid/","","","18000","","1300","24400","07/22/2022","1336","sqft","13.47","8712","sqft","2.07","2","1","","Mike Fink","No","No","","617 Sickles St","Pittsburgh","15221","PA","USA","40.451847","-79.88288"
"https://www.zillow.com/homedetails/736-7th-St-Pitcairn-PA-15140/11601882_zpid/","","","20000","","1069","12600","07/18/2022","1168","sqft","17.12","2333","sqft","8.57","2","1","","","No","No","","736 7th St","Pitcairn","15140","PA","USA","40.405384","-79.772896"
"https://www.zillow.com/homedetails/2519-Jenny-Lind-St-McKeesport-PA-15132/11463036_zpid/","","","17500","18400","1092","24100","07/15/2022","1380","sqft","12.68","2874.96","sqft","6.09","5","1","","Ryan Shedlock","No","No","","2519 Jenny Lind St","McKeesport","15132","PA","USA","40.33896","-79.846466"
"https://www.zillow.com/homedetails/50-Walnut-St-Natrona-Heights-PA-15065/11302331_zpid/","","","23000","24100","1251","18100","07/11/2022","2112","sqft","10.89","3750.52","sqft","6.13","3","","","Robert Singer","No","No","","50 Walnut St","Natrona Heights","15065","PA","USA","40.61234","-79.72344"
"https://www.zillow.com/homedetails/120-Tarragonna-St-Pittsburgh-PA-15210/11436194_zpid/","","","20000","21000","1194","22000","06/30/2022","1364","sqft","14.66","2550","sqft","7.84","2","1","","","No","No","","120 Tarragonna St","Pittsburgh","15210","PA","USA","40.409477","-79.99704"
"https://www.zillow.com/homedetails/124-E-19th-Ave-Homestead-PA-15120/11293900_zpid/","","","18000","243700","1250","49700","06/28/2022","1511","sqft","11.91","3301.85","sqft","5.45","3","2","","","No","No","","124 E 19th Ave","Homestead","15120","PA","USA","40.399723","-79.903305"
"https://www.zillow.com/homedetails/711-Garden-St-White-Oak-PA-15131/11499717_zpid/","","","20501","","817","43000","06/28/2022","936","sqft","21.9","0.41","acres","49612.42","1","1","","","No","No","","711 Garden St","White Oak","15131","PA","USA","40.361366","-79.81979"
"https://www.zillow.com/homedetails/3836-Desota-Ave-McKeesport-PA-15132/11500468_zpid/","","","23000","","1200","27800","06/28/2022","1344","sqft","17.11","3001.28","sqft","7.66","3","1","","Dana Pavlik","No","No","","3836 Desota Ave","McKeesport","15132","PA","USA","40.35106","-79.832794"
"https://www.zillow.com/homedetails/492-Campbell-St-Pittsburgh-PA-15221/11381331_zpid/","","","20000","21000","1296","40900","06/27/2022","1860","sqft","10.75","1999.4","sqft","10","3","1","","Rand Hudson","No","No","","492 Campbell St","Pittsburgh","15221","PA","USA","40.435604","-79.8803"
"https://www.zillow.com/homedetails/120-Stewart-Ave-Pittsburgh-PA-15227/11303741_zpid/","","","18000","","1198","47900","06/24/2022","1200","sqft","15","5806.55","sqft","3.1","2","1","","Tracy Jones","No","No","","120 Stewart Ave","Pittsburgh","15227","PA","USA","40.382538","-79.9805"
"https://www.zillow.com/homedetails/3412-Odair-St-McKeesport-PA-15132/11463994_zpid/","","","17000","","878","40300","06/23/2022","1088","sqft","15.63","1825.16","sqft","9.31","2","1","","Ryan Shedlock","No","No","","3412 Odair St","McKeesport","15132","PA","USA","40.33767","-79.836784"
"https://www.zillow.com/homedetails/197-Woodland-Dr-Pittsburgh-PA-15236/242629670_zpid/","","","16950","","1650","37700","06/23/2022","","","","8093","sqft","2.09","","","","","No","No","","197 Woodland Dr","Pittsburgh","15236","PA","USA","40.33603","-79.969246"
"https://www.zillow.com/homedetails/325-Alice-St-Pittsburgh-PA-15210/11436385_zpid/","","","20000","138700","1493","61200","06/21/2022","1818","sqft","11","3739","sqft","5.35","4","2","","","No","No","","325 Alice St","Pittsburgh","15210","PA","USA","40.410423","-79.99452"
"https://www.zillow.com/homedetails/545-Moreland-Ave-Irwin-PA-15642/10721905_zpid/","","","17000","17600","1069","6220","06/20/2022","1212","sqft","14.03","4007","sqft","4.24","2","1","","","No","No","","545 Moreland Ave","Irwin","15642","PA","USA","40.3496","-79.78295"
"https://www.zillow.com/homedetails/1411-Brinton-Rd-Pittsburgh-PA-15221/11420764_zpid/","","","17500","","1194","102800","06/17/2022","1134","sqft","15.43","6000","sqft","2.92","2","1","","","No","No","","1411 Brinton Rd","Pittsburgh","15221","PA","USA","40.421295","-79.86043"
"https://www.zillow.com/homedetails/722-East-St-McKeesport-PA-15132/11500444_zpid/","","","19000","19900","1032","16800","06/17/2022","1200","sqft","15.83","3500","sqft","5.43","2","1","","","No","No","","722 East St","McKeesport","15132","PA","USA","40.35297","-79.83236"
"https://www.zillow.com/homedetails/511-Camp-Ave-Braddock-PA-15104/11385236_zpid/","","","17362","","1195","24800","06/16/2022","1764","sqft","9.84","2390","sqft","7.26","2","1.5","","","No","No","","511 Camp Ave","Braddock","15104","PA","USA","40.40645","-79.86708"
"https://www.zillow.com/homedetails/107-Lake-Dr-Elizabeth-PA-15037/11356389_zpid/","","","20000","21000","894","36000","06/14/2022","891","sqft","22.45","0.29","acres","69352.01","2","1","","","No","No","","107 Lake Dr","Elizabeth","15037","PA","USA","40.226196","-79.85163"
"https://www.zillow.com/homedetails/130-Zewe-Aly-Duquesne-PA-15110/11423685_zpid/","","","18500","19400","974","13600","06/10/2022","850","sqft","21.76","3201","sqft","5.78","2","1","","","No","No","","130 Zewe Aly","Duquesne","15110","PA","USA","40.36816","-79.856224"
"https://www.zillow.com/homedetails/2404-Jenny-Lind-St-McKeesport-PA-15132/2064121520_zpid/","","","18000","","1069","","06/10/2022","2816","sqft","6.39","2874.96","sqft","6.26","6","3","","Ryan Shedlock","No","No","","2404 Jenny Lind St","McKeesport","15132","PA","USA","",""
"https://www.zillow.com/homedetails/313-W-13th-Ave-Homestead-PA-15120/11293697_zpid/","","","20000","20900","1234","24100","06/09/2022","1168","sqft","17.12","2199.78","sqft","9.09","2","1","","Dana Rowell","No","No","","313 W 13th Ave","Homestead","15120","PA","USA","40.40156","-79.91071"
"https://www.zillow.com/homedetails/107-Carson-St-Springdale-PA-15144/11563834_zpid/","","","20000","","874","23100","06/09/2022","864","sqft","23.15","6575","sqft","3.04","2","1","","","No","No","","107 Carson St","Springdale","15144","PA","USA","40.548977","-79.788246"
"https://www.zillow.com/homedetails/711-Garden-St-N-McKeesport-PA-15131/2064164039_zpid/","","","20501","","1128","","06/09/2022","","","","0.41","acres","50002.44","3","1","","Jeffrey Walker","No","No","","711 Garden St N","McKeesport","15131","PA","USA","",""
"https://www.zillow.com/homedetails/7129-Harrison-Ave-Pittsburgh-PA-15218/11345001_zpid/","","","16000","16700","950","33700","06/01/2022","896","sqft","17.86","794","sqft","20.15","2","1","","","No","No","","7129 Harrison Ave","Pittsburgh","15218","PA","USA","40.422577","-79.89677"
"https://www.zillow.com/homedetails/603-Viola-Ave-Duquesne-PA-15110/11423913_zpid/","","","20000","","952","8900","05/31/2022","829","sqft","24.13","1742.4","sqft","11.48","2","1","","Ryan Shedlock","No","No","","603 Viola Ave","Duquesne","15110","PA","USA","40.368885","-79.84989"
"https://www.zillow.com/homedetails/1423-Beechview-Ave-Pittsburgh-PA-15216/11444769_zpid/","","","17500","","1599","77100","05/31/2022","1956","sqft","8.95","3450","sqft","5.07","3","1.5","","","No","No","","1423 Beechview Ave","Pittsburgh","15216","PA","USA","40.41336","-80.0246"
"https://www.zillow.com/homedetails/2410-Riverview-St-McKeesport-PA-15132/11463613_zpid/","","","16000","","932","31800","05/27/2022","1487","sqft","10.76","9722.59","sqft","1.65","2","1","","Ryan Shedlock","No","No","","2410 Riverview St","McKeesport","15132","PA","USA","40.337654","-79.84809"
"https://www.zillow.com/homedetails/817-Chestnut-St-Carnegie-PA-15106/11582037_zpid/","","","20000","","1143","26200","05/24/2022","790","sqft","25.32","7468","sqft","2.68","2","1","","","No","No","","817 Chestnut St","Carnegie","15106","PA","USA","40.40775","-80.07634"
"https://www.zillow.com/homedetails/4318-Francis-St-West-Mifflin-PA-15122/11349232_zpid/","","","20000","20900","1099","36900","05/23/2022","624","sqft","32.05","8625","sqft","2.32","2","1","","","No","No","","4318 Francis St","West Mifflin","15122","PA","USA","40.387154","-79.883095"
"https://www.zillow.com/homedetails/721-Catharine-St-Duquesne-PA-15110/11459599_zpid/","","","20500","","1494","23000","05/23/2022","1251","sqft","16.39","2500","sqft","8.2","3","1.5","","","No","No","","721 Catharine St","Duquesne","15110","PA","USA","40.36627","-79.84907"
"https://www.zillow.com/homedetails/3404-Grover-Ave-McKeesport-PA-15132/11462635_zpid/","","","21500","","895","10400","05/23/2022","715","sqft","30.07","3917","sqft","5.49","2","1","","","No","No","","3404 Grover Ave","McKeesport","15132","PA","USA","40.341427","-79.83791"
"https://www.zillow.com/homedetails/4912-Dearborn-St-Pittsburgh-PA-15224/11520067_zpid/","","","20000","","1829","56200","05/23/2022","1478","sqft","13.53","3800","sqft","5.26","4","1","","","No","No","","4912 Dearborn St","Pittsburgh","15224","PA","USA","40.465836","-79.94468"
"https://www.zillow.com/homedetails/1521-Caroline-St-Natrona-Heights-PA-15065/11331924_zpid/","","","16000","","900","68400","05/18/2022","1264","sqft","12.66","4864","sqft","3.29","2","1","","","No","No","","1521 Caroline St","Natrona Heights","15065","PA","USA","40.63066","-79.72021"
"https://www.zillow.com/homedetails/1515-Glenn-St-Natrona-Heights-PA-15065/11332092_zpid/","","","16000","129500","1097","81100","05/18/2022","1344","sqft","11.9","0.29","acres","54586.47","3","1","","","No","No","","1515 Glenn St","Natrona Heights","15065","PA","USA","40.63028","-79.72228"
"https://www.zillow.com/homedetails/508-Dunn-Dr-Pittsburgh-PA-15227/11355176_zpid/","","","20000","233500","1700","124100","05/18/2022","1085","sqft","18.43","0.36","acres","55856.9","3","1.5","","","No","No","","508 Dunn Dr","Pittsburgh","15227","PA","USA","40.370758","-79.98654"
"https://www.zillow.com/homedetails/3208-Rothpletz-St-Pittsburgh-PA-15212/11606081_zpid/","","","24000","","1210","26000","05/18/2022","1296","sqft","18.52","4450","sqft","5.39","2","1","","","No","No","","3208 Rothpletz St","Pittsburgh","15212","PA","USA","40.47609","-80.026955"
"https://www.zillow.com/homedetails/517-Thompson-Ave-Clairton-PA-15025/11250346_zpid/","","","22000","","868","34100","05/12/2022","1064","sqft","20.68","5006","sqft","4.39","2","1","","","No","No","","517 Thompson Ave","Clairton","15025","PA","USA","40.286293","-79.886894"
"https://www.zillow.com/homedetails/1071-Silverdale-St-Pittsburgh-PA-15221/11377465_zpid/","","","16700","17500","1194","16700","05/11/2022","720","sqft","23.19","5000","sqft","3.34","2","1","","","No","No","","1071 Silverdale St","Pittsburgh","15221","PA","USA","40.458054","-79.88105"
"https://www.zillow.com/homedetails/323-Wilbur-St-Pittsburgh-PA-15210/11436997_zpid/","","","20000","","1394","37400","05/11/2022","1200","sqft","16.67","2500","sqft","8","3","1","","","No","No","","323 Wilbur St","Pittsburgh","15210","PA","USA","40.40845","-79.995186"
"https://www.zillow.com/homedetails/644-Curtis-St-Pittsburgh-PA-15211/11323889_zpid/","","","20000","","998","22000","05/09/2022","938","sqft","21.32","2295.61","sqft","8.71","2","1","","Shanna Funwela","No","No","","644 Curtis St","Pittsburgh","15211","PA","USA","40.4207","-80.00988"
"https://www.zillow.com/homedetails/642-Curtis-St-Pittsburgh-PA-15211/11323890_zpid/","","","20000","44500","1150","42400","05/09/2022","938","sqft","21.32","2469.85","sqft","8.1","2","1","","Shanna Funwela","No","No","","642 Curtis St","Pittsburgh","15211","PA","USA","40.420727","-80.009834"
"https://www.zillow.com/homedetails/918-Chestnut-St-Duquesne-PA-15110/11459686_zpid/","","","19500","20400","948","9000","05/09/2022","952","sqft","20.48","3249.58","sqft","6","2","1","","Tamiah Barrett","No","No","","918 Chestnut St","Duquesne","15110","PA","USA","40.364197","-79.845795"
"https://www.zillow.com/homedetails/247-Coal-Valley-Rd-Clairton-PA-15025/164665367_zpid/","","","17500","","1297","7500","05/09/2022","","","","1.75","acres","10000","","","","","No","No","","247 Coal Valley Rd","Clairton","15025","PA","USA","40.318436","-79.9158"
"https://www.zillow.com/homedetails/2712-Versailles-Ave-McKeesport-PA-15132/11461837_zpid/","","","21000","124100","1185","21700","05/06/2022","1474","sqft","14.25","6955","sqft","3.02","3","1","","","No","No","","2712 Versailles Ave","McKeesport","15132","PA","USA","40.34528","-79.84525"
"https://www.zillow.com/homedetails/1713-Duffy-Ave-Braddock-PA-15104/11458241_zpid/","","","22386","76800","1050","36400","05/05/2022","754","sqft","29.69","4945","sqft","4.53","2","1","","","No","No","","1713 Duffy Ave","Braddock","15104","PA","USA","40.400272","-79.84036"
"https://www.zillow.com/homedetails/7015-Frankstown-Ave-Pittsburgh-PA-15208/11286029_zpid/","","","20000","20900","957","16500","05/04/2022","900","sqft","22.22","3375","sqft","5.93","1","1","","","No","No","","7015 Frankstown Ave","Pittsburgh","15208","PA","USA","40.458584","-79.900276"
"https://www.zillow.com/homedetails/532-Howard-St-East-Pittsburgh-PA-15112/11458453_zpid/","","","22500","","941","18100","05/04/2022","800","sqft","28.13","1600","sqft","14.06","2","1","","","No","No","","532 Howard St","East Pittsburgh","15112","PA","USA","40.39704","-79.83965"
"https://www.zillow.com/homedetails/111-Churchill-St-Mc-Kees-Rocks-PA-15136/11487784_zpid/","","","17500","","1448","17100","05/03/2022","1918","sqft","9.12","3123.25","sqft","5.6","4","1","","Kathy Armstrong","No","No","","111 Churchill St","Mc Kees Rocks","15136","PA","USA","40.47212","-80.06226"
"https://www.zillow.com/homedetails/2808-Boyd-St-McKeesport-PA-15132/11461848_zpid/","","","24000","","890","15400","04/29/2022","896","sqft","26.79","2375","sqft","10.11","2","1","","","No","No","","2808 Boyd St","McKeesport","15132","PA","USA","40.346016","-79.84371"
"https://www.zillow.com/homedetails/2117-Bowman-Ave-McKeesport-PA-15132/11460812_zpid/","","","24000","25100","1099","13500","04/28/2022","","","","","","","2","2","","Daniel Fulmer","No","No","","2117 Bowman Ave","McKeesport","15132","PA","USA","40.35542","-79.84024"
"https://www.zillow.com/homedetails/1026-1-2-Grand-Ave-Pittsburgh-PA-15212/11606040_zpid/","","","20000","20900","1272","33000","04/27/2022","1308","sqft","15.29","3564","sqft","5.61","3","1","","","No","No","","1026 1/2 Grand Ave","Pittsburgh","15212","PA","USA","40.475246","-80.02645"
