Property URL,MLS ID,Number of days on Zillow,Property price (USD),Zestimate (USD),Rent zestimate (USD per month),Tax assessed value (USD),Sold date (MM/DD/YYYY),Living area,Living area unit,Price per living area unit (USD),Lot/land area,Lot/land area unit,Price per lot/land area unit (USD),Bedrooms,Bathrooms,Broker name,Broker agent,Is owner occupied,Property owned by Zillow,Property unit number,Street address,City,Zip,State,Country,Latitude,Longitude
"https://www.zillow.com/homedetails/108-Barbour-Dr-Pittsburgh-PA-15209/11443315_zpid/","","","327900","330400","1999","124800","10/16/2023","1325","sqft","247.47","8999.5","sqft","36.44","3","2","","Derek Eisenberg","No","No","","108 Barbour Dr","Pittsburgh","15209","PA","USA","40.52358","-79.97859"
"https://www.zillow.com/homedetails/1001-Golfview-Dr-McKeesport-PA-15135/11603354_zpid/","","","325000","325000","2063","121300","10/10/2023","1746","sqft","186.14","0.47","acres","691489.36","3","3","","Joseph Yates","No","No","","1001 Golfview Dr","McKeesport","15135","PA","USA","40.305607","-79.814926"
"https://www.zillow.com/homedetails/124-Pagoda-Dr-Monroeville-PA-15146/11283993_zpid/","","","325000","325000","2385","195500","10/06/2023","2016","sqft","161.21","0.64","acres","507812.5","4","3","","Lauren Klein","No","No","","124 Pagoda Dr","Monroeville","15146","PA","USA","40.4352","-79.70724"
"https://www.zillow.com/homedetails/115-W-Miller-Ave-Homestead-PA-15120/11295117_zpid/","","","321500","321500","1381","65200","10/06/2023","2000","sqft","160.75","2500.34","sqft","128.58","3","3","","Jesse Wig","No","No","","115 W Miller Ave","Homestead","15120","PA","USA","40.387264","-79.9032"
"https://www.zillow.com/homedetails/1335-Akehurst-Rd-Pittsburgh-PA-15220/11573724_zpid/","","","320000","320000","2935","215900","10/06/2023","2068","sqft","154.74","9705.17","sqft","32.97","4","4","","Shari Braithwaite","No","No","","1335 Akehurst Rd","Pittsburgh","15220","PA","USA","40.402878","-80.056435"
"https://www.zillow.com/homedetails/1353-Pesavento-Dr-Bridgeville-PA-15017/11399248_zpid/","","","327000","327000","2364","177600","10/02/2023","1796","sqft","182.07","0.3","acres","1087462.59","4","4","","Susan Ulam","No","No","","1353 Pesavento Dr","Bridgeville","15017","PA","USA","40.3598","-80.099335"
"https://www.zillow.com/homedetails/4721-Valleyfield-Dr-Allison-Park-PA-15101/11277417_zpid/","","","325000","325000","1900","159600","09/29/2023","1300","sqft","250","10123.34","sqft","32.1","3","2","","Joanna DeMarco","No","No","","4721 Valleyfield Dr","Allison Park","15101","PA","USA","40.600098","-79.911964"
"https://www.zillow.com/homedetails/131-Adele-Rd-Pittsburgh-PA-15237/11442244_zpid/","","","325000","325000","2014","182000","09/29/2023","1482","sqft","219.3","0.45","acres","716490.3","3","2","","Jessica Branchen","No","No","","131 Adele Rd","Pittsburgh","15237","PA","USA","40.530025","-79.996216"
"https://www.zillow.com/homedetails/2059-Hampstead-Dr-Pittsburgh-PA-15235/11454449_zpid/","","","320000","320000","2353","178000","09/29/2023","","","","0.28","acres","1136767.32","5","4","","Luann Fraicola","No","No","","2059 Hampstead Dr","Pittsburgh","15235","PA","USA","40.43577","-79.83816"
"https://www.zillow.com/homedetails/1441-W-North-Ave-Pittsburgh-PA-15233/11611639_zpid/","","","320000","320000","1164","72800","09/26/2023","","","","1014.95","sqft","315.29","3","1","","Karl Owens","No","No","","1441 W North Ave","Pittsburgh","15233","PA","USA","40.45179","-80.027115"
"https://www.zillow.com/homedetails/252-Shafer-Rd-Coraopolis-PA-15108/11553772_zpid/","","","319900","319900","1849","228400","09/25/2023","1242","sqft","257.57","0.32","acres","998127.93","3","2","","Eric McKenna","No","No","","252 Shafer Rd","Coraopolis","15108","PA","USA","40.5339","-80.211205"
"https://www.zillow.com/homedetails/1805-Ardmore-Blvd-Pittsburgh-PA-15221/11419617_zpid/","","","329000","329000","2435","142200","09/22/2023","","","","7405.2","sqft","44.43","4","4","","Maureen States","No","No","","1805 Ardmore Blvd","Pittsburgh","15221","PA","USA","40.425865","-79.86097"
"https://www.zillow.com/homedetails/245-Karen-Dr-Elizabeth-PA-15037/11658083_zpid/","","","325000","325000","1584","170000","09/22/2023","1996","sqft","162.83","9517.86","sqft","34.15","4","3","","Nichole Merrell","No","No","","245 Karen Dr","Elizabeth","15037","PA","USA","40.27815","-79.822365"
"https://www.zillow.com/homedetails/1125-King-Ave-Pittsburgh-PA-15206/11619832_zpid/","","","325000","325000","1366","88500","09/21/2023","1250","sqft","260","3000","sqft","108.33","2","1","","Julie Taylor","No","No","","1125 King Ave","Pittsburgh","15206","PA","USA","40.477074","-79.92696"
"https://www.zillow.com/homedetails/2351-Allender-Ave-Pittsburgh-PA-15220/11570308_zpid/","","","320000","320000","1883","138400","09/20/2023","1232","sqft","259.74","0.56","acres","576057.61","3","2","","Michelle Mazzarini","No","No","","2351 Allender Ave","Pittsburgh","15220","PA","USA","40.402397","-80.04749"
"https://www.zillow.com/homedetails/142-Karen-Dr-Elizabeth-PA-15037/11264918_zpid/","","","325000","325000","1687","143000","09/19/2023","","","","8712","sqft","37.3","3","2","","Richard Charles","No","No","","142 Karen Dr","Elizabeth","15037","PA","USA","40.274082","-79.82173"
"https://www.zillow.com/homedetails/2925-Elsiton-Ln-Allison-Park-PA-15101/11646318_zpid/","","","325000","325600","1999","138100","09/18/2023","1382","sqft","235.17","0.5","acres","650000","4","2","","Kevin Mihm","No","No","","2925 Elsiton Ln","Allison Park","15101","PA","USA","40.580185","-79.94272"
"https://www.zillow.com/homedetails/158-Lloyd-Ave-Pittsburgh-PA-15218/11381948_zpid/","","","325000","324900","2114","160000","09/15/2023","","","","6072","sqft","53.52","3","2","","Leo Sweeney","No","No","","158 Lloyd Ave","Pittsburgh","15218","PA","USA","40.42714","-79.88242"
"https://www.zillow.com/homedetails/949-Rita-Dr-Pittsburgh-PA-15221/11455462_zpid/","","","320000","320000","2250","118800","09/14/2023","2132","sqft","150.09","8703.29","sqft","36.77","4","3","","Maria Holzworth","No","No","","949 Rita Dr","Pittsburgh","15221","PA","USA","40.42438","-79.83904"
"https://www.zillow.com/homedetails/204-Morewood-Rd-Glenshaw-PA-15116/11486152_zpid/","","","327000","327000","2983","190300","09/13/2023","2322","sqft","140.83","0.28","acres","1186932.85","3","3","","Dan Kite","No","No","","204 Morewood Rd","Glenshaw","15116","PA","USA","40.53469","-79.97422"
"https://www.zillow.com/homedetails/120-Thornberry-Dr-Pittsburgh-PA-15235/11454653_zpid/","","","319000","319000","1982","151600","09/12/2023","1749","sqft","182.39","10127.7","sqft","31.5","3","3","","Bethany Lease","No","No","","120 Thornberry Dr","Pittsburgh","15235","PA","USA","40.431503","-79.841064"
"https://www.zillow.com/homedetails/431-Winterhill-St-Pittsburgh-PA-15226/11566167_zpid/","","","320000","319900","1999","53000","09/08/2023","2246","sqft","142.48","4321.15","sqft","74.05","4","2","","Len Dipaola","No","No","","431 Winterhill St","Pittsburgh","15226","PA","USA","40.397217","-80.02349"
"https://www.zillow.com/homedetails/5958-Dalmation-Dr-Bethel-Park-PA-15102/11607934_zpid/","","","320000","319200","1825","156400","09/08/2023","1578","sqft","202.79","0.29","acres","1103448.28","3","3","","Beverly Fusco","No","No","","5958 Dalmation Dr","Bethel Park","15102","PA","USA","40.303196","-80.03411"
"https://www.zillow.com/homedetails/12-National-Dr-Pittsburgh-PA-15236/11506917_zpid/","","","320000","319700","2405","156800","09/01/2023","2130","sqft","150.23","8398.37","sqft","38.1","3","3","","John Fincham","No","No","","12 National Dr","Pittsburgh","15236","PA","USA","40.33103","-79.95939"
"https://www.zillow.com/homedetails/5508-Mercedes-Dr-Pittsburgh-PA-15236/11507950_zpid/","","","320000","319800","2068","147600","09/01/2023","","","","0.42","acres","761904.76","3","3","","Richard Charles","No","No","","5508 Mercedes Dr","Pittsburgh","15236","PA","USA","40.334976","-79.98873"
"https://www.zillow.com/homedetails/1376-Simona-Dr-Pittsburgh-PA-15201/11275863_zpid/","","","322000","321900","1599","151800","08/31/2023","1680","sqft","191.67","4848.23","sqft","66.42","3","1","","Mark McAdams-Templeton","No","No","","1376 Simona Dr","Pittsburgh","15201","PA","USA","40.4833","-79.93653"
"https://www.zillow.com/homedetails/5667-Janet-Dr-Pittsburgh-PA-15236/11470242_zpid/","","","329000","328600","1798","236300","08/31/2023","1732","sqft","189.95","0.25","acres","1308671.44","3","2","","Diane Tatano","No","No","","5667 Janet Dr","Pittsburgh","15236","PA","USA","40.34434","-80.011"
"https://www.zillow.com/homedetails/2-Montana-St-Pittsburgh-PA-15205/11475715_zpid/","","","324900","324800","2749","101000","08/31/2023","2200","sqft","147.68","4800.31","sqft","67.68","4","4","","Daniel Demers","No","No","","2 Montana St","Pittsburgh","15205","PA","USA","40.439663","-80.06575"
"https://www.zillow.com/homedetails/2883-Abbey-Ln-South-Park-PA-15129/11606575_zpid/","","","320000","319700","2195","201000","08/28/2023","1749","sqft","182.96","0.29","acres","1092523.05","3","3","","Valerie Rose","No","No","","2883 Abbey Ln","South Park","15129","PA","USA","40.298016","-79.98491"
"https://www.zillow.com/homedetails/1814-Fox-Way-Pittsburgh-PA-15203/11290574_zpid/","","","327888","328000","1400","93000","08/25/2023","2104","sqft","155.84","1197.9","sqft","273.72","3","3","","Jacob Rady","No","No","","1814 Fox Way","Pittsburgh","15203","PA","USA","40.429993","-79.97975"
"https://www.zillow.com/homedetails/394-Dewalt-Dr-Pittsburgh-PA-15234/11309402_zpid/","","","319000","319100","1999","120000","08/25/2023","1248","sqft","255.61","0.38","acres","850439.88","3","3","","Matthew Gillespie","No","No","","394 Dewalt Dr","Pittsburgh","15234","PA","USA","40.38238","-80.021774"
"https://www.zillow.com/homedetails/121-Bell-Park-Dr-Pittsburgh-PA-15229/11369853_zpid/","","","320000","320200","1999","130800","08/25/2023","1215","sqft","263.37","6899.9","sqft","46.38","3","2","","Tina Marie Cicero","No","No","","121 Bell Park Dr","Pittsburgh","15229","PA","USA","40.508503","-80.03442"
"https://www.zillow.com/homedetails/2760-Ravenwood-Dr-Bridgeville-PA-15017/59856913_zpid/","","","323500","323600","1895","220100","08/25/2023","1408","sqft","229.76","0.32","acres","1006533.91","3","2","","Deborah Reddick","No","No","","2760 Ravenwood Dr","Bridgeville","15017","PA","USA","40.33015","-80.12534"
"https://www.zillow.com/homedetails/845-Rosbury-Pl-Pittsburgh-PA-15243/11313590_zpid/","","","325000","325000","1855","141900","08/24/2023","1376","sqft","236.19","7775.46","sqft","41.8","3","2","","Bonnie Bagay","No","No","","845 Rosbury Pl","Pittsburgh","15243","PA","USA","40.376717","-80.058044"
"https://www.zillow.com/homedetails/3046-Eastview-Rd-Bethel-Park-PA-15102/11509256_zpid/","","","320000","320200","1914","231000","08/24/2023","","","","0.27","acres","1175174.44","3","3","","Jordan Jankowski","No","No","","3046 Eastview Rd","Bethel Park","15102","PA","USA","40.32944","-80.04869"
"https://www.zillow.com/homedetails/103-Forest-Glen-Dr-Glenshaw-PA-15116/11523607_zpid/","","","320000","320100","2637","226800","08/23/2023","2100","sqft","152.38","0.29","acres","1112656.47","5","4","","Deborah Reddick","No","No","","103 Forest Glen Dr","Glenshaw","15116","PA","USA","40.547832","-79.98413"
"https://www.zillow.com/homedetails/915-Clifton-Rd-Bethel-Park-PA-15102/11608821_zpid/","","","320000","320100","2100","161600","08/23/2023","1576","sqft","203.05","0.28","acres","1142857.14","3","3","","Beverly Fusco","No","No","","915 Clifton Rd","Bethel Park","15102","PA","USA","40.300293","-80.05012"
"https://www.zillow.com/homedetails/6823-Ridgevue-Dr-Pittsburgh-PA-15236/11547227_zpid/","","","320000","320100","2098","151500","08/22/2023","","","","7405.2","sqft","43.21","4","3","","Margo Cicci","No","No","","6823 Ridgevue Dr","Pittsburgh","15236","PA","USA","40.3189","-79.986786"
"https://www.zillow.com/homedetails/3348-Sylvan-Rd-Bethel-Park-PA-15102/11510046_zpid/","","","319175","319400","2094","175000","08/18/2023","1438","sqft","221.96","0.25","acres","1269590.29","3","3","","Shawnda Smoker","No","No","","3348 Sylvan Rd","Bethel Park","15102","PA","USA","40.32673","-80.061714"
"https://www.zillow.com/homedetails/109-Westminster-Dr-Monroeville-PA-15146/11654615_zpid/","","","320000","320000","1794","143800","08/18/2023","","","","9452.52","sqft","33.85","3","3","","Judith Schlosberg","No","No","","109 Westminster Dr","Monroeville","15146","PA","USA","40.39866","-79.74927"
"https://www.zillow.com/homedetails/706-Midway-Dr-Pittsburgh-PA-15215/11373654_zpid/","","","320000","320000","2299","215300","08/17/2023","","","","0.35","acres","902679.83","3","3","","Alison Butler","No","No","","706 Midway Dr","Pittsburgh","15215","PA","USA","40.501408","-79.932724"
"https://www.zillow.com/homedetails/1216-Duffield-St-Pittsburgh-PA-15206/11619589_zpid/","","","327000","327000","1550","107700","08/15/2023","1286","sqft","254.28","3101.47","sqft","105.43","3","1","","Adam Longshore","No","No","","1216 Duffield St","Pittsburgh","15206","PA","USA","40.480183","-79.93124"
"https://www.zillow.com/homedetails/129-Sylvania-Dr-Pittsburgh-PA-15236/11546774_zpid/","","","319000","319300","1698","136200","08/11/2023","","","","10018.8","sqft","31.84","3","3","","Richard Charles","No","No","","129 Sylvania Dr","Pittsburgh","15236","PA","USA","40.32271","-79.99179"
"https://www.zillow.com/homedetails/287-Alamo-Dr-Pittsburgh-PA-15241/11581110_zpid/","","","319900","319300","2149","155000","08/11/2023","1652","sqft","193.64","0.41","acres","787349.25","3","3","","Beth Thomas","No","No","","287 Alamo Dr","Pittsburgh","15241","PA","USA","40.30775","-80.08142"
"https://www.zillow.com/homedetails/112-Holly-Hill-Dr-Pittsburgh-PA-15237/11409145_zpid/","","","325000","325000","2370","155000","08/10/2023","1776","sqft","183","0.27","acres","1216772.74","4","3","","Cindy Rezabeck","No","No","","112 Holly Hill Dr","Pittsburgh","15237","PA","USA","40.519405","-80.012474"
"https://www.zillow.com/homedetails/91-Pius-St-Pittsburgh-PA-15203/11291789_zpid/","","","325000","325000","1994","200000","08/09/2023","1740","sqft","186.78","1750","sqft","185.71","3","2.5","","","No","No","","91 Pius St","Pittsburgh","15203","PA","USA","40.424664","-79.981445"
"https://www.zillow.com/homedetails/91-Pius-St-S-Pittsburgh-PA-15203/2057222478_zpid/","","","325000","","1564","","08/09/2023","1508","sqft","215.52","1751.11","sqft","185.6","3","3","","Dylan Stephens","No","No","","91 Pius St S","Pittsburgh","15203","PA","USA","",""
"https://www.zillow.com/homedetails/1090-Bank-St-Bridgeville-PA-15017/11434766_zpid/","","","325000","324500","1900","144400","08/08/2023","1498","sqft","216.96","9748.73","sqft","33.34","3","3","","Eileen Allan","No","No","","1090 Bank St","Bridgeville","15017","PA","USA","40.35066","-80.10526"
"https://www.zillow.com/homedetails/1611-Hillsdale-Ave-Pittsburgh-PA-15216/11571527_zpid/","","","325000","325000","1999","129300","08/08/2023","2381","sqft","136.5","4356","sqft","74.61","5","2","","Donna Howland Klein","No","No","","1611 Hillsdale Ave","Pittsburgh","15216","PA","USA","40.39605","-80.03916"
"https://www.zillow.com/homedetails/3461-Beechwood-Blvd-Pittsburgh-PA-15217/11639536_zpid/","","","325000","325000","1949","133600","08/08/2023","1762","sqft","184.45","4200","sqft","77.38","3","2","","Jackie Horvath","No","No","","3461 Beechwood Blvd","Pittsburgh","15217","PA","USA","40.421474","-79.92801"
"https://www.zillow.com/homedetails/1620-Charlton-Heights-Rd-Coraopolis-PA-15108/11477936_zpid/","","","325000","324400","1856","182000","08/07/2023","","","","1","acres","324675.32","3","3","","Lisa Jackson","No","No","","1620 Charlton Heights Rd","Coraopolis","15108","PA","USA","40.504745","-80.16957"
"https://www.zillow.com/homedetails/3550-Shadeland-Ave-Pittsburgh-PA-15212/11603763_zpid/","","","324900","324900","3425","95500","08/04/2023","2683","sqft","121.1","6838.92","sqft","47.51","5","3","","Giovanni Fedele","No","No","","3550 Shadeland Ave","Pittsburgh","15212","PA","USA","40.48096","-80.034294"
"https://www.zillow.com/homedetails/817-Stuyvesant-Rd-Pittsburgh-PA-15237/11644051_zpid/","","","325000","324400","1776","137900","08/02/2023","","","","0.34","acres","943800","3","2","","Carol Briskey","No","No","","817 Stuyvesant Rd","Pittsburgh","15237","PA","USA","40.580338","-80.02373"
"https://www.zillow.com/homedetails/101-Miller-Rd-Pittsburgh-PA-15237/11442846_zpid/","","","319900","319500","2092","179500","07/31/2023","2082","sqft","153.65","0.85","acres","378356","3","3","","Carla Pierson","No","No","","101 Miller Rd","Pittsburgh","15237","PA","USA","40.52225","-79.99149"
"https://www.zillow.com/homedetails/207-Chapel-Ridge-Dr-Glenshaw-PA-15116/11526467_zpid/","","","321500","321100","1999","133900","07/31/2023","1272","sqft","252.75","0.36","acres","893055.56","3","2","","Vic Franceschini","No","No","","207 Chapel Ridge Dr","Glenshaw","15116","PA","USA","40.54646","-79.96665"
"https://www.zillow.com/homedetails/100-Overdale-Rd-Pittsburgh-PA-15221/11381830_zpid/","","","319500","319100","1528","147100","07/28/2023","1770","sqft","180.51","9313.13","sqft","34.31","3","3","","LeSans Montgomery","No","No","","100 Overdale Rd","Pittsburgh","15221","PA","USA","40.430603","-79.86671"
"https://www.zillow.com/homedetails/505-Glenn-Ave-Glenshaw-PA-15116/11443765_zpid/","","","325000","324900","2500","211200","07/28/2023","2080","sqft","156.25","0.29","acres","1137565.29","4","3","","","No","No","","505 Glenn Ave","Glenshaw","15116","PA","USA","40.52335","-79.95617"
"https://www.zillow.com/homedetails/3306-Scathelocke-Rd-Pittsburgh-PA-15235/11494470_zpid/","","","329000","328600","2470","202100","07/28/2023","2295","sqft","143.36","0.66","acres","501066.1","4","3","","Justin Francart","No","No","","3306 Scathelocke Rd","Pittsburgh","15235","PA","USA","40.43565","-79.83199"
"https://www.zillow.com/homedetails/1823-Howell-St-North-Versailles-PA-15137/64759473_zpid/","","","321000","320600","1535","188600","07/27/2023","2049","sqft","156.66","0.42","acres","764285.71","3","2","","Deborah Kane","No","No","","1823 Howell St","North Versailles","15137","PA","USA","40.36719","-79.785645"
"https://www.zillow.com/homedetails/346-Newburn-Dr-Pittsburgh-PA-15216/11658305_zpid/","","","326000","325600","1898","173300","07/25/2023","1397","sqft","233.36","9748.73","sqft","33.44","3","2","","John Adair","No","No","","346 Newburn Dr","Pittsburgh","15216","PA","USA","40.392403","-80.055435"
"https://www.zillow.com/homedetails/31-Harrison-St-Pittsburgh-PA-15205/11583175_zpid/","","","320000","319600","1749","110000","07/24/2023","2191","sqft","146.05","0.29","acres","1111111.11","4","3","","Rebecca Church","No","No","","31 Harrison St","Pittsburgh","15205","PA","USA","40.432793","-80.0685"
"https://www.zillow.com/homedetails/271-Jean-Dr-Pittsburgh-PA-15236/11429851_zpid/","","","325000","325600","1977","132200","07/21/2023","1632","sqft","199.14","7187.4","sqft","45.22","4","3","","Loralie Bruce","No","No","","271 Jean Dr","Pittsburgh","15236","PA","USA","40.348087","-79.9889"
"https://www.zillow.com/homedetails/952-Delfield-Dr-Bethel-Park-PA-15102/11579823_zpid/","","","320000","320600","2100","150300","07/21/2023","1411","sqft","226.79","0.7","acres","457142.86","3","3","","Cassandra Ringer","No","No","","952 Delfield Dr","Bethel Park","15102","PA","USA","40.308006","-80.046585"
"https://www.zillow.com/homedetails/1500-King-William-Dr-Pittsburgh-PA-15237/11588981_zpid/","","","326000","326600","2166","174900","07/21/2023","1612","sqft","202.23","0.51","acres","642237.98","3","3","","Kaedi Knepshield","No","No","","1500 King William Dr","Pittsburgh","15237","PA","USA","40.56617","-80.06819"
"https://www.zillow.com/homedetails/1023-Avacoll-Dr-Pittsburgh-PA-15220/11346990_zpid/","","","320000","306400","1714","110300","07/20/2023","1452","sqft","220.39","3746.16","sqft","85.42","3","3","","Devon Lauer","No","No","","1023 Avacoll Dr","Pittsburgh","15220","PA","USA","40.414448","-80.04334"
"https://www.zillow.com/homedetails/26-Parkview-Dr-Carnegie-PA-15106/11577023_zpid/","","","321000","321700","1932","227500","07/19/2023","1924","sqft","166.84","0.28","acres","1134676.56","3","2","","Karin Smith","No","No","","26 Parkview Dr","Carnegie","15106","PA","USA","40.401684","-80.07623"
"https://www.zillow.com/homedetails/866-Bridgewater-Dr-Pittsburgh-PA-15216/11653915_zpid/","","","325000","325700","2500","161800","07/17/2023","1628","sqft","199.63","7169.98","sqft","45.33","5","4","","Rob Dutcher","No","No","","866 Bridgewater Dr","Pittsburgh","15216","PA","USA","40.386105","-80.03093"
"https://www.zillow.com/homedetails/1112-Oakridge-Dr-Pittsburgh-PA-15227/11392246_zpid/","","","325000","325800","1688","117400","07/14/2023","1680","sqft","193.45","9147.6","sqft","35.53","4","2","","Margaret Harkins","No","No","","1112 Oakridge Dr","Pittsburgh","15227","PA","USA","40.360332","-79.974434"
"https://www.zillow.com/homedetails/5-Sylvia-Ln-Pittsburgh-PA-15235/11494208_zpid/","","","325000","325800","1712","211800","07/14/2023","2340","sqft","138.89","0.3","acres","1074735.45","4","4","","Rose Stauffer","No","No","","5 Sylvia Ln","Pittsburgh","15235","PA","USA","40.441433","-79.823395"
"https://www.zillow.com/homedetails/2800-Herron-Ln-Glenshaw-PA-15116/11526342_zpid/","","","318250","319100","1999","188800","07/14/2023","1229","sqft","258.95","0.5","acres","636500","3","2","","Stephanie Wanamaker","No","No","","2800 Herron Ln","Glenshaw","15116","PA","USA","40.541885","-79.97846"
"https://www.zillow.com/homedetails/2501-Larkins-Way-Pittsburgh-PA-15203/11291679_zpid/","","","327000","327900","2070","238400","07/13/2023","1470","sqft","222.45","1197.9","sqft","272.98","2","3","","Long Pham","No","No","","2501 Larkins Way","Pittsburgh","15203","PA","USA","40.426647","-79.97024"
"https://www.zillow.com/homedetails/10400-Meinert-Rd-Wexford-PA-15090/11274423_zpid/","","","325000","325900","1999","190000","07/11/2023","1419","sqft","229.03","1.7","acres","191176.47","3","2","","Cynthia Harnish","No","No","","10400 Meinert Rd","Wexford","15090","PA","USA","40.60501","-80.063255"
"https://www.zillow.com/homedetails/3522-Melwood-Ave-Pittsburgh-PA-15213/11402660_zpid/","","","325000","325900","1599","66100","07/11/2023","1522","sqft","213.53","2639.74","sqft","123.12","2","1","","Tirzah DeCaria","No","No","","3522 Melwood Ave","Pittsburgh","15213","PA","USA","40.459255","-79.960365"
"https://www.zillow.com/homedetails/309-Overdale-Rd-Pittsburgh-PA-15221/11419340_zpid/","","","325000","325700","2400","185000","07/10/2023","2632","sqft","123.48","0.43","acres","748330.65","4","3","","Susan Cornetto","No","No","","309 Overdale Rd","Pittsburgh","15221","PA","USA","40.42803","-79.8647"
"https://www.zillow.com/homedetails/115-Roberta-Dr-Homestead-PA-15120/11296613_zpid/","","","328000","328700","2269","249400","07/07/2023","2076","sqft","158","5902.38","sqft","55.57","3","4","","Trudy Huynk","No","No","","115 Roberta Dr","Homestead","15120","PA","USA","40.37745","-79.90744"
"https://www.zillow.com/homedetails/123-Olympia-St-Pittsburgh-PA-15211/11585988_zpid/","","","320000","320700","1849","131800","07/07/2023","1440","sqft","222.22","3358.48","sqft","95.28","3","2","","Gina Giampietro","No","No","","123 Olympia St","Pittsburgh","15211","PA","USA","40.435894","-80.0163"
"https://www.zillow.com/homedetails/605-Surfside-Dr-Pittsburgh-PA-15239/11262248_zpid/","","","320000","320700","1550","120500","07/06/2023","","","","7749.32","sqft","41.29","4","3","","Stephen Solomon","No","No","","605 Surfside Dr","Pittsburgh","15239","PA","USA","40.46634","-79.71656"
"https://www.zillow.com/homedetails/218-Elbe-Dr-Pittsburgh-PA-15209/11271760_zpid/","","","327500","328200","1870","117800","07/06/2023","2100","sqft","155.95","8515.98","sqft","38.46","3","2","","Sean Phillips","No","No","","218 Elbe Dr","Pittsburgh","15209","PA","USA","40.488663","-79.96884"
"https://www.zillow.com/homedetails/292-Tara-Dr-Pittsburgh-PA-15236/11546145_zpid/","","","326001","326800","1694","145100","07/05/2023","1814","sqft","179.71","8712","sqft","37.42","3","2","","Alexandra Barone","No","No","","292 Tara Dr","Pittsburgh","15236","PA","USA","40.326084","-79.95979"
"https://www.zillow.com/homedetails/141-Evergreen-Ave-Pittsburgh-PA-15209/2076556547_zpid/","","","325000","","1319","","07/05/2023","","","","9361.04","sqft","34.72","12","7","","Tyler Herget","No","No","","141 Evergreen Ave","Pittsburgh","15209","PA","USA","40.479557","-79.968834"
"https://www.zillow.com/homedetails/3069-Piney-Bluff-Dr-South-Park-PA-15129/11638126_zpid/","","","325000","325800","1749","155000","07/03/2023","1512","sqft","214.95","6921.68","sqft","46.95","4","2","","Missy Foltz","No","No","","3069 Piney Bluff Dr","South Park","15129","PA","USA","40.28805","-79.98506"
"https://www.zillow.com/homedetails/7324-Trevanion-Ave-Pittsburgh-PA-15218/11344262_zpid/","","","323000","324000","1499","170800","06/29/2023","1360","sqft","237.5","3000","sqft","107.67","3","1","","","No","No","","7324 Trevanion Ave","Pittsburgh","15218","PA","USA","40.42787","-79.89623"
"https://www.zillow.com/homedetails/46-Shady-Dr-W-Pittsburgh-PA-15228/11310983_zpid/","","","325000","325800","2100","145300","06/28/2023","1674","sqft","194.15","3772.3","sqft","86.15","3","3","","Sarah Orbin","No","No","","46 Shady Dr W","Pittsburgh","15228","PA","USA","40.38355","-80.04637"
"https://www.zillow.com/homedetails/1003-Manhattan-St-Pittsburgh-PA-15233/11611606_zpid/","","","320000","321000","1388","74200","06/28/2023","1261","sqft","253.77","1119.49","sqft","285.84","2","1","","Heather Edmondson","No","No","","1003 Manhattan St","Pittsburgh","15233","PA","USA","40.451427","-80.025635"
"https://www.zillow.com/homedetails/160-Grove-Ave-Pittsburgh-PA-15229/11409343_zpid/","","","325000","326100","1657","164500","06/26/2023","","","","5227.2","sqft","62.17","3","3","","Melissa Watkins","No","No","","160 Grove Ave","Pittsburgh","15229","PA","USA","40.51619","-80.016365"
"https://www.zillow.com/homedetails/133-Glen-Ln-Pittsburgh-PA-15237/11484933_zpid/","","","325000","326300","1999","173900","06/23/2023","1481","sqft","219.45","0.39","acres","837628.87","3","2","","Amanda Clarke","No","No","","133 Glen Ln","Pittsburgh","15237","PA","USA","40.531914","-80.004875"
"https://www.zillow.com/homedetails/1111-Orion-Dr-Pittsburgh-PA-15235/11494456_zpid/","","","320060","344000","1561","122300","06/22/2023","","","","0.35","acres","909519.75","4","3","","","No","No","","1111 Orion Dr","Pittsburgh","15235","PA","USA","40.437054","-79.818"
"https://www.zillow.com/homedetails/219-Chapel-Ridge-Dr-Glenshaw-PA-15116/11526475_zpid/","","","325000","326400","2138","194000","06/21/2023","1864","sqft","174.36","0.65","acres","502318.39","3","3","","Linda Miller","No","No","","219 Chapel Ridge Dr","Glenshaw","15116","PA","USA","40.545914","-79.965034"
"https://www.zillow.com/homedetails/81-Beaver-Grade-Rd-Mc-Kees-Rocks-PA-15136/11401252_zpid/","","","320000","288800","1849","153500","06/16/2023","","","","0.93","acres","344086.02","3","2","","Kristi Stebler","No","No","","81 Beaver Grade Rd","Mc Kees Rocks","15136","PA","USA","40.457092","-80.14209"
"https://www.zillow.com/homedetails/250-Shafer-Rd-Coraopolis-PA-15108/11553771_zpid/","","","324500","326200","2028","213000","06/16/2023","1495","sqft","217.06","0.25","acres","1279574.13","3","3","","Garrett Browning","No","No","","250 Shafer Rd","Coraopolis","15108","PA","USA","40.533836","-80.21147"
"https://www.zillow.com/homedetails/568-Fruitwood-Dr-Bethel-Park-PA-15102/11580560_zpid/","","","320000","321700","1834","163000","06/16/2023","1289","sqft","248.25","10341.14","sqft","30.94","3","2","","Christopher Angelo","No","No","","568 Fruitwood Dr","Bethel Park","15102","PA","USA","40.309196","-80.061516"
"https://www.zillow.com/homedetails/7138-Dumbarton-Pl-Bethel-Park-PA-15102/11470755_zpid/","","","320000","321700","2740","189500","06/15/2023","2302","sqft","139.01","0.3","acres","1058201.06","4","3","","Michael Bello","No","No","","7138 Dumbarton Pl","Bethel Park","15102","PA","USA","40.339714","-80.01134"
"https://www.zillow.com/homedetails/3462-Delaware-St-Pittsburgh-PA-15214/11271044_zpid/","","","320000","321800","1816","81800","06/14/2023","1636","sqft","195.6","5571.32","sqft","57.44","4","2","","Emily Fraser","No","No","","3462 Delaware St","Pittsburgh","15214","PA","USA","40.483685","-80.011566"
"https://www.zillow.com/homedetails/1044-Downlook-St-Pittsburgh-PA-15201/11275695_zpid/","","","322000","323900","1550","102600","06/13/2023","1176","sqft","273.81","3001.28","sqft","107.29","3","1","","Noah Wolf","No","No","","1044 Downlook St","Pittsburgh","15201","PA","USA","40.483814","-79.93998"
"https://www.zillow.com/homedetails/126-Holly-Hill-Dr-Pittsburgh-PA-15237/11409171_zpid/","","","324000","325900","1999","152100","06/13/2023","1134","sqft","285.71","0.6","acres","538205.98","3","2","","Angie Flowers","No","No","","126 Holly Hill Dr","Pittsburgh","15237","PA","USA","40.51877","-80.01078"
"https://www.zillow.com/homedetails/542-N-Fairmount-St-Pittsburgh-PA-15206/11622765_zpid/","","","320000","303400","995","69500","06/13/2023","","","","2726.86","sqft","117.35","3","2","","Sarah Madia","No","No","","542 N Fairmount St","Pittsburgh","15206","PA","USA","40.469734","-79.93161"
"https://www.zillow.com/homedetails/2842-Anderson-Dr-Allison-Park-PA-15101/11646196_zpid/","","","329000","330900","2450","212700","06/12/2023","1782","sqft","184.62","0.48","acres","690596.14","3","3","","David Onufer","No","No","","2842 Anderson Dr","Allison Park","15101","PA","USA","40.58603","-79.947556"
"https://www.zillow.com/homedetails/2563A-Pheasant-Run-Wexford-PA-15090/164226178_zpid/","","","320000","321900","2100","157300","06/12/2023","1556","sqft","205.66","","","","3","2","","","No","No","","2563A Pheasant Run","Wexford","15090","PA","USA","40.60454","-80.08962"
"https://www.zillow.com/homedetails/458-Serrano-Ave-Pittsburgh-PA-15243/11312737_zpid/","","","325000","327100","1962","149200","06/09/2023","1480","sqft","219.59","6825.85","sqft","47.61","4","3","","Roberta Mikita","No","No","","458 Serrano Ave","Pittsburgh","15243","PA","USA","40.382946","-80.05327"
"https://www.zillow.com/homedetails/39-Deborah-Lynn-Ct-Cheswick-PA-15024/11563081_zpid/","","","325000","327100","2392","167900","06/09/2023","","","","0.45","acres","725446.43","4","4","","Colleen Steigerwalt","No","No","","39 Deborah Lynn Ct","Cheswick","15024","PA","USA","40.551094","-79.86215"
"https://www.zillow.com/homedetails/1519-Simona-Dr-Pittsburgh-PA-15201/11275402_zpid/","","","325000","327200","1681","80000","06/08/2023","1092","sqft","297.62","4717.55","sqft","68.89","3","2","","Sara Minshull","No","No","","1519 Simona Dr","Pittsburgh","15201","PA","USA","40.485714","-79.93552"
"https://www.zillow.com/homedetails/1194-Fox-Terrier-Dr-Bethel-Park-PA-15102/11608229_zpid/","","","327000","329200","2600","200200","06/08/2023","2032","sqft","160.93","0.25","acres","1308000","4","3","","Judy Smith","No","No","","1194 Fox Terrier Dr","Bethel Park","15102","PA","USA","40.29813","-80.0376"
"https://www.zillow.com/homedetails/130-41st-St-Pittsburgh-PA-15201/11512636_zpid/","","","325000","327300","1969","90000","06/06/2023","1521","sqft","213.68","1280.66","sqft","253.77","3","2","","Jackie Allenberg","No","No","","130 41st St","Pittsburgh","15201","PA","USA","40.47098","-79.96373"
"https://www.zillow.com/homedetails/267-Crestvue-Dr-Bridgeville-PA-15017/11399449_zpid/","","","324000","326300","1662","141400","06/05/2023","","","","6000","sqft","54","3","2","","Michele Belice","No","No","","267 Crestvue Dr","Bridgeville","15017","PA","USA","40.36263","-80.114944"
"https://www.zillow.com/homedetails/3221-Gaylord-Ave-Pittsburgh-PA-15216/11656179_zpid/","","","325000","327300","2134","159700","06/05/2023","1408","sqft","230.82","3301","sqft","98.46","4","4","","","No","No","","3221 Gaylord Ave","Pittsburgh","15216","PA","USA","40.388947","-80.039116"
"https://www.zillow.com/homedetails/2319-Jane-St-Pittsburgh-PA-15203/11291445_zpid/","","","325000","324000","2064","155900","06/02/2023","1728","sqft","188.08","1197.9","sqft","271.31","3","3","","Steve Foltz","No","No","","2319 Jane St","Pittsburgh","15203","PA","USA","40.426643","-79.97241"
"https://www.zillow.com/homedetails/189-Broad-St-Leetsdale-PA-15056/11587291_zpid/","","","325000","327500","2749","152200","06/02/2023","","","","4791.6","sqft","67.83","4","4","","Wendy Martin","No","No","","189 Broad St","Leetsdale","15056","PA","USA","40.564407","-80.20825"
"https://www.zillow.com/homedetails/110-Lee-Rd-Pittsburgh-PA-15237/11485067_zpid/","","","325000","327500","1994","150000","06/01/2023","1479","sqft","219.74","0.4","acres","821536.91","3","2","","Lisa Corbett","No","No","","110 Lee Rd","Pittsburgh","15237","PA","USA","40.539616","-79.995544"
"https://www.zillow.com/homedetails/102-Fernvue-Dr-Coraopolis-PA-15108/11518219_zpid/","","","325000","327500","2100","163500","06/01/2023","1503","sqft","216.23","10315.01","sqft","31.51","3","3","","Garrett Browning","No","No","","102 Fernvue Dr","Coraopolis","15108","PA","USA","40.521786","-80.19392"
"https://www.zillow.com/homedetails/141-Jarod-Dr-Coraopolis-PA-15108/11518615_zpid/","","","320000","322600","2199","172800","05/31/2023","","","","1.2","acres","266666.67","3","3","","Ronald Schneider","No","No","","141 Jarod Dr","Coraopolis","15108","PA","USA","40.53273","-80.19486"
"https://www.zillow.com/homedetails/208-Shoreham-Dr-Allison-Park-PA-15101/11526858_zpid/","","","320630","323200","2134","160000","05/31/2023","","","","9260.86","sqft","34.62","3","3","","Michelle Proviano","No","No","","208 Shoreham Dr","Allison Park","15101","PA","USA","40.54039","-79.95344"
"https://www.zillow.com/homedetails/112-Conneaut-Dr-Pittsburgh-PA-15239/11282954_zpid/","","","323000","326100","1914","109600","05/26/2023","","","","7701.41","sqft","41.94","3","3","","Michele Claassen","No","No","","112 Conneaut Dr","Pittsburgh","15239","PA","USA","40.469906","-79.71118"
"https://www.zillow.com/homedetails/5903-Dalmation-Dr-Bethel-Park-PA-15102/11607754_zpid/","","","325000","328100","2100","152100","05/26/2023","1568","sqft","207.27","0.29","acres","1138752.63","3","3","","Kaitlin Alford","No","No","","5903 Dalmation Dr","Bethel Park","15102","PA","USA","40.305218","-80.03392"
"https://www.zillow.com/homedetails/133-Lansdowne-Dr-Coraopolis-PA-15108/11478043_zpid/","","","325000","328200","1875","136600","05/25/2023","","","","0.28","acres","1179673.32","3","2","","Kelly Robinson","No","No","","133 Lansdowne Dr","Coraopolis","15108","PA","USA","40.501675","-80.16782"
"https://www.zillow.com/homedetails/1507-Beech-St-Cheswick-PA-15024/11564151_zpid/","","","325000","328200","2933","191100","05/25/2023","2308","sqft","140.81","0.28","acres","1143963.39","3","3","","Jeannine Mullen","No","No","","1507 Beech St","Cheswick","15024","PA","USA","40.54392","-79.79868"
"https://www.zillow.com/homedetails/138-Gary-Dr-Sewickley-PA-15143/11555880_zpid/","","","325000","328500","2500","199000","05/22/2023","1968","sqft","165.14","0.53","acres","617753.28","4","3","","Jennifer Waters","No","No","","138 Gary Dr","Sewickley","15143","PA","USA","40.552288","-80.0966"
"https://www.zillow.com/homedetails/509-Long-Dr-Pittsburgh-PA-15241/11432424_zpid/","","","322000","325700","1864","196000","05/19/2023","1292","sqft","249.23","0.26","acres","1246612.47","3","3","","Ruth Kitterman","No","No","","509 Long Dr","Pittsburgh","15241","PA","USA","40.354717","-80.06323"
"https://www.zillow.com/homedetails/1214-Dormont-Ave-Pittsburgh-PA-15216/11655743_zpid/","","","322000","327000","1798","134300","05/17/2023","1810","sqft","177.9","4078","sqft","78.96","4","2","","","No","No","","1214 Dormont Ave","Pittsburgh","15216","PA","USA","40.390095","-80.03735"
"https://www.zillow.com/homedetails/992-Willow-Glen-Dr-Bethel-Park-PA-15102/11607561_zpid/","","","325000","329100","1999","154600","05/15/2023","1842","sqft","176.44","","","","3","2","","Jeff Earley","No","No","","992 Willow Glen Dr","Bethel Park","15102","PA","USA","40.305737","-80.04652"
"https://www.zillow.com/homedetails/1757-Seaton-St-Pittsburgh-PA-15226/11306482_zpid/","","","325000","329400","1798","83000","05/12/2023","1632","sqft","199.14","10419.55","sqft","31.19","4","2","","Deborah Reddick","No","No","","1757 Seaton St","Pittsburgh","15226","PA","USA","40.38465","-80.00894"
"https://www.zillow.com/homedetails/323-Ella-St-Pittsburgh-PA-15224/11402384_zpid/","","","320000","324300","2195","106900","05/12/2023","1833","sqft","174.58","2739.92","sqft","116.79","3","2","","Justin Cummings","No","No","","323 Ella St","Pittsburgh","15224","PA","USA","40.462315","-79.95213"
"https://www.zillow.com/homedetails/5444-Kincaid-St-Pittsburgh-PA-15206/11520462_zpid/","","","328900","333400","2855","264900","05/12/2023","1980","sqft","166.11","2726.86","sqft","120.62","4","3","","Ryan Edmondson","No","No","","5444 Kincaid St","Pittsburgh","15206","PA","USA","40.465794","-79.933426"
"https://www.zillow.com/homedetails/35-Lemoyne-Ave-Pittsburgh-PA-15228/11312207_zpid/","","","325000","329500","1670","131000","05/11/2023","1288","sqft","252.33","2613.6","sqft","124.35","3","1","","Rachael Schafer","No","No","","35 Lemoyne Ave","Pittsburgh","15228","PA","USA","40.376724","-80.04454"
"https://www.zillow.com/homedetails/307-Main-St-Pittsburgh-PA-15201/11513485_zpid/","","","329000","333700","2099","97800","05/09/2023","1784","sqft","184.42","1999.4","sqft","164.55","4","1","","Hedy Krenn","No","No","","307 Main St","Pittsburgh","15201","PA","USA","40.467537","-79.95739"
"https://www.zillow.com/homedetails/2004-Crafton-Blvd-Pittsburgh-PA-15205/11583153_zpid/","","","320000","324600","1739","145500","05/09/2023","","","","6098.4","sqft","52.47","4","3","","Kristin Devine","No","No","","2004 Crafton Blvd","Pittsburgh","15205","PA","USA","40.432755","-80.07253"
"https://www.zillow.com/homedetails/114-Lederer-Ave-Pittsburgh-PA-15209/11410251_zpid/","","","327500","332600","2100","185300","05/05/2023","1686","sqft","194.25","0.34","acres","955925.28","3","2","","Michelle Silverman","No","No","","114 Lederer Ave","Pittsburgh","15209","PA","USA","40.516895","-79.969284"
"https://www.zillow.com/homedetails/1035-Harvard-Rd-Monroeville-PA-15146/11628097_zpid/","","","325000","330400","2369","167200","05/01/2023","2050","sqft","158.54","0.43","acres","756165.66","4","3","","Jeffrey Varga","No","No","","1035 Harvard Rd","Monroeville","15146","PA","USA","40.41516","-79.75395"
"https://www.zillow.com/homedetails/130-Wexford-Bayne-Rd-Wexford-PA-15090/304650932_zpid/","","","325000","389500","2470","128600","05/01/2023","","","","10845","sqft","29.97","","","","","No","No","","130 Wexford Bayne Rd","Wexford","15090","PA","USA","40.625694","-80.056854"
"https://www.zillow.com/homedetails/5716-Glen-Hill-Dr-Bethel-Park-PA-15102/11579756_zpid/","","","327500","333400","2500","178500","04/28/2023","1947","sqft","168.21","","","","4","3","","Jeff Earley","No","No","","5716 Glen Hill Dr","Bethel Park","15102","PA","USA","40.311375","-80.039925"
"https://www.zillow.com/homedetails/113-Kelvington-Dr-Monroeville-PA-15146/11630221_zpid/","","","320000","325700","2163","176300","04/28/2023","1942","sqft","164.78","0.28","acres","1131941.99","4","3","","Michelle Grasinger","No","No","","113 Kelvington Dr","Monroeville","15146","PA","USA","40.40098","-79.75682"
"https://www.zillow.com/homedetails/5126-Dearborn-St-Pittsburgh-PA-15224/11520031_zpid/","","","325000","330900","1995","73800","04/27/2023","","","","2299.97","sqft","141.31","3","2","","Maureen States","No","No","","5126 Dearborn St","Pittsburgh","15224","PA","USA","40.465385","-79.941734"
"https://www.zillow.com/homedetails/1456-Lattidome-Dr-Pittsburgh-PA-15241/11551233_zpid/","","","326000","332300","2129","211500","04/24/2023","","","","0.5","acres","652000","4","2","","Melissa Shipley","No","No","","1456 Lattidome Dr","Pittsburgh","15241","PA","USA","40.32556","-80.09435"
"https://www.zillow.com/homedetails/112-Richmond-Cir-Pittsburgh-PA-15237/11442004_zpid/","","","320000","326100","2099","160000","04/21/2023","1921","sqft","166.58","0.42","acres","755251.36","3","3","","Trish Cloonan","No","No","","112 Richmond Cir","Pittsburgh","15237","PA","USA","40.52949","-80.00403"
"https://www.zillow.com/homedetails/270-Mabrick-Ave-Pittsburgh-PA-15228/11313089_zpid/","","","320000","327500","1784","110000","04/13/2023","1095","sqft","292.24","6750","sqft","47.41","3","2","","Jennifer Rausch","No","No","","270 Mabrick Ave","Pittsburgh","15228","PA","USA","40.38117","-80.049545"
"https://www.zillow.com/homedetails/149-N-Sprague-Ave-Pittsburgh-PA-15202/11325264_zpid/","","","324000","331600","1849","181000","04/13/2023","2516","sqft","128.78","4599.94","sqft","70.44","6","2","","Rebekah Siegel","No","No","","149 N Sprague Ave","Pittsburgh","15202","PA","USA","40.500534","-80.05648"
"https://www.zillow.com/homedetails/241-Chinkapin-Dr-Natrona-Heights-PA-15065/104361830_zpid/","","","320000","327500","3490","234100","04/13/2023","","","","0.26","acres","1230769.23","4","4","","Elaine Shetler-Libent","No","No","","241 Chinkapin Dr","Natrona Heights","15065","PA","USA","40.64145","-79.70203"
"https://www.zillow.com/homedetails/3303-Waltham-Ave-Pittsburgh-PA-15216/11311171_zpid/","","","320000","327100","1614","91100","04/12/2023","1232","sqft","259.74","3301.85","sqft","96.92","3","1","","Alexander Farah","No","No","","3303 Waltham Ave","Pittsburgh","15216","PA","USA","40.384274","-80.03706"
"https://www.zillow.com/homedetails/141-Donmor-Dr-Pittsburgh-PA-15237/11410013_zpid/","","","325000","332200","1999","116300","04/12/2023","","","","7801.6","sqft","41.66","3","3","","Debra Donahue","No","No","","141 Donmor Dr","Pittsburgh","15237","PA","USA","40.511154","-79.99783"
"https://www.zillow.com/homedetails/118-Siebert-Rd-Pittsburgh-PA-15237/11442277_zpid/","","","326000","333800","2169","170000","04/12/2023","1580","sqft","206.33","0.44","acres","746678.88","3","3","","Jeff Lunderstadt","No","No","","118 Siebert Rd","Pittsburgh","15237","PA","USA","40.529823","-79.99308"
"https://www.zillow.com/homedetails/172-Joseph-St-Pittsburgh-PA-15227/11645514_zpid/","","","325000","332200","2370","93400","04/12/2023","2308","sqft","140.81","9461.23","sqft","34.35","5","3","","Elizabeth Stroud","No","No","","172 Joseph St","Pittsburgh","15227","PA","USA","40.391777","-79.967285"
"https://www.zillow.com/homedetails/3017-Eastview-Rd-Bethel-Park-PA-15102/11509218_zpid/","","","325000","332300","2166","147600","04/10/2023","1501","sqft","216.52","0.27","acres","1190040.28","3","3","","Carla Pierson","No","No","","3017 Eastview Rd","Bethel Park","15102","PA","USA","40.32917","-80.046875"
"https://www.zillow.com/homedetails/555-Peebles-St-Pittsburgh-PA-15221/11342206_zpid/","","","321000","328700","1926","201500","04/06/2023","","","","4504.1","sqft","71.27","3","2","","Maureen States","No","No","","555 Peebles St","Pittsburgh","15221","PA","USA","40.439663","-79.894394"
"https://www.zillow.com/homedetails/5617-Hays-St-Pittsburgh-PA-15206/11622805_zpid/","","","326000","333800","1800","162000","04/06/2023","1488","sqft","219.09","1093.36","sqft","298.16","2","2","","Justin Cummings","No","No","","5617 Hays St","Pittsburgh","15206","PA","USA","40.46964","-79.9262"
"https://www.zillow.com/homedetails/1736-Gregory-St-Pittsburgh-PA-15203/11291895_zpid/","","","325000","333700","1500","157200","04/04/2023","1122","sqft","289.66","1742","sqft","186.57","2","2","","","No","No","","1736 Gregory St","Pittsburgh","15203","PA","USA","40.42396","-79.9812"
"https://www.zillow.com/homedetails/9976-Grubbs-Rd-Wexford-PA-15090/11258627_zpid/","","","325000","333900","2134","215000","04/03/2023","1440","sqft","225.69","0.96","acres","338538.43","3","2.5","","","No","No","","9976 Grubbs Rd","Wexford","15090","PA","USA","40.59185","-80.02336"
"https://www.zillow.com/homedetails/330-Elmbrook-Ln-Pittsburgh-PA-15243/11361493_zpid/","","","325000","334300","2414","65600","03/31/2023","1701","sqft","191.06","7248.38","sqft","44.84","4","4","","Candy Oxenrider","No","No","","330 Elmbrook Ln","Pittsburgh","15243","PA","USA","40.37068","-80.086334"
"https://www.zillow.com/homedetails/306-Ophelia-St-Pittsburgh-PA-15213/11413182_zpid/","","","327500","354200","2641","164680","03/29/2023","1770","sqft","185.03","1877.44","sqft","174.44","3","3","","James Maloney","No","No","","306 Ophelia St","Pittsburgh","15213","PA","USA","40.434864","-79.963135"
"https://www.zillow.com/homedetails/1736-Gregory-St-S-Pittsburgh-PA-15203/2060952469_zpid/","","","325000","","1523","","03/28/2023","1242","sqft","261.67","1711.91","sqft","189.85","2","2","","Cameron Logan","No","No","","1736 Gregory St S","Pittsburgh","15203","PA","USA","",""
"https://www.zillow.com/homedetails/195-Wible-Run-Rd-Pittsburgh-PA-15209/11372080_zpid/","","","325000","334200","2500","175800","03/23/2023","1876","sqft","173.24","0.65","acres","498160.64","3","3","","Ryan Smith","No","No","","195 Wible Run Rd","Pittsburgh","15209","PA","USA","40.50566","-79.96987"
"https://www.zillow.com/homedetails/3480-Saxonburg-Blvd-Pittsburgh-PA-15238/11561678_zpid/","","","321600","331500","1999","145500","03/17/2023","1392","sqft","231.03","1.25","acres","257280","3","2","","Lisa Lobaugh","No","No","","3480 Saxonburg Blvd","Pittsburgh","15238","PA","USA","40.55977","-79.905914"
"https://www.zillow.com/homedetails/114-Meadow-Ct-Pittsburgh-PA-15229/11406897_zpid/","","","327100","338000","2094","165700","03/10/2023","","","","9147.6","sqft","35.76","3","2","","Mary Scafede","No","No","","114 Meadow Ct","Pittsburgh","15229","PA","USA","40.512184","-80.04114"
"https://www.zillow.com/homedetails/730-Jefferson-Dr-Pittsburgh-PA-15229/11441438_zpid/","","","320000","330700","2100","170900","03/10/2023","1602","sqft","199.75","7840.8","sqft","40.81","3","3","","Dawn Ross","No","No","","730 Jefferson Dr","Pittsburgh","15229","PA","USA","40.527943","-80.02898"
"https://www.zillow.com/homedetails/444-Dennison-Dr-West-Mifflin-PA-15122/11467369_zpid/","","","325000","335900","1514","118700","03/10/2023","1944","sqft","167.18","0.28","acres","1177536.23","3","4","","Cindy Schmidt","No","No","","444 Dennison Dr","West Mifflin","15122","PA","USA","40.338196","-79.9201"
"https://www.zillow.com/homedetails/436-Oneida-St-Pittsburgh-PA-15211/11554681_zpid/","","","325999","338800","1739","97900","03/10/2023","2065","sqft","157.87","2901.1","sqft","112.37","4","3","","Corey Diethorn","No","No","","436 Oneida St","Pittsburgh","15211","PA","USA","40.4318","-80.02135"
"https://www.zillow.com/homedetails/1141-Portland-St-Pittsburgh-PA-15206/11620463_zpid/","","","320000","598200","3499","196000","03/09/2023","3494","sqft","91.59","3301.85","sqft","96.92","5","3","","Ryan Shedlock","No","No","","1141 Portland St","Pittsburgh","15206","PA","USA","40.476307","-79.92321"
"https://www.zillow.com/homedetails/471-Haverhill-Rd-Pittsburgh-PA-15228/11310023_zpid/","","","322220","333100","1710","179600","03/08/2023","","","","7405.2","sqft","43.51","3","2","","Reed Pirain","No","No","","471 Haverhill Rd","Pittsburgh","15228","PA","USA","40.378857","-80.02464"
"https://www.zillow.com/homedetails/204-Centerdale-Rd-Coraopolis-PA-15108/11553021_zpid/","","","320000","331200","2284","164700","03/06/2023","2000","sqft","160","10497.96","sqft","30.48","4","3","","Deborah Tarquinio","No","No","","204 Centerdale Rd","Coraopolis","15108","PA","USA","40.516487","-80.20905"
"https://www.zillow.com/homedetails/351-Lamont-Pl-Pittsburgh-PA-15232/11624847_zpid/","","","325000","337100","1999","116000","02/28/2023","1329","sqft","244.54","1934.06","sqft","168.04","3","2","","Sangita Thapar","No","No","","351 Lamont Pl","Pittsburgh","15232","PA","USA","40.45577","-79.927155"
"https://www.zillow.com/homedetails/3460-Ridgewood-Dr-Pittsburgh-PA-15235/11494379_zpid/","","","320000","332600","1982","144200","02/23/2023","","","","8318.9","sqft","38.47","4","4","","Lee Borellis","No","No","","3460 Ridgewood Dr","Pittsburgh","15235","PA","USA","40.436356","-79.82535"
"https://www.zillow.com/homedetails/461-Sleepy-Hollow-Rd-Pittsburgh-PA-15228/11309981_zpid/","","","327365","340400","1800","161600","02/22/2023","","","","9740.02","sqft","33.61","3","2","","Vera Purcell","No","No","","461 Sleepy Hollow Rd","Pittsburgh","15228","PA","USA","40.378685","-80.02569"
"https://www.zillow.com/homedetails/761-Brafferton-Dr-Pittsburgh-PA-15228/11309296_zpid/","","","320000","333300","2500","217100","02/17/2023","","","","7579.44","sqft","42.22","4","3","","Nancy McKenna","No","No","","761 Brafferton Dr","Pittsburgh","15228","PA","USA","40.38365","-80.03016"
"https://www.zillow.com/homedetails/1533-Spreading-Oak-Dr-Pittsburgh-PA-15220/11573592_zpid/","","","321000","334400","2370","196800","02/17/2023","1998","sqft","160.66","0.27","acres","1179713.34","5","3","","Heather Kaczorowski","No","No","","1533 Spreading Oak Dr","Pittsburgh","15220","PA","USA","40.40331","-80.06529"
"https://www.zillow.com/homedetails/538-Becks-Run-Rd-S-Pittsburgh-PA-15210/2060601342_zpid/","","","327500","","1314","","02/17/2023","3281","sqft","99.82","3.2","acres","102343.75","3","2","","Shane Hinderliter","No","No","","538 Becks Run Rd S","Pittsburgh","15210","PA","USA","",""
"https://www.zillow.com/homedetails/1467-Park-Blvd-Pittsburgh-PA-15216/11655211_zpid/","","","329000","342800","1700","115100","02/16/2023","1871","sqft","175.84","3001.28","sqft","109.62","3","4","","Jennifer Stein","No","No","","1467 Park Blvd","Pittsburgh","15216","PA","USA","40.392662","-80.0408"
"https://www.zillow.com/homedetails/122-Bently-Down-Dr-Coraopolis-PA-15108/11477789_zpid/","","","325900","390700","2250","228400","02/10/2023","1728","sqft","188.6","0.34","acres","946413.6","4","3","","Joe Tarquinio","No","No","","122 Bently Down Dr","Coraopolis","15108","PA","USA","40.493332","-80.16874"
"https://www.zillow.com/homedetails/3939-Brownsville-Rd-Pittsburgh-PA-15227/11354518_zpid/","","","329000","342800","2762","132600","02/07/2023","2016","sqft","163.19","5623.6","sqft","58.5","5","5","","Pascale Beaudin","No","No","","3939 Brownsville Rd","Pittsburgh","15227","PA","USA","40.367435","-79.97817"
"https://www.zillow.com/homedetails/549-Dawson-Ave-Pittsburgh-PA-15202/11325709_zpid/","","","321000","335300","1450","135300","02/01/2023","2282","sqft","140.67","5000.69","sqft","64.19","6","2","","Mark Panichella","No","No","","549 Dawson Ave","Pittsburgh","15202","PA","USA","40.49877","-80.05532"
"https://www.zillow.com/homedetails/278-Toura-Dr-Pittsburgh-PA-15236/11546443_zpid/","","","319900","334500","2328","170300","01/26/2023","2001","sqft","159.87","9099.68","sqft","35.16","4","3","","Mark Ratti","No","No","","278 Toura Dr","Pittsburgh","15236","PA","USA","40.32021","-79.95054"
"https://www.zillow.com/homedetails/197-Shafer-Rd-Coraopolis-PA-15108/11586487_zpid/","","","322500","378500","2664","223400","01/17/2023","2150","sqft","150","0.28","acres","1155271.38","4","4","","","No","No","","197 Shafer Rd","Coraopolis","15108","PA","USA","40.533077","-80.218124"
"https://www.zillow.com/homedetails/422-Teece-Ave-Pittsburgh-PA-15202/11326120_zpid/","","","322150","337700","1911","136800","01/13/2023","3091","sqft","104.22","5000.69","sqft","64.42","5","2","","Doug Englert","No","No","","422 Teece Ave","Pittsburgh","15202","PA","USA","40.49638","-80.05209"
"https://www.zillow.com/homedetails/201-Carriage-Blvd-Pittsburgh-PA-15239/11599775_zpid/","","","321000","336500","2134","150600","01/13/2023","1722","sqft","186.41","9748.73","sqft","32.93","4","4","","Santino Merante","No","No","","201 Carriage Blvd","Pittsburgh","15239","PA","USA","40.460583","-79.77306"
"https://www.zillow.com/homedetails/738-Wyngold-Dr-Pittsburgh-PA-15237/11617209_zpid/","","","320000","335500","2050","183300","01/12/2023","1786","sqft","179.17","0.28","acres","1144901.61","3","3","","Kevin Trumble","No","No","","738 Wyngold Dr","Pittsburgh","15237","PA","USA","40.570618","-80.05853"
"https://www.zillow.com/homedetails/104-Windsor-Ct-Monroeville-PA-15146/11630099_zpid/","","","319000","334400","2600","232000","01/12/2023","2360","sqft","135.17","10018.8","sqft","31.84","4","4","","Kevin Shaner","No","No","","104 Windsor Ct","Monroeville","15146","PA","USA","40.403534","-79.75639"
"https://www.zillow.com/homedetails/422-Wimer-Dr-Pittsburgh-PA-15237/11484914_zpid/","","","329000","345500","1999","155500","01/03/2023","","","","10018.8","sqft","32.84","3","2","","Linda Honeywill","No","No","","422 Wimer Dr","Pittsburgh","15237","PA","USA","40.532074","-80.00843"
"https://www.zillow.com/homedetails/552-Audubon-Ave-Pittsburgh-PA-15228/11309975_zpid/","","","325000","341500","1662","168500","12/30/2022","1302","sqft","249.62","6120.18","sqft","53.1","3","2","","Maria Holzworth","No","No","","552 Audubon Ave","Pittsburgh","15228","PA","USA","40.37825","-80.02805"
"https://www.zillow.com/homedetails/6047-Middlefield-Dr-Mc-Donald-PA-15057/119344036_zpid/","","","320000","336300","1761","244100","12/30/2022","1548","sqft","206.72","7766.75","sqft","41.2","3","2","","Anne Kurzdorfer","No","No","","6047 Middlefield Dr","Mc Donald","15057","PA","USA","40.366543","-80.17591"
"https://www.zillow.com/homedetails/323-Alamo-Dr-Pittsburgh-PA-15241/11581073_zpid/","","","320000","336300","2129","205400","12/29/2022","1650","sqft","193.94","0.45","acres","712694.88","3","2","","Gina Fonzi","No","No","","323 Alamo Dr","Pittsburgh","15241","PA","USA","40.30715","-80.07885"
"https://www.zillow.com/homedetails/6569-Rosemoor-St-Pittsburgh-PA-15217/11639679_zpid/","","","327600","344300","2240","174100","12/29/2022","2028","sqft","161.54","3789.72","sqft","86.44","4","2","","Jordana Zober","No","No","","6569 Rosemoor St","Pittsburgh","15217","PA","USA","40.42288","-79.92143"
"https://www.zillow.com/homedetails/823-Kewanna-Ave-Pittsburgh-PA-15234/11397082_zpid/","","","325000","341900","1836","167500","12/21/2022","","","","4791.6","sqft","67.83","3","2","","Barbara Fisher","No","No","","823 Kewanna Ave","Pittsburgh","15234","PA","USA","40.362526","-80.035576"
"https://www.zillow.com/homedetails/4789-Robert-Dr-Bethel-Park-PA-15102/11431248_zpid/","","","320000","336700","2166","182300","12/20/2022","1577","sqft","202.92","0.28","acres","1147259.26","3","2.5","","","No","No","","4789 Robert Dr","Bethel Park","15102","PA","USA","40.347424","-80.0213"
"https://www.zillow.com/homedetails/5619-Sandra-Dr-Pittsburgh-PA-15236/11470778_zpid/","","","325000","342000","2400","174800","12/19/2022","1858","sqft","174.92","0.26","acres","1258226.87","4","3","","Wendy Repin","No","No","","5619 Sandra Dr","Pittsburgh","15236","PA","USA","40.340717","-80.007484"
"https://www.zillow.com/homedetails/1709-Hathaway-Ln-Pittsburgh-PA-15241/11472533_zpid/","","","321550","338500","2766","237400","12/16/2022","2352","sqft","136.71","0.75","acres","428733.33","4","3","","Barbara Baker","No","No","","1709 Hathaway Ln","Pittsburgh","15241","PA","USA","40.33797","-80.08001"
"https://www.zillow.com/homedetails/306-Meridan-St-Pittsburgh-PA-15211/11586320_zpid/","","","324900","342000","1895","221800","12/16/2022","","","","5227.2","sqft","62.16","3","2","","Reed Pirain","No","No","","306 Meridan St","Pittsburgh","15211","PA","USA","40.4334","-80.01985"
"https://www.zillow.com/homedetails/500-E-8th-Ave-Homestead-PA-15120/2069523976_zpid/","","","320000","","1893","","12/16/2022","","","","","","","","","","","No","No","","500 E 8th Ave","Homestead","15120","PA","USA","40.408634","-79.90533"
"https://www.zillow.com/homedetails/225-Commonwealth-Ave-West-Mifflin-PA-15122/11386961_zpid/","","","320000","292500","2435","120000","12/12/2022","2484","sqft","128.82","7200","sqft","44.44","5","2.5","","","No","No","","225 Commonwealth Ave","West Mifflin","15122","PA","USA","40.382496","-79.88051"
"https://www.zillow.com/homedetails/1156-Brintell-St-Pittsburgh-PA-15201/11615636_zpid/","","","320000","337100","2364","85000","12/09/2022","1566","sqft","204.34","5749.92","sqft","55.65","3","3","","Susan Cornetto","No","No","","1156 Brintell St","Pittsburgh","15201","PA","USA","40.478745","-79.93719"
"https://www.zillow.com/homedetails/3764-Legion-Dr-Gibsonia-PA-15044/11370629_zpid/","","","329000","300400","3484","275500","12/06/2022","2608","sqft","126.15","6.13","acres","53705.52","3","3","","Tina Nobers","No","No","","3764 Legion Dr","Gibsonia","15044","PA","USA","40.657654","-79.93915"
"https://www.zillow.com/homedetails/1242-Morningside-Ave-Pittsburgh-PA-15206/11619463_zpid/","","","325000","342700","1542","127300","12/01/2022","1398","sqft","232.47","3402.04","sqft","95.53","3","1","","Brandi Cugini","No","No","","1242 Morningside Ave","Pittsburgh","15206","PA","USA","40.480564","-79.93008"
"https://www.zillow.com/homedetails/387-Birch-St-Imperial-PA-15126/59846169_zpid/","","","319900","337300","4927","194900","12/01/2022","","","","3980.9","sqft","80.36","3","3","","Bob Fox","No","No","","387 Birch St","Imperial","15126","PA","USA","40.45987","-80.2497"
"https://www.zillow.com/homedetails/8635-Winchester-Dr-Pittsburgh-PA-15237/11590708_zpid/","","","325000","210800","2064","182000","11/30/2022","2161","sqft","150.39","0.28","acres","1169806.64","3","2","","","No","No","","8635 Winchester Dr","Pittsburgh","15237","PA","USA","40.56507","-80.01602"
"https://www.zillow.com/homedetails/1656-Jancey-St-Pittsburgh-PA-15206/11278747_zpid/","","","320000","337600","1498","140000","11/22/2022","2180","sqft","146.79","3700","sqft","86.49","3","1","","","No","No","","1656 Jancey St","Pittsburgh","15206","PA","USA","40.484013","-79.92796"
"https://www.zillow.com/homedetails/3520-Countrywood-Dr-Allison-Park-PA-15101/11277148_zpid/","","","320000","337600","2500","178500","11/21/2022","1966","sqft","162.77","10123.34","sqft","31.61","3","3","","Linda Boettcher","No","No","","3520 Countrywood Dr","Allison Park","15101","PA","USA","40.603443","-79.91325"
"https://www.zillow.com/homedetails/325-W-Penn-Pl-Pittsburgh-PA-15224/11524273_zpid/","","","325000","343000","1834","141200","11/18/2022","","","","3227.8","sqft","100.69","3","1","","Janet McKay","No","No","","325 W Penn Pl","Pittsburgh","15224","PA","USA","40.461395","-79.9423"
"https://www.zillow.com/homedetails/15-Ridge-Rd-Pittsburgh-PA-15221/104361891_zpid/","","","321200","339000","1502","172100","11/18/2022","1767","sqft","181.78","0.57","acres","566090.94","3","2","","Brian Niklaus","No","No","","15 Ridge Rd","Pittsburgh","15221","PA","USA","40.42002","-79.86071"
"https://www.zillow.com/homedetails/327-Ritter-Rd-Sewickley-PA-15143/11521305_zpid/","","","320000","337800","2328","167600","11/15/2022","1568","sqft","204.08","0.25","acres","1264322.4","3","3","","Ryan Edmondson","No","No","","327 Ritter Rd","Sewickley","15143","PA","USA","40.542664","-80.108025"
"https://www.zillow.com/homedetails/1521-Fernledge-Dr-Allison-Park-PA-15101/11527273_zpid/","","","320000","337900","1952","142000","11/10/2022","1516","sqft","211.08","9029.99","sqft","35.44","4","2","","Brendan McKenzie","No","No","","1521 Fernledge Dr","Allison Park","15101","PA","USA","40.54473","-79.94174"
"https://www.zillow.com/homedetails/529-Florence-Dr-Bethel-Park-PA-15102/11549015_zpid/","","","328270","346600","2100","160400","11/10/2022","1404","sqft","233.81","0.28","acres","1160374.69","3","3","","Barbara Baker","No","No","","529 Florence Dr","Bethel Park","15102","PA","USA","40.317245","-80.054855"
"https://www.zillow.com/homedetails/979-Route-910-Pittsburgh-PA-15238/11646434_zpid/","","","320000","337900","1951","121500","11/10/2022","1998","sqft","160.16","5.14","acres","62281.04","4","3","","Shelley Wood","No","No","","979 Route 910","Pittsburgh","15238","PA","USA","40.58708","-79.88472"
"https://www.zillow.com/homedetails/1302-Mount-Royal-Blvd-Pittsburgh-PA-15223/11410561_zpid/","","","319900","337800","3028","186600","11/08/2022","2361","sqft","135.49","0.35","acres","923498.85","5","3","","Nick Bova","No","No","","1302 Mount Royal Blvd","Pittsburgh","15223","PA","USA","40.519794","-79.959015"
"https://www.zillow.com/homedetails/2144-Old-Dominion-Dr-Monroeville-PA-15146/11628485_zpid/","","","322500","340500","2429","172600","11/08/2022","1904","sqft","169.38","9692.1","sqft","33.27","4","4","","Elaine Bodnar","No","No","","2144 Old Dominion Dr","Monroeville","15146","PA","USA","40.40749","-79.750435"
"https://www.zillow.com/homedetails/113-45th-St-Pittsburgh-PA-15201/11613291_zpid/","","","320000","337900","1962","100900","11/07/2022","","","","827.64","sqft","386.64","2","2","","Michael Bassilios","No","No","","113 45th St","Pittsburgh","15201","PA","USA","40.474064","-79.96177"
"https://www.zillow.com/homedetails/109-Lindberg-Dr-McKeesport-PA-15132/11501943_zpid/","","","325000","343300","1500","183900","11/04/2022","2440","sqft","133.2","0.39","acres","832275.13","4","1.5","","","No","No","","109 Lindberg Dr","McKeesport","15132","PA","USA","40.332935","-79.82191"
"https://www.zillow.com/homedetails/180-Orchard-Ave-Emsworth-PA-15202/11405173_zpid/","","","320000","338000","1910","169400","11/01/2022","1965","sqft","162.85","0.43","acres","741942.96","3","2","","Adam Heald","No","No","","180 Orchard Ave","Emsworth","15202","PA","USA","40.512337","-80.09789"
"https://www.zillow.com/homedetails/5324-Kent-Way-Pittsburgh-PA-15201/11612440_zpid/","","","324450","309600","1650","32000","10/28/2022","1176","sqft","275.89","1258.88","sqft","257.73","2","2","","Katie Boutros","No","No","","5324 Kent Way","Pittsburgh","15201","PA","USA","40.481186","-79.9497"
"https://www.zillow.com/homedetails/133-Kenney-Dr-Sewickley-PA-15143/11614659_zpid/","","","325000","343300","1849","157300","10/28/2022","1372","sqft","236.88","0.3","acres","1082972.34","3","2","","Kathryn Brandt","No","No","","133 Kenney Dr","Sewickley","15143","PA","USA","40.569717","-80.20301"
"https://www.zillow.com/homedetails/4830-Old-Boston-Rd-Pittsburgh-PA-15227/11392869_zpid/","","","327150","345600","3072","266100","10/26/2022","2916","sqft","112.19","10018.8","sqft","32.65","4","4","","Ryan Saxe","No","No","","4830 Old Boston Rd","Pittsburgh","15227","PA","USA","40.359653","-79.99853"
"https://www.zillow.com/homedetails/370-Pinehaven-Dr-Bethel-Park-PA-15102/11580856_zpid/","","","325000","343300","2199","189200","10/25/2022","1940","sqft","167.53","0.28","acres","1147598.87","4","4","","Mary Hagan","No","No","","370 Pinehaven Dr","Bethel Park","15102","PA","USA","40.31557","-80.066925"
"https://www.zillow.com/homedetails/704-Rose-Ln-Pittsburgh-PA-15234/11306738_zpid/","","","325000","343300","2400","176300","10/24/2022","1820","sqft","178.57","6098.4","sqft","53.29","3","3","","Mark Gulla","No","No","","704 Rose Ln","Pittsburgh","15234","PA","USA","40.381466","-80.01577"
"https://www.zillow.com/homedetails/415-Fort-Couch-Rd-Pittsburgh-PA-15241/11432600_zpid/","","","325000","343100","2234","263900","10/18/2022","2540","sqft","127.95","0.32","acres","1017851.55","4","3","","Judi Agostinelli","No","No","","415 Fort Couch Rd","Pittsburgh","15241","PA","USA","40.35098","-80.06258"
"https://www.zillow.com/homedetails/442-Summit-Dr-Pittsburgh-PA-15228/11309699_zpid/","","","320000","337800","1749","179800","10/14/2022","1480","sqft","216.22","7875.65","sqft","40.63","3","2","","Meredith Koon","No","No","","442 Summit Dr","Pittsburgh","15228","PA","USA","40.380413","-80.024376"
"https://www.zillow.com/homedetails/214-Woodside-Rd-Pittsburgh-PA-15221/11418812_zpid/","","","320000","337800","1360","87800","10/14/2022","","","","0.34","acres","941176.47","3","2","","Nancy Donahue","No","No","","214 Woodside Rd","Pittsburgh","15221","PA","USA","40.43565","-79.859215"
"https://www.zillow.com/homedetails/2599-Old-Washington-Rd-Pittsburgh-PA-15241/11581420_zpid/","","","325000","343100","2129","197800","10/14/2022","1716","sqft","189.39","0.45","acres","725932.54","3","2","","Jennifer Cloherty","No","No","","2599 Old Washington Rd","Pittsburgh","15241","PA","USA","40.312958","-80.08856"
"https://www.zillow.com/homedetails/1121-Sheffield-St-Pittsburgh-PA-15233/11376401_zpid/","","","325000","320100","1700","27500","10/07/2022","1600","sqft","203.13","1764","sqft","184.24","3","2","","","No","No","","1121 Sheffield St","Pittsburgh","15233","PA","USA","40.453655","-80.02184"
"https://www.zillow.com/homedetails/335-Highland-Pines-Dr-Pittsburgh-PA-15237/11521792_zpid/","","","325000","343000","2042","150000","10/07/2022","1841","sqft","176.53","0.26","acres","1247600.77","4","2","","Diane Bureman","No","No","","335 Highland Pines Dr","Pittsburgh","15237","PA","USA","40.54773","-80.047745"
"https://www.zillow.com/homedetails/312-Ridge-Rd-Sewickley-PA-15143/11555624_zpid/","","","325000","343000","1849","159500","10/07/2022","1526","sqft","212.98","1.42","acres","229033.2","3","1.5","","","No","No","","312 Ridge Rd","Sewickley","15143","PA","USA","40.556267","-80.10767"
"https://www.zillow.com/homedetails/124-Valley-Hi-Dr-Pittsburgh-PA-15229/11439891_zpid/","","","326300","345400","2400","171800","10/06/2022","","","","9604.98","sqft","33.97","4","3","","Mary Kay Abdulovic","No","No","","124 Valley Hi Dr","Pittsburgh","15229","PA","USA","40.52305","-80.06193"
"https://www.zillow.com/homedetails/5533-Bartlett-St-Pittsburgh-PA-15217/11631299_zpid/","","","322500","340300","1999","149300","10/06/2022","1344","sqft","239.96","3750.52","sqft","85.99","3","1","","Morgan Jacobs","No","No","","5533 Bartlett St","Pittsburgh","15217","PA","USA","40.435814","-79.929375"
"https://www.zillow.com/homedetails/775-Mellon-St-Pittsburgh-PA-15206/87991638_zpid/","","","325000","344000","1759","117700","10/06/2022","1227","sqft","264.87","2047.32","sqft","158.74","3","2","","Kristin Daugherty","No","No","","775 Mellon St","Pittsburgh","15206","PA","USA","40.47068","-79.925385"
"https://www.zillow.com/homedetails/515-N-Taylor-Ave-Pittsburgh-PA-15212/11388286_zpid/","","","325000","344000","1364","44500","10/04/2022","1296","sqft","250.77","635.98","sqft","511.03","2","1","","April Hubal","No","No","","515 N Taylor Ave","Pittsburgh","15212","PA","USA","40.456257","-80.01278"
"https://www.zillow.com/homedetails/2401-W-Hardies-Rd-Gibsonia-PA-15044/11275986_zpid/","","","320000","338600","1999","140000","09/30/2022","1871","sqft","171.03","1.04","acres","306807.29","4","3","","Marianne Hall","No","No","","2401 W Hardies Rd","Gibsonia","15044","PA","USA","40.604527","-79.968445"
"https://www.zillow.com/homedetails/1024-E-End-Ave-Pittsburgh-PA-15221/11343182_zpid/","","","325000","343900","2500","256500","09/30/2022","1839","sqft","176.73","3598.06","sqft","90.33","3","2","","Barbara Bolls","No","No","","1024 E End Ave","Pittsburgh","15221","PA","USA","40.43387","-79.89387"
"https://www.zillow.com/homedetails/3220-Gaylord-Ave-Pittsburgh-PA-15216/11656172_zpid/","","","320000","338600","2230","191500","09/30/2022","","","","3300","sqft","96.97","4","3","","Michele Belice","No","No","","3220 Gaylord Ave","Pittsburgh","15216","PA","USA","40.389183","-80.03954"
"https://www.zillow.com/homedetails/4345-Andover-Ter-Pittsburgh-PA-15213/11403603_zpid/","","","328700","347500","2199","82600","09/26/2022","1824","sqft","180.21","8496","sqft","38.69","5","2","","","No","No","","4345 Andover Ter","Pittsburgh","15213","PA","USA","40.452904","-79.954796"
"https://www.zillow.com/homedetails/3104-Hillcrest-Rd-Bethel-Park-PA-15102/11509877_zpid/","","","323000","341500","2129","170200","09/23/2022","2064","sqft","156.49","0.53","acres","611742.42","4","3","","Beth Thomas","No","No","","3104 Hillcrest Rd","Bethel Park","15102","PA","USA","40.332317","-80.05071"
"https://www.zillow.com/homedetails/6735-Leechburg-Rd-Verona-PA-15147/11567936_zpid/","","","325000","343600","1388","21900","09/23/2022","2580","sqft","125.97","5445","sqft","59.69","3","2","","Paul Murray","No","No","","6735 Leechburg Rd","Verona","15147","PA","USA","40.490395","-79.79432"
"https://www.zillow.com/homedetails/309-Becks-Run-Rd-Coraopolis-PA-15108/11611918_zpid/","","","325000","343600","1646","176600","09/23/2022","1320","sqft","246.21","2.44","acres","133196.72","3","2","","Dorothy Klingensmith","No","No","","309 Becks Run Rd","Coraopolis","15108","PA","USA","40.527435","-80.24386"
"https://www.zillow.com/homedetails/8198-Roosevelt-Blvd-Pittsburgh-PA-15237/11557784_zpid/","","","320000","338300","1995","216900","09/22/2022","1334","sqft","239.88","0.26","acres","1222774.17","4","3","","Shelley Wood","No","No","","8198 Roosevelt Blvd","Pittsburgh","15237","PA","USA","40.557358","-80.04699"
"https://www.zillow.com/homedetails/217-Bradford-Rd-Bradfordwoods-PA-15015/11654048_zpid/","","","319900","338200","1997","201000","09/21/2022","1989","sqft","160.83","0.78","acres","409079.28","3","2","","Deborah Redding","No","No","","217 Bradford Rd","Bradfordwoods","15015","PA","USA","40.63699","-80.08405"
"https://www.zillow.com/homedetails/962-Glencoe-Ave-Pittsburgh-PA-15220/11346602_zpid/","","","325000","343400","1817","112700","09/16/2022","1788","sqft","181.77","8903.66","sqft","36.5","3","3","","Jennifer Cloherty","No","No","","962 Glencoe Ave","Pittsburgh","15220","PA","USA","40.419228","-80.04765"
"https://www.zillow.com/homedetails/307-46th-St-Pittsburgh-PA-15201/11513082_zpid/","","","318500","347900","1677","133400","09/16/2022","893","sqft","356.66","649.04","sqft","490.72","2","3","","Nettie Mercer","No","No","","307 46th St","Pittsburgh","15201","PA","USA","40.47076","-79.95569"
"https://www.zillow.com/homedetails/268-Randy-Ln-Coraopolis-PA-15108/11518504_zpid/","","","325000","343400","1778","168300","09/15/2022","1588","sqft","204.66","10149.48","sqft","32.02","3","2","","Barbara Baker","No","No","","268 Randy Ln","Coraopolis","15108","PA","USA","40.53417","-80.19737"
"https://www.zillow.com/homedetails/4690-Gibsonia-Rd-Allison-Park-PA-15101/11277452_zpid/","","","325000","281000","1499","80000","09/14/2022","","","","3.2","acres","101562.5","3","1","","Linda Pelkofer","No","No","","4690 Gibsonia Rd","Allison Park","15101","PA","USA","40.605904","-79.89234"
"https://www.zillow.com/homedetails/123-Dalecrest-Rd-Verona-PA-15147/11490259_zpid/","","","325000","343300","1665","123600","09/14/2022","1910","sqft","170.16","0.93","acres","349725.6","3","3","","John Curry","No","No","","123 Dalecrest Rd","Verona","15147","PA","USA","40.49589","-79.82622"
"https://www.zillow.com/homedetails/34-Cedar-Blvd-Pittsburgh-PA-15228/11311401_zpid/","","","320000","338000","885","130000","09/13/2022","","","","3563.21","sqft","89.81","4","2","","Bonnie Bagay","No","No","","34 Cedar Blvd","Pittsburgh","15228","PA","USA","40.38187","-80.04575"
"https://www.zillow.com/homedetails/231-Kenney-Dr-Sewickley-PA-15143/11614503_zpid/","","","322500","340600","2495","190200","09/13/2022","","","","0.55","acres","590984.06","4","3","","Kathleen Barge","No","No","","231 Kenney Dr","Sewickley","15143","PA","USA","40.57191","-80.21236"
"https://www.zillow.com/homedetails/215-Randy-Ln-Coraopolis-PA-15108/11518577_zpid/","","","326000","344200","1911","149100","09/08/2022","","","","0.26","acres","1253846.15","3","3","","Sandra Toulouse","No","No","","215 Randy Ln","Coraopolis","15108","PA","USA","40.530872","-80.19827"
"https://www.zillow.com/homedetails/5805-Glen-Hill-Dr-Bethel-Park-PA-15102/11579463_zpid/","","","325000","343100","2696","181600","09/07/2022","2072","sqft","156.85","8885","sqft","36.58","5","2.5","","","No","No","","5805 Glen Hill Dr","Bethel Park","15102","PA","USA","40.3125","-80.04183"
"https://www.zillow.com/homedetails/205-Carriage-Blvd-Pittsburgh-PA-15239/11599777_zpid/","","","321000","338800","2094","184900","09/07/2022","1886","sqft","170.2","8951.58","sqft","35.86","4","3","","Sara Minshull","No","No","","205 Carriage Blvd","Pittsburgh","15239","PA","USA","40.46047","-79.77357"
"https://www.zillow.com/homedetails/478-Crescent-Boulevard-Ext-Crescent-PA-15046/11614232_zpid/","","","320000","340900","1714","99700","09/06/2022","","","","0.71","acres","450704.23","4","2","","Pam Keczmer","No","No","","478 Crescent Boulevard Ext","Crescent","15046","PA","USA","40.552246","-80.235085"
"https://www.zillow.com/homedetails/100-Loire-Valley-Dr-Pittsburgh-PA-15209/11442583_zpid/","","","320000","337500","2100","165600","09/01/2022","1344","sqft","238.1","8842.68","sqft","36.19","3","3","","Maggsie Sliger","No","No","","100 Loire Valley Dr","Pittsburgh","15209","PA","USA","40.526566","-79.98417"
"https://www.zillow.com/homedetails/2422-Orchard-Dr-Pittsburgh-PA-15241/11549720_zpid/","","","325000","342900","1917","169500","09/01/2022","1403","sqft","231.65","0.29","acres","1127297.95","3","3","","April Delaney","No","No","","2422 Orchard Dr","Pittsburgh","15241","PA","USA","40.3172","-80.08037"
"https://www.zillow.com/homedetails/1223-Bower-Hill-Rd-Pittsburgh-PA-15243/11360213_zpid/","","","325000","342900","2500","216400","08/31/2022","1987","sqft","163.56","6568.85","sqft","49.48","4","3","","Lisa Freeman","No","No","","1223 Bower Hill Rd","Pittsburgh","15243","PA","USA","40.374615","-80.07216"
"https://www.zillow.com/homedetails/515-Cato-St-Pittsburgh-PA-15213/11413468_zpid/","","","325000","336400","1200","180000","08/31/2022","2464","sqft","131.9","2084","sqft","155.95","2","1","","","No","No","","515 Cato St","Pittsburgh","15213","PA","USA","40.433327","-79.95568"
"https://www.zillow.com/homedetails/2500-Mae-Dr-Allison-Park-PA-15101/11560959_zpid/","","","323000","340700","2850","144000","08/26/2022","2234","sqft","144.58","0.72","acres","449735.45","4","3","","Jonny Hauge","No","No","","2500 Mae Dr","Allison Park","15101","PA","USA","40.555687","-79.96654"
"https://www.zillow.com/homedetails/5336-Keystone-St-Pittsburgh-PA-15201/11612363_zpid/","","","325000","342800","1798","67000","08/26/2022","","","","3219.08","sqft","100.96","4","2","","Brandi Cugini","No","No","","5336 Keystone St","Pittsburgh","15201","PA","USA","40.48154","-79.949715"
"https://www.zillow.com/homedetails/9735-Valley-View-Rd-Pittsburgh-PA-15237/11643620_zpid/","","","325000","342800","1994","127100","08/25/2022","1364","sqft","238.27","1.03","acres","315533.98","3","2","","Betsy Wotherspoon","No","No","","9735 Valley View Rd","Pittsburgh","15237","PA","USA","40.583904","-80.04725"
"https://www.zillow.com/homedetails/Forest-Hill-Dr-Wexford-PA-15090/164244481_zpid/","","","320000","337300","2440","503700","08/24/2022","","","","1.74","acres","184224.99","","","","","No","No","","Forest Hill Dr","Wexford","15090","PA","USA","40.609894","-80.057945"
"https://www.zillow.com/homedetails/4707-Gardenville-Rd-Pittsburgh-PA-15236/11430496_zpid/","","","329000","346900","2149","137100","08/23/2022","","","","0.6","acres","548333.33","4","3","","Barbara Fisher","No","No","","4707 Gardenville Rd","Pittsburgh","15236","PA","USA","40.349857","-80.0076"
"https://www.zillow.com/homedetails/98-E-Steuben-St-Pittsburgh-PA-15205/11475698_zpid/","","","327500","345400","1993","17000","08/23/2022","2588","sqft","126.55","7061.08","sqft","46.38","4","3","","Jenn Reddinger","No","No","","98 E Steuben St","Pittsburgh","15205","PA","USA","40.43894","-80.06202"
"https://www.zillow.com/homedetails/2159-Pendleton-Dr-Monroeville-PA-15146/11654397_zpid/","","","323500","341100","2705","213900","08/22/2022","","","","","","","5","4","","","No","No","","2159 Pendleton Dr","Monroeville","15146","PA","USA","40.407585","-79.74992"
"https://www.zillow.com/homedetails/3579-Huntertown-Rd-Allison-Park-PA-15101/11277412_zpid/","","","320000","337300","2500","174400","08/16/2022","1984","sqft","161.29","0.41","acres","788565.8","3","3","","Marlene Lotzmann","No","No","","3579 Huntertown Rd","Allison Park","15101","PA","USA","40.60108","-79.90923"
"https://www.zillow.com/homedetails/612-Lamar-Ave-Pittsburgh-PA-15221/11342395_zpid/","","","322000","339400","1700","156000","08/15/2022","","","","2208.49","sqft","145.8","3","2","","Mary Kay Abdulovic","No","No","","612 Lamar Ave","Pittsburgh","15221","PA","USA","40.4382","-79.88771"
"https://www.zillow.com/homedetails/384-Pinehaven-Dr-Bethel-Park-PA-15102/11580854_zpid/","","","325000","342500","2134","150400","08/15/2022","1870","sqft","173.8","0.28","acres","1146788.99","3","2","","Paul Murray","No","No","","384 Pinehaven Dr","Bethel Park","15102","PA","USA","40.315224","-80.06657"
"https://www.zillow.com/homedetails/500-Bower-Hill-Rd-Pittsburgh-PA-15228/11659253_zpid/","","","320000","337100","1817","84000","08/15/2022","1280","sqft","250","5201.06","sqft","61.53","3","2","","","No","No","","500 Bower Hill Rd","Pittsburgh","15228","PA","USA","40.385387","-80.052505"
"https://www.zillow.com/homedetails/639-Aljo-Dr-Pittsburgh-PA-15241/11398825_zpid/","","","319000","335900","2100","185300","08/09/2022","1374","sqft","232.17","0.25","acres","1260371.39","3","3","","Chi Chang","No","No","","639 Aljo Dr","Pittsburgh","15241","PA","USA","40.358654","-80.06852"
"https://www.zillow.com/homedetails/867-Campmeeting-Rd-Sewickley-PA-15143/11642039_zpid/","","","325000","342400","1999","185500","08/08/2022","","","","0.45","acres","728862.97","3","2","","Meg Smith","No","No","","867 Campmeeting Rd","Sewickley","15143","PA","USA","40.582638","-80.18257"
"https://www.zillow.com/homedetails/245-Linhart-Ln-Pittsburgh-PA-15236/11469372_zpid/","","","320000","337000","1694","128400","08/05/2022","1272","sqft","251.57","0.73","acres","438416.22","4","2","","Cassandra Werner","No","No","","245 Linhart Ln","Pittsburgh","15236","PA","USA","40.345207","-79.98842"
"https://www.zillow.com/homedetails/395-Baldwin-Rd-Pittsburgh-PA-15205/11256659_zpid/","","","325000","342200","1873","175000","08/03/2022","","","","0.94","acres","347593.58","3","2","","","No","No","","395 Baldwin Rd","Pittsburgh","15205","PA","USA","40.429295","-80.098366"
"https://www.zillow.com/homedetails/473-Baldwin-Rd-Pittsburgh-PA-15205/11257736_zpid/","","","320000","337000","2903","219400","08/03/2022","2400","sqft","133.33","0.44","acres","727438.05","4","4","","Brenda Deems","No","No","","473 Baldwin Rd","Pittsburgh","15205","PA","USA","40.434032","-80.09161"
"https://www.zillow.com/homedetails/6944-Meade-St-Pittsburgh-PA-15208/11287216_zpid/","","","326000","343300","1849","75500","08/03/2022","1008","sqft","323.41","4434.41","sqft","73.52","2","2","","Aida Agovic-Corna","No","No","","6944 Meade St","Pittsburgh","15208","PA","USA","40.451588","-79.90618"
"https://www.zillow.com/homedetails/6452-Rosemoor-St-Pittsburgh-PA-15217/11639613_zpid/","","","325000","342200","1784","146900","08/02/2022","1152","sqft","282.12","2827.04","sqft","114.96","3","1","","LeSans Montgomery","No","No","","6452 Rosemoor St","Pittsburgh","15217","PA","USA","40.422466","-79.92403"
"https://www.zillow.com/homedetails/3239-Pinehurst-Ave-Pittsburgh-PA-15216/11656227_zpid/","","","320000","336900","1727","214400","08/01/2022","1320","sqft","242.42","2748.64","sqft","116.42","3","2","","Katy Stanko","No","No","","3239 Pinehurst Ave","Pittsburgh","15216","PA","USA","40.38801","-80.03901"
"https://www.zillow.com/homedetails/1065-Surrey-Woods-Rd-Bethel-Park-PA-15102/11470895_zpid/","","","326500","343700","2696","176100","07/29/2022","","","","0.31","acres","1049839.23","4","4","","Michael Bassilios","No","No","","1065 Surrey Woods Rd","Bethel Park","15102","PA","USA","40.338303","-80.00551"
"https://www.zillow.com/homedetails/453-Lorlita-Ln-Bethel-Park-PA-15102/11609133_zpid/","","","322000","338800","2199","192900","07/29/2022","2027","sqft","158.86","0.34","acres","958618.64","4","2","","Jim Dolanch","No","No","","453 Lorlita Ln","Bethel Park","15102","PA","USA","40.306767","-80.07101"
"https://www.zillow.com/homedetails/140-Bonnie-View-Dr-Wexford-PA-15090/59852052_zpid/","","","328800","346100","2014","162500","07/29/2022","","","","0.5","acres","657600","4","2","","Gregory Higbee","No","No","","140 Bonnie View Dr","Wexford","15090","PA","USA","40.622986","-80.05567"
"https://www.zillow.com/homedetails/35-McCandless-Ave-Pittsburgh-PA-15201/2076557771_zpid/","","","320000","","1535","","07/28/2022","","","","","","","","","","","No","No","","35 McCandless Ave","Pittsburgh","15201","PA","USA","40.48187","-79.95406"
"https://www.zillow.com/homedetails/678-Kelso-Rd-Pittsburgh-PA-15243/11361251_zpid/","","","320000","336600","1866","142900","07/26/2022","","","","0.29","acres","1103448.28","3","2","","Barbara Baker","No","No","","678 Kelso Rd","Pittsburgh","15243","PA","USA","40.36658","-80.07294"
"https://www.zillow.com/homedetails/2645-Summit-St-Bethel-Park-PA-15102/11471907_zpid/","","","320000","336500","1799","159600","07/22/2022","","","","","","","3","2","","Jane York","No","No","","2645 Summit St","Bethel Park","15102","PA","USA","40.339256","-80.03722"
"https://www.zillow.com/homedetails/1250-Peermont-Ave-Pittsburgh-PA-15216/11656136_zpid/","","","325000","341900","2729","97000","07/21/2022","2450","sqft","132.65","3025","sqft","107.44","4","4","","Robert Dini","No","No","","1250 Peermont Ave","Pittsburgh","15216","PA","USA","40.38855","-80.041374"
"https://www.zillow.com/homedetails/679-Oxford-Blvd-Pittsburgh-PA-15243/11361235_zpid/","","","322000","338700","1900","120000","07/20/2022","1170","sqft","275.21","0.27","acres","1192592.59","3","2","","Geralyn Smith","No","No","","679 Oxford Blvd","Pittsburgh","15243","PA","USA","40.36643","-80.07348"
"https://www.zillow.com/homedetails/425-Ella-St-Pittsburgh-PA-15221/11402486_zpid/","","","320000","336400","1181","85000","07/18/2022","1561","sqft","205","2739.92","sqft","116.79","2","1","","Karen Petrozza","No","No","","425 Ella St","Pittsburgh","15221","PA","USA","40.435547","-79.87984"
"https://www.zillow.com/homedetails/321-Nelson-Dr-Monroeville-PA-15146/306759833_zpid/","","","319900","336000","1675","169600","07/18/2022","1008","sqft","317.36","9300.06","sqft","34.4","3","2","","Edward Nadolny","No","No","","321 Nelson Dr","Monroeville","15146","PA","USA","40.456783","-79.776855"
"https://www.zillow.com/homedetails/127-Wetzel-Rd-Glenshaw-PA-15116/11443667_zpid/","","","320000","336500","1969","146700","07/15/2022","1730","sqft","184.97","","","","4","2","","Linda Miller","No","No","","127 Wetzel Rd","Glenshaw","15116","PA","USA","40.524303","-79.966934"
"https://www.zillow.com/homedetails/1154-Glencoe-Ave-Pittsburgh-PA-15220/11460148_zpid/","","","329000","345900","2189","220200","07/15/2022","","","","10798.52","sqft","30.47","3","3","","Daniel Howell","No","No","","1154 Glencoe Ave","Pittsburgh","15220","PA","USA","40.412464","-80.05274"
"https://www.zillow.com/homedetails/2820-Wooster-Dr-Allison-Park-PA-15101/11526647_zpid/","","","320000","336500","2500","211500","07/15/2022","2067","sqft","154.81","0.26","acres","1217192.85","4","3","","Jay Arnone","No","No","","2820 Wooster Dr","Allison Park","15101","PA","USA","40.5428","-79.95547"
"https://www.zillow.com/homedetails/418-Hunter-Dr-Pittsburgh-PA-15237/11409449_zpid/","","","325000","341600","2100","170000","07/12/2022","1573","sqft","206.61","0.26","acres","1230594.47","4","2","","Nancy Dorn","No","No","","418 Hunter Dr","Pittsburgh","15237","PA","USA","40.520626","-79.99929"
"https://www.zillow.com/homedetails/139-Seneca-Dr-Pittsburgh-PA-15228/11397642_zpid/","","","320000","336300","2129","191100","07/08/2022","","","","8389.66","sqft","38.14","3","2","","Natalie King","No","No","","139 Seneca Dr","Pittsburgh","15228","PA","USA","40.363644","-80.05987"
"https://www.zillow.com/homedetails/1151-Balmoral-Dr-Pittsburgh-PA-15237/11558850_zpid/","","","320000","336300","1999","166000","07/08/2022","","","","9060.48","sqft","35.32","3","2","","Debra Donahue","No","No","","1151 Balmoral Dr","Pittsburgh","15237","PA","USA","40.55824","-80.013794"
"https://www.zillow.com/homedetails/330-Brookside-Blvd-Pittsburgh-PA-15241/11472156_zpid/","","","326000","342600","2149","213000","07/07/2022","1693","sqft","192.56","0.63","acres","521016.46","3","2","","Chad Glover","No","No","","330 Brookside Blvd","Pittsburgh","15241","PA","USA","40.33805","-80.06514"
"https://www.zillow.com/homedetails/1541-Grandin-Ave-Pittsburgh-PA-15216/11655033_zpid/","","","325000","341500","1999","161700","07/07/2022","2114","sqft","153.74","5501.63","sqft","59.07","4","2","","Christi Fredrick","No","No","","1541 Grandin Ave","Pittsburgh","15216","PA","USA","40.393272","-80.04396"
"https://www.zillow.com/homedetails/952-Gladys-Ave-Pittsburgh-PA-15216/11335545_zpid/","","","320000","336200","1849","138000","07/06/2022","1648","sqft","194.17","8934.16","sqft","35.82","3","2","","Aimee O'Connor","No","No","","952 Gladys Ave","Pittsburgh","15216","PA","USA","40.419895","-80.02412"
"https://www.zillow.com/homedetails/6932-McPherson-Blvd-Pittsburgh-PA-15208/11286413_zpid/","","","320000","336200","1864","104300","07/05/2022","1658","sqft","193","2282.54","sqft","140.19","4","2","","Pamela Bubenheim","No","No","","6932 McPherson Blvd","Pittsburgh","15208","PA","USA","40.45344","-79.90528"
"https://www.zillow.com/homedetails/145-Ramage-Rd-Pittsburgh-PA-15214/11328829_zpid/","","","320000","336200","2032","189600","07/05/2022","","","","1.13","acres","283110.68","3","3","","","No","No","","145 Ramage Rd","Pittsburgh","15214","PA","USA","40.491768","-79.99898"
"https://www.zillow.com/homedetails/6038-Dalmation-Dr-Bethel-Park-PA-15102/11608123_zpid/","","","324500","340900","2370","168800","07/05/2022","","","","0.29","acres","1130662.02","3","3","","Barbara Baker","No","No","","6038 Dalmation Dr","Bethel Park","15102","PA","USA","40.301456","-80.034035"
"https://www.zillow.com/homedetails/4063-Brownsville-Rd-Pittsburgh-PA-15227/11354426_zpid/","","","327000","343400","1650","198200","07/01/2022","2088","sqft","156.61","5148.79","sqft","63.51","4","3","","Ryan Edmondson","No","No","","4063 Brownsville Rd","Pittsburgh","15227","PA","USA","40.36622","-79.98113"
"https://www.zillow.com/homedetails/1421-Lakeside-Dr-Allison-Park-PA-15101/11526908_zpid/","","","325000","341300","1999","196900","07/01/2022","1868","sqft","173.98","0.45","acres","716332.38","3","2","","Beth Danchek","No","No","","1421 Lakeside Dr","Allison Park","15101","PA","USA","40.549366","-79.94651"
"https://www.zillow.com/homedetails/192-Coleen-Dr-Pittsburgh-PA-15236/61279349_zpid/","","","325000","341300","2681","156400","07/01/2022","2038","sqft","159.47","1","acres","323383.08","4","4","","Becca Knezevich","No","No","","192 Coleen Dr","Pittsburgh","15236","PA","USA","40.32944","-79.959885"
"https://www.zillow.com/homedetails/3512-Leech-St-Pittsburgh-PA-15201/11514461_zpid/","","","320000","335900","1499","37400","06/29/2022","1100","sqft","290.91","1633.5","sqft","195.9","3","1","","Beth Danchek","No","No","","3512 Leech St","Pittsburgh","15201","PA","USA","40.464535","-79.96499"
"https://www.zillow.com/homedetails/8813-Peebles-Rd-Allison-Park-PA-15101/11590655_zpid/","","","322000","338100","2100","254600","06/28/2022","1384","sqft","232.66","0.32","acres","1006879.3","3","2","","Kimberly Murray","No","No","","8813 Peebles Rd","Allison Park","15101","PA","USA","40.568386","-80.00622"
"https://www.zillow.com/homedetails/9444-Katherine-Dr-Allison-Park-PA-15101/11618114_zpid/","","","328000","344400","2149","202200","06/28/2022","1594","sqft","205.77","0.59","acres","557568","3","2.5","","","No","No","","9444 Katherine Dr","Allison Park","15101","PA","USA","40.578697","-80.01938"
"https://www.zillow.com/homedetails/210-Altoona-Pl-Pittsburgh-PA-15228/11312705_zpid/","","","320000","336000","1751","147600","06/27/2022","1821","sqft","175.73","4356","sqft","73.46","4","1","","Kathleen Mathison","No","No","","210 Altoona Pl","Pittsburgh","15228","PA","USA","40.383846","-80.05068"
"https://www.zillow.com/homedetails/507-Blossom-Dr-Pittsburgh-PA-15236/11470399_zpid/","","","320000","356000","1700","146600","06/27/2022","1785","sqft","179.27","8315.6","sqft","38.48","4","3","","Melissa Merriman","No","No","","507 Blossom Dr","Pittsburgh","15236","PA","USA","40.344074","-80.00057"
"https://www.zillow.com/homedetails/4719-Hampton-Farms-Dr-Allison-Park-PA-15101/11259094_zpid/","","","325000","341200","2169","191100","06/24/2022","","","","0.5","acres","650000","3","3","","Rachael Schafer","No","No","","4719 Hampton Farms Dr","Allison Park","15101","PA","USA","40.59414","-79.93392"
"https://www.zillow.com/homedetails/287-McKim-Dr-Pittsburgh-PA-15239/11262087_zpid/","","","325000","341200","1710","122900","06/23/2022","1392","sqft","233.48","1","acres","326206.97","4","2","","","No","No","","287 McKim Dr","Pittsburgh","15239","PA","USA","40.466877","-79.72974"
"https://www.zillow.com/homedetails/4548-Bakerstown-Culmerville-Rd-Gibsonia-PA-15044/11370711_zpid/","","","321000","337000","1766","137300","06/23/2022","1944","sqft","165.12","1.68","acres","191071.43","4","2","","Paula Hinston","No","No","","4548 Bakerstown Culmerville Rd","Gibsonia","15044","PA","USA","40.659805","-79.88168"
"https://www.zillow.com/homedetails/3301-Mount-Royal-Blvd-Glenshaw-PA-15116/11525692_zpid/","","","320000","335900","2500","175600","06/23/2022","2181","sqft","146.72","0.57","acres","560126.03","3","3","","Mary Kay Abdulovic","No","No","","3301 Mount Royal Blvd","Glenshaw","15116","PA","USA","40.548237","-79.9728"
"https://www.zillow.com/homedetails/713-Midway-Dr-Pittsburgh-PA-15215/11373916_zpid/","","","325600","341700","1951","201000","06/21/2022","1654","sqft","196.86","0.27","acres","1213566.9","3","2","","Michaela Tripon","No","No","","713 Midway Dr","Pittsburgh","15215","PA","USA","40.501873","-79.9321"
"https://www.zillow.com/homedetails/129-Marshall-Ave-Pittsburgh-PA-15214/11609830_zpid/","","","325000","341100","3481","110200","06/21/2022","2668","sqft","121.81","3428.17","sqft","94.8","6","3","","Jessica Baker","No","No","","129 Marshall Ave","Pittsburgh","15214","PA","USA","40.474674","-80.01225"
"https://www.zillow.com/homedetails/2426-Rochester-Rd-Sewickley-PA-15143/11257228_zpid/","","","319000","228500","1350","56000","06/17/2022","1226","sqft","260.2","1.06","acres","300940.79","2","1","","","No","No","","2426 Rochester Rd","Sewickley","15143","PA","USA","40.5906","-80.10485"
"https://www.zillow.com/homedetails/5131-Willock-Rd-E-Pittsburgh-PA-15236/11428044_zpid/","","","320000","335500","1314","110400","06/17/2022","1000","sqft","320","0.48","acres","666692.18","2","2","","","No","No","","5131 Willock Rd E","Pittsburgh","15236","PA","USA","40.355057","-79.96552"
"https://www.zillow.com/homedetails/117-Lang-Dr-Coraopolis-PA-15108/11553259_zpid/","","","326000","342100","2100","193300","06/17/2022","1474","sqft","221.17","0.27","acres","1219147.34","3","3","","Michael Fragello","No","No","","117 Lang Dr","Coraopolis","15108","PA","USA","40.51226","-80.212746"
"https://www.zillow.com/homedetails/4046-Cabinet-St-Pittsburgh-PA-15224/11514834_zpid/","","","328050","344200","1907","77400","06/16/2022","1304","sqft","251.57","0.43","acres","762906.98","3","2","","Allison Pochapin","No","No","","4046 Cabinet St","Pittsburgh","15224","PA","USA","40.46407","-79.95558"
"https://www.zillow.com/homedetails/144-Lohengrin-Dr-Pittsburgh-PA-15209/11442744_zpid/","","","320000","335700","2100","196500","06/14/2022","","","","10171.26","sqft","31.46","3","2","","Gregory Higbee","No","No","","144 Lohengrin Dr","Pittsburgh","15209","PA","USA","40.523857","-79.984024"
"https://www.zillow.com/homedetails/143-N-Jamestown-Rd-Coraopolis-PA-15108/11553892_zpid/","","","319900","335500","2370","155100","06/10/2022","1958","sqft","163.38","9583.2","sqft","33.38","3","3","","CHRISTOPHER CARR","No","No","","143 N Jamestown Rd","Coraopolis","15108","PA","USA","40.533207","-80.208855"
"https://www.zillow.com/homedetails/217-Ridge-Rd-Sewickley-PA-15143/11555612_zpid/","","","320000","335600","1995","177400","06/10/2022","","","","1","acres","320000","4","2","","Chi Chang","No","No","","217 Ridge Rd","Sewickley","15143","PA","USA","40.55506","-80.10948"
"https://www.zillow.com/homedetails/33-Lemoyne-Ave-Pittsburgh-PA-15228/11312208_zpid/","","","324000","339800","1679","120200","06/09/2022","","","","2517.77","sqft","128.69","3","1","","Holly Chamberlin","No","No","","33 Lemoyne Ave","Pittsburgh","15228","PA","USA","40.376774","-80.04466"
"https://www.zillow.com/homedetails/191-Sheldon-Ave-Pittsburgh-PA-15220/11460053_zpid/","","","320900","336500","1880","206300","06/08/2022","1436","sqft","223.47","8450.64","sqft","37.97","3","2","","Heather Kaczorowski","No","No","","191 Sheldon Ave","Pittsburgh","15220","PA","USA","40.412785","-80.059135"
"https://www.zillow.com/homedetails/214-Lytton-Rd-Coraopolis-PA-15108/11553868_zpid/","","","318300","333800","2056","195500","06/08/2022","1677","sqft","189.8","0.28","acres","1151591.9","3","3","","Anthony Dasta","No","No","","214 Lytton Rd","Coraopolis","15108","PA","USA","40.53121","-80.2119"
"https://www.zillow.com/homedetails/9671-Shirley-Dr-Allison-Park-PA-15101/11644296_zpid/","","","320000","335400","2169","177500","06/07/2022","1476","sqft","216.8","0.28","acres","1138790.04","2","3","","April Hubal","No","No","","9671 Shirley Dr","Allison Park","15101","PA","USA","40.58332","-80.0011"
"https://www.zillow.com/homedetails/5131-E-Willock-Rd-Pittsburgh-PA-15236/2064107260_zpid/","","","320000","335400","1313","","06/06/2022","","","","0.48","acres","672834.31","2","2","","Andrew Guillot","No","No","","5131 E Willock Rd","Pittsburgh","15236","PA","USA","",""
"https://www.zillow.com/homedetails/333-Cedarville-St-Pittsburgh-PA-15224/11402448_zpid/","","","320000","335500","2014","122400","06/03/2022","1728","sqft","185.19","1380.85","sqft","231.74","3","3","","Ryan Edmondson","No","No","","333 Cedarville St","Pittsburgh","15224","PA","USA","40.460697","-79.94946"
"https://www.zillow.com/homedetails/452-Woodland-Rd-Pittsburgh-PA-15237/11485019_zpid/","","","325000","340700","2100","153400","06/02/2022","1564","sqft","207.8","0.27","acres","1225952.47","3","2","","Kristen Gallo","No","No","","452 Woodland Rd","Pittsburgh","15237","PA","USA","40.532494","-80.00346"
"https://www.zillow.com/homedetails/9850-Bellcrest-Rd-Pittsburgh-PA-15237/11643265_zpid/","","","328000","343800","1997","180400","06/01/2022","1514","sqft","216.64","0.9","acres","364444.44","4","2","","Ronald Guthrie","No","No","","9850 Bellcrest Rd","Pittsburgh","15237","PA","USA","40.587154","-80.05294"
"https://www.zillow.com/homedetails/228-Edmond-St-Pittsburgh-PA-15224/11520593_zpid/","","","320000","335400","2100","90000","05/31/2022","2070","sqft","154.59","1624.79","sqft","196.95","4","3","","Kristen Elk","No","No","","228 Edmond St","Pittsburgh","15224","PA","USA","40.46442","-79.9478"
"https://www.zillow.com/homedetails/363-Haugh-Dr-Pittsburgh-PA-15237/11590311_zpid/","","","325000","340700","1994","165900","05/31/2022","1456","sqft","223.21","0.37","acres","880281.69","3","2","","Christine Caropresi","No","No","","363 Haugh Dr","Pittsburgh","15237","PA","USA","40.562557","-80.03344"
"https://www.zillow.com/homedetails/6-Elm-Ln-Leetsdale-PA-15056/11587383_zpid/","","","320000","335400","2100","168200","05/27/2022","","","","10044.94","sqft","31.86","3","3","","Jill Stehnach","No","No","","6 Elm Ln","Leetsdale","15056","PA","USA","40.56269","-80.20215"
"https://www.zillow.com/homedetails/2143-Pendleton-Dr-Monroeville-PA-15146/11628572_zpid/","","","324900","353400","2298","201100","05/27/2022","2226","sqft","145.96","10572.01","sqft","30.73","5","3","","Lisa Yates","No","No","","2143 Pendleton Dr","Monroeville","15146","PA","USA","40.40668","-79.75012"
"https://www.zillow.com/homedetails/203-Warren-Ct-Imperial-PA-15126/337926876_zpid/","","","320150","335500","1969","261800","05/27/2022","1520","sqft","210.63","0.27","acres","1183346.12","3","2","","","No","No","","203 Warren Ct","Imperial","15126","PA","USA","40.448162","-80.25852"
"https://www.zillow.com/homedetails/317-Edgewood-Rd-Pittsburgh-PA-15221/11381843_zpid/","","","319000","334300","1481","122200","05/26/2022","","","","8250.26","sqft","38.67","3","3","","Ryan Shedlock","No","No","","317 Edgewood Rd","Pittsburgh","15221","PA","USA","40.43003","-79.868"
"https://www.zillow.com/homedetails/1245-Cocker-Dr-Bethel-Park-PA-15102/11638414_zpid/","","","328000","343800","1794","176500","05/26/2022","1422","sqft","230.66","0.33","acres","982624.33","3","2","","","No","No","","1245 Cocker Dr","Bethel Park","15102","PA","USA","40.29584","-80.03249"
"https://www.zillow.com/homedetails/262-Cliffview-Rd-Pittsburgh-PA-15212/11268168_zpid/","","","320000","335400","2392","107500","05/25/2022","1782","sqft","179.57","0.54","acres","589535.74","4","3","","Naomi Harris","No","No","","262 Cliffview Rd","Pittsburgh","15212","PA","USA","40.49065","-80.03939"
"https://www.zillow.com/homedetails/970-Braddock-Rd-Pittsburgh-PA-15221/11418859_zpid/","","","320000","335400","2766","240400","05/25/2022","2640","sqft","121.21","0.62","acres","513643.66","4","3","","Robert Altimore","No","No","","970 Braddock Rd","Pittsburgh","15221","PA","USA","40.434128","-79.8529"
"https://www.zillow.com/homedetails/7004-State-Route-908-Tarentum-PA-15084/11371399_zpid/","","","320000","335400","1435","101000","05/23/2022","","","","9.46","acres","33826.64","2","2","","Jack Hutterer","No","No","","7004 State Route 908","Tarentum","15084","PA","USA","40.66181","-79.77974"
"https://www.zillow.com/homedetails/2511-Mission-St-Pittsburgh-PA-15203/11307661_zpid/","","","327000","342700","1764","173000","05/20/2022","1748","sqft","187.07","1498.46","sqft","218.22","3","2","","Joe Yost","No","No","","2511 Mission St","Pittsburgh","15203","PA","USA","40.423016","-79.97159"
"https://www.zillow.com/homedetails/206-Spartan-Dr-Bethel-Park-PA-15102/11471657_zpid/","","","320000","335400","2093","165000","05/20/2022","1818","sqft","176.02","0.38","acres","851290.24","3","2","","Cindy Rack","No","No","","206 Spartan Dr","Bethel Park","15102","PA","USA","40.342815","-80.0459"
"https://www.zillow.com/homedetails/230-Smith-Way-Pittsburgh-PA-15211/11516674_zpid/","","","320000","335400","1694","53900","05/20/2022","1608","sqft","199","2178","sqft","146.92","3","2","","CHRISTOPHER CARR","No","No","","230 Smith Way","Pittsburgh","15211","PA","USA","40.423733","-80.008095"
"https://www.zillow.com/homedetails/Rossmont-Pl-New-Kensington-PA-15068/294903871_zpid/","","","320000","332000","1194","34260","05/20/2022","","","","0.28","acres","1140967.5","","","","","No","No","","Rossmont Pl","New Kensington","15068","PA","USA","40.528202","-79.756584"
"https://www.zillow.com/homedetails/206-215-Spartan-Dr-Bethel-Park-PA-15102/2064138176_zpid/","","","320000","","1773","","05/20/2022","","","","","","","","","","","No","No","","206-215 Spartan Dr","Bethel Park","15102","PA","USA","",""
"https://www.zillow.com/homedetails/1468-Great-Oak-Dr-Pittsburgh-PA-15220/11573559_zpid/","","","325000","340600","2299","180300","05/19/2022","1768","sqft","183.82","9970.88","sqft","32.59","4","3","","Hope Feldman","No","No","","1468 Great Oak Dr","Pittsburgh","15220","PA","USA","40.403942","-80.06356"
"https://www.zillow.com/homedetails/113-Dover-Dr-Coraopolis-PA-15108/11584360_zpid/","","","326000","341700","2028","151000","05/16/2022","1676","sqft","194.51","0.36","acres","908331.01","3","3","","Michael Reed","No","No","","113 Dover Dr","Coraopolis","15108","PA","USA","40.527817","-80.22102"
"https://www.zillow.com/homedetails/1334-Hazenwood-Dr-Monroeville-PA-15146/11654329_zpid/","","","325000","340600","2369","183800","05/16/2022","2223","sqft","146.2","0.25","acres","1300000","5","3","","Loreen Abriola","No","No","","1334 Hazenwood Dr","Monroeville","15146","PA","USA","40.410908","-79.73934"
"https://www.zillow.com/homedetails/194-Sylvania-Dr-Pittsburgh-PA-15236/11546816_zpid/","","","325000","340700","1808","185100","05/12/2022","2263","sqft","143.61","9086.62","sqft","35.77","4","2","","Jeannette Ruf","No","No","","194 Sylvania Dr","Pittsburgh","15236","PA","USA","40.32255","-79.98778"
"https://www.zillow.com/homedetails/5714-Janet-Dr-Pittsburgh-PA-15236/11470524_zpid/","","","320000","335400","1700","119400","05/11/2022","1066","sqft","300.19","0.26","acres","1249032.26","3","2","","","No","No","","5714 Janet Dr","Pittsburgh","15236","PA","USA","40.343143","-80.01172"
