Property URL,MLS ID,Number of days on Zillow,Property price (USD),Zestimate (USD),Rent zestimate (USD per month),Tax assessed value (USD),Sold date (MM/DD/YYYY),Living area,Living area unit,Price per living area unit (USD),Lot/land area,Lot/land area unit,Price per lot/land area unit (USD),Bedrooms,Bathrooms,Broker name,Broker agent,Is owner occupied,Property owned by Zillow,Property unit number,Street address,City,Zip,State,Country,Latitude,Longitude
"https://www.zillow.com/homedetails/1031-Shawnee-Ridge-Dr-Cheswick-PA-15024/62983101_zpid/","","","410000","438500","3200","210900","10/16/2023","","","","0.25","acres","1640000","4","4","","Luann Killian","No","No","","1031 Shawnee Ridge Dr","Cheswick","15024","PA","USA","40.56448","-79.84398"
"https://www.zillow.com/homedetails/152-Alta-Vista-Dr-Imperial-PA-15126/338888165_zpid/","","","412185","","996","2500","10/16/2023","2203","sqft","187.1","8755.56","sqft","47.08","4","3","","David Bruckner","No","No","","152 Alta Vista Dr","Imperial","15126","PA","USA","40.451023","-80.255646"
"https://www.zillow.com/homedetails/4815-Hatfield-St-Pittsburgh-PA-15201/11612564_zpid/","","","406500","406500","1984","97600","10/13/2023","1200","sqft","338.75","1089","sqft","373.28","3","2","","Liz Swartz","No","No","","4815 Hatfield St","Pittsburgh","15201","PA","USA","40.47707","-79.958565"
"https://www.zillow.com/homedetails/935-Savannah-Ave-Pittsburgh-PA-15221/11343107_zpid/","","","405500","405500","2400","142000","10/12/2023","","","","3049.2","sqft","132.99","4","2","","Mary Anne Kirby","No","No","","935 Savannah Ave","Pittsburgh","15221","PA","USA","40.43549","-79.89306"
"https://www.zillow.com/homedetails/2822-Espy-Ave-Pittsburgh-PA-15216/11571333_zpid/","","","400000","400000","1866","160000","10/12/2023","2506","sqft","159.62","9099.68","sqft","43.96","5","2","","Janette Schafer","No","No","","2822 Espy Ave","Pittsburgh","15216","PA","USA","40.39788","-80.03426"
"https://www.zillow.com/homedetails/1030-Heths-Ave-Pittsburgh-PA-15206/11620309_zpid/","","","410000","410000","2068","70000","10/10/2023","1329","sqft","308.5","3998.81","sqft","102.53","3","3","","Mark McAdams-Templeton","No","No","","1030 Heths Ave","Pittsburgh","15206","PA","USA","40.476017","-79.928085"
"https://www.zillow.com/homedetails/972-Willow-Dr-Pittsburgh-PA-15237/11484163_zpid/","","","400000","400000","2500","195000","10/06/2023","2052","sqft","194.93","10123.34","sqft","39.51","4","3","","Raemie Bachman","No","No","","972 Willow Dr","Pittsburgh","15237","PA","USA","40.53397","-80.03275"
"https://www.zillow.com/homedetails/2814-Sullivan-Dr-Glenshaw-PA-15116/11526062_zpid/","","","400000","400000","2500","166300","10/06/2023","2176","sqft","183.82","5906.74","sqft","67.72","4","3","","Alyssa Olenych","No","No","","2814 Sullivan Dr","Glenshaw","15116","PA","USA","40.543022","-79.982445"
"https://www.zillow.com/homedetails/1109-E-End-Ave-Pittsburgh-PA-15218/11343633_zpid/","","","412000","412000","2340","317600","10/05/2023","1816","sqft","226.87","2614.5","sqft","157.58","4","2","","Jill Portland","No","No","","1109 E End Ave","Pittsburgh","15218","PA","USA","40.43304","-79.89263"
"https://www.zillow.com/homedetails/636-Royce-Ave-Pittsburgh-PA-15243/11659172_zpid/","","","405000","405000","1949","149500","10/04/2023","1377","sqft","294.12","4251.46","sqft","95.26","3","2","","Elaine Goldblum","No","No","","636 Royce Ave","Pittsburgh","15243","PA","USA","40.386208","-80.05591"
"https://www.zillow.com/homedetails/306-Filly-Cir-Clinton-PA-15026/164712979_zpid/","","","412000","412000","2614","230700","09/29/2023","2120","sqft","194.34","9404.6","sqft","43.81","4","4","","Kimberly Yot","No","No","","306 Filly Cir","Clinton","15026","PA","USA","40.482964","-80.316086"
"https://www.zillow.com/homedetails/106-Dixon-Dr-Pittsburgh-PA-15209/11442704_zpid/","","","409000","409000","2828","197700","09/28/2023","2287","sqft","178.84","0.26","acres","1561068.7","4","3","","Bryan Reilly","No","No","","106 Dixon Dr","Pittsburgh","15209","PA","USA","40.52349","-79.98898"
"https://www.zillow.com/homedetails/304-McCormick-Rd-Pittsburgh-PA-15205/164608718_zpid/","","","400000","400000","2824","299400","09/28/2023","","","","","","","4","3","","Deborah Dattalo","No","No","","304 McCormick Rd","Pittsburgh","15205","PA","USA","40.44435","-80.134674"
"https://www.zillow.com/homedetails/100-S-Linwood-Ave-Pittsburgh-PA-15205/11583257_zpid/","","","405000","405000","3847","211600","09/27/2023","2845","sqft","142.36","5998.21","sqft","67.52","5","5","","Gina Giampietro","No","No","","100 S Linwood Ave","Pittsburgh","15205","PA","USA","40.428913","-80.075165"
"https://www.zillow.com/homedetails/1117-Powers-Run-Rd-Pittsburgh-PA-15238/11414120_zpid/","","","400000","400000","1940","183000","09/25/2023","1797","sqft","222.59","0.45","acres","888888.89","3","3","","Jane Herrmann","No","No","","1117 Powers Run Rd","Pittsburgh","15238","PA","USA","40.51102","-79.85696"
"https://www.zillow.com/homedetails/6003-Boxer-Dr-Bethel-Park-PA-15102/11607771_zpid/","","","409900","409800","2770","219600","09/22/2023","2256","sqft","181.69","9147.6","sqft","44.81","4","3","","Sara Minshull","No","No","","6003 Boxer Dr","Bethel Park","15102","PA","USA","40.304707","-80.03628"
"https://www.zillow.com/homedetails/9511-Woodcrest-Rd-Pittsburgh-PA-15237/11643519_zpid/","","","410000","410000","1999","183100","09/22/2023","2169","sqft","189.03","0.81","acres","504243.02","3","2","","Mark Yurcon","No","No","","9511 Woodcrest Rd","Pittsburgh","15237","PA","USA","40.579582","-80.06207"
"https://www.zillow.com/homedetails/134-Elmhurst-Dr-Coraopolis-PA-15108/11640914_zpid/","","","410000","409900","2466","186700","09/19/2023","","","","0.4","acres","1030150.75","3","3","","Gina Giampietro","No","No","","134 Elmhurst Dr","Coraopolis","15108","PA","USA","40.530376","-80.264656"
"https://www.zillow.com/homedetails/40-S-28th-St-Pittsburgh-PA-15203/116178799_zpid/","","","414000","414000","1800","275000","09/19/2023","","","","614.2","sqft","674.05","1","2","","Bonnie Bagay","No","No","","40 S 28th St","Pittsburgh","15203","PA","USA","40.425293","-79.96699"
"https://www.zillow.com/homedetails/1520-Cathell-Rd-Pittsburgh-PA-15236/11641566_zpid/","","","406000","405900","2555","194000","09/15/2023","2418","sqft","167.91","0.29","acres","1423063.44","4","3","","Mark Ratti","No","No","","1520 Cathell Rd","Pittsburgh","15236","PA","USA","40.387123","-79.94653"
"https://www.zillow.com/homedetails/3516-Countrywood-Dr-Allison-Park-PA-15101/11277150_zpid/","","","400000","399900","2485","164500","09/11/2023","1896","sqft","210.97","0.25","acres","1575423.4","3","3","","Peggy Lips","No","No","","3516 Countrywood Dr","Allison Park","15101","PA","USA","40.603523","-79.913795"
"https://www.zillow.com/homedetails/3856-Saxonburg-Blvd-Cheswick-PA-15024/11259531_zpid/","","","407000","407200","2485","205900","09/08/2023","","","","3.74","acres","108736.31","3","3","","Linda Pelkofer","No","No","","3856 Saxonburg Blvd","Cheswick","15024","PA","USA","40.59417","-79.87155"
"https://www.zillow.com/homedetails/106-Candlewyck-Dr-Glenshaw-PA-15116/11411125_zpid/","","","405000","404900","2400","221100","09/08/2023","1700","sqft","238.24","8999.5","sqft","45","4","3","","Zita Billmann","No","No","","106 Candlewyck Dr","Glenshaw","15116","PA","USA","40.518494","-79.94642"
"https://www.zillow.com/homedetails/510-10th-St-Oakmont-PA-15139/11489188_zpid/","","","410000","409900","1584","240400","09/01/2023","","","","5662.8","sqft","72.4","4","2","","Rachael Schafer","No","No","","510 10th St","Oakmont","15139","PA","USA","40.517162","-79.83211"
"https://www.zillow.com/homedetails/2342-California-Dr-Allison-Park-PA-15101/11560579_zpid/","","","406000","405900","2070","110400","09/01/2023","1550","sqft","261.94","0.78","acres","519115.2","4","3","","Gina Giampietro","No","No","","2342 California Dr","Allison Park","15101","PA","USA","40.55431","-79.975296"
"https://www.zillow.com/homedetails/1252-Sun-Ridge-Dr-Pittsburgh-PA-15241/11473289_zpid/","","","407000","407000","2100","173300","08/31/2023","2244","sqft","181.37","0.3","acres","1356666.67","3","3","","Diane Horvath","No","No","","1252 Sun Ridge Dr","Pittsburgh","15241","PA","USA","40.34079","-80.102165"
"https://www.zillow.com/homedetails/107-Tiffany-Ridge-Dr-Coraopolis-PA-15108/11517619_zpid/","","","399900","399800","2745","225800","08/31/2023","2262","sqft","176.79","0.28","acres","1454181.82","4","4","","Angie Flowers","No","No","","107 Tiffany Ridge Dr","Coraopolis","15108","PA","USA","40.51815","-80.18701"
"https://www.zillow.com/homedetails/1325-Parkway-Rd-Pittsburgh-PA-15237/11590825_zpid/","","","410000","409900","2999","191300","08/31/2023","2378","sqft","172.41","0.62","acres","661290.32","4","3","","Jane Bloch","No","No","","1325 Parkway Rd","Pittsburgh","15237","PA","USA","40.56409","-80.00847"
"https://www.zillow.com/homedetails/200-Inwood-Rd-Pittsburgh-PA-15237/11617597_zpid/","","","410000","409900","2100","185400","08/31/2023","2179","sqft","188.16","0.82","acres","497572.82","4","2","","Amy Marks","No","No","","200 Inwood Rd","Pittsburgh","15237","PA","USA","40.575012","-80.04043"
"https://www.zillow.com/homedetails/9445-Magellan-Dr-Pittsburgh-PA-15237/11618063_zpid/","","","407100","407000","1999","137100","08/31/2023","1450","sqft","280.76","0.35","acres","1171173.76","3","2","","Arron Groomes","No","No","","9445 Magellan Dr","Pittsburgh","15237","PA","USA","40.57791","-80.02246"
"https://www.zillow.com/homedetails/128-Tartan-Rd-Gibsonia-PA-15044/116179412_zpid/","","","410000","409900","3329","217800","08/31/2023","","","","9657.25","sqft","42.46","4","3","","Janet McKay","No","No","","128 Tartan Rd","Gibsonia","15044","PA","USA","40.620453","-79.955696"
"https://www.zillow.com/homedetails/1763-Locust-Rd-Sewickley-PA-15143/11642667_zpid/","","","410000","410100","1867","174200","08/28/2023","","","","1.35","acres","303703.7","3","3","","Jeremy Mulder","No","No","","1763 Locust Rd","Sewickley","15143","PA","USA","40.587696","-80.10874"
"https://www.zillow.com/homedetails/472-Sage-Dr-Pittsburgh-PA-15243/11313299_zpid/","","","400000","400100","2100","161600","08/25/2023","","","","6250.86","sqft","63.99","3","3","","Daniel Rusbosin","No","No","","472 Sage Dr","Pittsburgh","15243","PA","USA","40.378727","-80.05788"
"https://www.zillow.com/homedetails/9336-Doral-Dr-Pittsburgh-PA-15237/11617487_zpid/","","","400000","400200","2370","204100","08/24/2023","1768","sqft","226.24","0.27","acres","1491980.6","4","3","","Betsy Wotherspoon","No","No","","9336 Doral Dr","Pittsburgh","15237","PA","USA","40.5756","-80.0473"
"https://www.zillow.com/homedetails/474-Beaver-St-Leetsdale-PA-15056/11587354_zpid/","","","402000","402300","1281","28600","08/23/2023","2241","sqft","179.38","1","acres","402000","4","2","","Kelley Homitsky","No","No","","474 Beaver St","Leetsdale","15056","PA","USA","40.564465","-80.2052"
"https://www.zillow.com/homedetails/224-Gross-St-Pittsburgh-PA-15224/11520860_zpid/","","","401000","401100","2600","149200","08/22/2023","","","","3136.32","sqft","127.86","3","3","","Domenic Greco","No","No","","224 Gross St","Pittsburgh","15224","PA","USA","40.464012","-79.94459"
"https://www.zillow.com/homedetails/8113-Palomino-Dr-Bridgeville-PA-15017/59858332_zpid/","","","405000","405100","2702","274200","08/21/2023","2242","sqft","180.64","0.38","acres","1065789.47","3","3","","Cindy Rack","No","No","","8113 Palomino Dr","Bridgeville","15017","PA","USA","40.32299","-80.137886"
"https://www.zillow.com/homedetails/304-Biddle-Ave-Pittsburgh-PA-15221/11342709_zpid/","","","408000","407800","2540","235000","08/18/2023","2310","sqft","176.62","3118.9","sqft","130.82","3","3","","Naomi Grabowski","No","No","","304 Biddle Ave","Pittsburgh","15221","PA","USA","40.437534","-79.89284"
"https://www.zillow.com/homedetails/1186-Arrowood-Dr-Pittsburgh-PA-15243/11360607_zpid/","","","410000","410000","2064","201000","08/17/2023","1580","sqft","259.49","8407.08","sqft","48.77","3","3","","Nancy McKenna","No","No","","1186 Arrowood Dr","Pittsburgh","15243","PA","USA","40.371033","-80.06925"
"https://www.zillow.com/homedetails/8396-Post-Rd-Allison-Park-PA-15101/11591306_zpid/","","","405000","405400","2500","203500","08/14/2023","1970","sqft","205.58","0.25","acres","1614832.54","4","3","","Deirdre Dowd","No","No","","8396 Post Rd","Allison Park","15101","PA","USA","40.563026","-79.99036"
"https://www.zillow.com/homedetails/1392-Old-Meadow-Rd-Pittsburgh-PA-15241/11433884_zpid/","","","400000","399200","2859","237300","08/11/2023","2349","sqft","170.29","0.33","acres","1198681.45","4","3","","Michael Kelly","No","No","","1392 Old Meadow Rd","Pittsburgh","15241","PA","USA","40.35124","-80.094284"
"https://www.zillow.com/homedetails/104-Daisy-Ln-Wexford-PA-15090/59846917_zpid/","","","400000","365400","2100","195000","08/10/2023","1488","sqft","268.82","1","acres","400000","3","2.5","","","No","No","","104 Daisy Ln","Wexford","15090","PA","USA","40.645725","-80.0858"
"https://www.zillow.com/homedetails/160-Alta-Vista-Dr-Imperial-PA-15126/338888161_zpid/","","","399710","","1069","2500","08/08/2023","","","","9601","sqft","41.63","","","","","No","No","","160 Alta Vista Dr","Imperial","15126","PA","USA","40.450497","-80.25586"
"https://www.zillow.com/homedetails/797-Frickwood-Dr-South-Park-PA-15129/337926944_zpid/","","","405901","","1558","2200","08/07/2023","","","","0.25","acres","1593030.68","","","","","No","No","","797 Frickwood Dr","South Park","15129","PA","USA","40.280903","-79.97391"
"https://www.zillow.com/homedetails/198-Dana-Dr-Sewickley-PA-15143/333136138_zpid/","","","405177","","2067","600","08/03/2023","","","","3677","sqft","110.19","","","","","No","No","","198 Dana Dr","Sewickley","15143","PA","USA","40.565147","-80.10591"
"https://www.zillow.com/homedetails/125-Alta-Vista-Dr-Imperial-PA-15126/337926861_zpid/","","","405935","405900","2450","700","08/03/2023","2203","sqft","184.26","10149.48","sqft","40","4","3","","David Bruckner","No","No","","125 Alta Vista Dr","Imperial","15126","PA","USA","40.450077","-80.25873"
"https://www.zillow.com/homedetails/1236-Rolling-Meadow-Rd-Pittsburgh-PA-15241/11472598_zpid/","","","402500","402500","2600","203400","08/01/2023","","","","0.42","acres","955376.22","4","3","","Bonnie Bagay","No","No","","1236 Rolling Meadow Rd","Pittsburgh","15241","PA","USA","40.345146","-80.09883"
"https://www.zillow.com/homedetails/460-Arden-Rd-Pittsburgh-PA-15216/11658846_zpid/","","","410000","409900","1650","155500","07/31/2023","","","","4791.6","sqft","85.57","4","2","","Kimberley Fisher","No","No","","460 Arden Rd","Pittsburgh","15216","PA","USA","40.38836","-80.05478"
"https://www.zillow.com/homedetails/2376-Jenkinson-Dr-Pittsburgh-PA-15237/11643029_zpid/","","","400000","400000","3122","274200","07/28/2023","2574","sqft","155.4","0.5","acres","804828.97","3","3","","Deborah Reddick","No","No","","2376 Jenkinson Dr","Pittsburgh","15237","PA","USA","40.586582","-80.07233"
"https://www.zillow.com/homedetails/306-Windsor-Dr-Coraopolis-PA-15108/11477614_zpid/","","","410000","409500","2500","275000","07/27/2023","1942","sqft","211.12","0.28","acres","1440112.4","3","3","","Amy Logan","No","No","","306 Windsor Dr","Coraopolis","15108","PA","USA","40.494488","-80.177414"
"https://www.zillow.com/homedetails/147-Melinda-Ct-Sewickley-PA-15143/333136209_zpid/","","","405765","","2242","600","07/26/2023","","","","3963","sqft","102.39","","","","","No","No","","147 Melinda Ct","Sewickley","15143","PA","USA","40.564423","-80.11124"
"https://www.zillow.com/homedetails/113-Shady-Dr-W-Pittsburgh-PA-15228/11310958_zpid/","","","410000","410800","1756","150200","07/20/2023","","","","5998.21","sqft","68.35","3","2","","Jennifer Schalk","No","No","","113 Shady Dr W","Pittsburgh","15228","PA","USA","40.38307","-80.04779"
"https://www.zillow.com/homedetails/1757-Emery-Dr-Allison-Park-PA-15101/11644287_zpid/","","","400000","400800","2199","227200","07/20/2023","1548","sqft","258.4","9652.9","sqft","41.44","3","3","","Dustin Hook","No","No","","1757 Emery Dr","Allison Park","15101","PA","USA","40.58298","-80.000145"
"https://www.zillow.com/homedetails/737-Wyngold-Dr-Pittsburgh-PA-15237/11617222_zpid/","","","410000","410900","3122","255200","07/17/2023","2680","sqft","152.99","0.26","acres","1587301.59","4","3","","Laurie Melle","No","No","","737 Wyngold Dr","Pittsburgh","15237","PA","USA","40.570415","-80.05905"
"https://www.zillow.com/homedetails/9725-Bellcrest-Rd-Pittsburgh-PA-15237/11643439_zpid/","","","410500","411400","2889","154000","07/17/2023","2368","sqft","173.35","0.5","acres","821000","4","4","","Ralph Harvey","No","No","","9725 Bellcrest Rd","Pittsburgh","15237","PA","USA","40.58334","-80.05501"
"https://www.zillow.com/homedetails/1436-Macon-Ave-Pittsburgh-PA-15218/11344284_zpid/","","","400000","401000","2109","217800","07/14/2023","","","","3598.06","sqft","111.17","4","2","","Maureen States","No","No","","1436 Macon Ave","Pittsburgh","15218","PA","USA","40.427315","-79.89422"
"https://www.zillow.com/homedetails/404-Poplar-Ct-Coraopolis-PA-15108/11640926_zpid/","","","410000","411100","2700","222100","07/13/2023","2453","sqft","167.14","0.53","acres","776662.25","3","4","","Raymond Carnevali","No","No","","404 Poplar Ct","Coraopolis","15108","PA","USA","40.529625","-80.26277"
"https://www.zillow.com/homedetails/140-Alta-Vista-Dr-Imperial-PA-15126/338888171_zpid/","","","407735","","999","2500","07/12/2023","","","","8380","sqft","48.66","","","","","No","No","","140 Alta Vista Dr","Imperial","15126","PA","USA","40.45174","-80.25648"
"https://www.zillow.com/homedetails/8814-Perry-Hwy-Pittsburgh-PA-15237/11590143_zpid/","","","405000","406200","1829","105700","07/11/2023","","","","0.75","acres","540000","4","2","","Kimberly Murray","No","No","","8814 Perry Hwy","Pittsburgh","15237","PA","USA","40.566322","-80.03725"
"https://www.zillow.com/homedetails/121-Winchester-Dr-Pittsburgh-PA-15239/121887297_zpid/","","","405000","404700","3125","279700","07/10/2023","2320","sqft","174.57","0.37","acres","1099945.68","4","4","","Granville Johnson","No","No","","121 Winchester Dr","Pittsburgh","15239","PA","USA","40.506763","-79.77023"
"https://www.zillow.com/homedetails/5625-Aiken-Rd-Mc-Kees-Rocks-PA-15136/11365219_zpid/","","","410000","410900","2500","204700","07/07/2023","1906","sqft","215.11","0.33","acres","1231271.98","4","2.5","","","No","No","","5625 Aiken Rd","Mc Kees Rocks","15136","PA","USA","40.457684","-80.12476"
"https://www.zillow.com/homedetails/138-Wescott-Dr-Pittsburgh-PA-15237/11481712_zpid/","","","410000","410900","2392","152700","07/07/2023","1783","sqft","229.95","9099.68","sqft","45.06","4","3","","Betsy Wotherspoon","No","No","","138 Wescott Dr","Pittsburgh","15237","PA","USA","40.53749","-80.05986"
"https://www.zillow.com/homedetails/125-Regal-Ct-Monroeville-PA-15146/11630401_zpid/","","","401000","401900","3258","199500","07/07/2023","2986","sqft","134.29","1.5","acres","266799.73","4","4","","Max Feinberg","No","No","","125 Regal Ct","Monroeville","15146","PA","USA","40.39621","-79.76121"
"https://www.zillow.com/homedetails/5625-Aiken-Robinson-Ter-Mc-Kees-Rocks-PA-15136/2057892948_zpid/","","","410000","","1355","","07/07/2023","","","","","","","4","4","","Dee Minear","No","No","","5625 Aiken Robinson Ter","Mc Kees Rocks","15136","PA","USA","",""
"https://www.zillow.com/homedetails/140-Bigham-St-Pittsburgh-PA-15211/11363477_zpid/","","","405000","497600","2926","133000","07/05/2023","2649","sqft","152.89","5760","sqft","70.31","4","2","","","No","No","","140 Bigham St","Pittsburgh","15211","PA","USA","40.434696","-80.015175"
"https://www.zillow.com/homedetails/821-Macarthur-Dr-Pittsburgh-PA-15228/11397007_zpid/","","","399888","401000","2470","154600","06/30/2023","1901","sqft","210.36","6242.15","sqft","64.06","3","3","","Kassie Cable","No","No","","821 Macarthur Dr","Pittsburgh","15228","PA","USA","40.36134","-80.03722"
"https://www.zillow.com/homedetails/210-Southvue-Dr-Pittsburgh-PA-15236/11429647_zpid/","","","402500","403600","2705","198100","06/30/2023","2233","sqft","180.25","0.59","acres","679783.82","3","3","","Glenn Ott","No","No","","210 Southvue Dr","Pittsburgh","15236","PA","USA","40.3496","-79.9832"
"https://www.zillow.com/homedetails/856-Hulton-Rd-Verona-PA-15147/11531360_zpid/","","","407500","408600","1592","121600","06/30/2023","","","","1.09","acres","373853.21","5","5","","Ryan Shedlock","No","No","","856 Hulton Rd","Verona","15147","PA","USA","40.49488","-79.80525"
"https://www.zillow.com/homedetails/2126-Carriage-Hill-Rd-Allison-Park-PA-15101/11559984_zpid/","","","401500","402600","2070","205900","06/30/2023","2109","sqft","190.37","0.26","acres","1542451.02","4","3","","Dawn Steinbrink","No","No","","2126 Carriage Hill Rd","Allison Park","15101","PA","USA","40.554565","-79.99323"
"https://www.zillow.com/homedetails/998-Broad-Meadow-Dr-Pittsburgh-PA-15237/11589802_zpid/","","","399500","400600","2670","235400","06/30/2023","2204","sqft","181.26","0.3","acres","1350118.28","4","3","","Mindy Pry","No","No","","998 Broad Meadow Dr","Pittsburgh","15237","PA","USA","40.56162","-80.06417"
"https://www.zillow.com/homedetails/217-Browntown-Rd-New-Kensington-PA-15068/11624164_zpid/","","","410000","411200","1595","184400","06/30/2023","1538","sqft","266.58","5.86","acres","70025.62","3","2","","Jodi Petrarca","No","No","","217 Browntown Rd","New Kensington","15068","PA","USA","40.535957","-79.754745"
"https://www.zillow.com/homedetails/3075-Beechwood-Blvd-Pittsburgh-PA-15217/11640098_zpid/","","","410000","411200","2069","170000","06/29/2023","2080","sqft","197.12","2500.34","sqft","163.98","5","2","","Lauren Kalogeris Hepler","No","No","","3075 Beechwood Blvd","Pittsburgh","15217","PA","USA","40.42061","-79.92094"
"https://www.zillow.com/homedetails/1641-Aster-Ln-Crescent-PA-15046/64793402_zpid/","","","411000","412200","2988","242000","06/29/2023","2920","sqft","140.75","0.44","acres","934090.91","4","4","","Lisa Walker","No","No","","1641 Aster Ln","Crescent","15046","PA","USA","40.546024","-80.22452"
"https://www.zillow.com/homedetails/638-Briarwood-Ave-Pittsburgh-PA-15228/11357613_zpid/","","","405000","406400","1800","172800","06/26/2023","1764","sqft","229.59","5998.21","sqft","67.52","3","2","","Daniel Scioscia","No","No","","638 Briarwood Ave","Pittsburgh","15228","PA","USA","40.37455","-80.02758"
"https://www.zillow.com/homedetails/210-Beech-St-Pittsburgh-PA-15218/11381557_zpid/","","","400000","401600","1571","241000","06/23/2023","1912","sqft","209.21","8001","sqft","49.99","5","2","","","No","No","","210 Beech St","Pittsburgh","15218","PA","USA","40.432606","-79.877365"
"https://www.zillow.com/homedetails/7155-Penn-Ave-Pittsburgh-PA-15208/11287834_zpid/","","","411000","416400","2129","159900","06/22/2023","2885","sqft","142.46","4791.6","sqft","85.78","4","2","","Robert Moncavage","No","No","","7155 Penn Ave","Pittsburgh","15208","PA","USA","40.44961","-79.9017"
"https://www.zillow.com/homedetails/148-Alta-Vista-Dr-Imperial-PA-15126/338888167_zpid/","","","406120","","999","2500","06/22/2023","","","","9027","sqft","44.99","","","","","No","No","","148 Alta Vista Dr","Imperial","15126","PA","USA","40.451344","-80.25583"
"https://www.zillow.com/homedetails/9475-Peebles-Rd-Allison-Park-PA-15101/11618669_zpid/","","","401250","403100","2500","239200","06/20/2023","2020","sqft","198.64","0.34","acres","1165069.69","3","3","","Jocelyn Petrosky","No","No","","9475 Peebles Rd","Allison Park","15101","PA","USA","40.57865","-79.99661"
"https://www.zillow.com/homedetails/110-Downing-Dr-Coraopolis-PA-15108/11477736_zpid/","","","405000","407100","2400","209600","06/16/2023","2090","sqft","193.78","0.39","acres","1047052.74","3","3","","Long Pham","No","No","","110 Downing Dr","Coraopolis","15108","PA","USA","40.49402","-80.17611"
"https://www.zillow.com/homedetails/9109-Timberglen-Dr-Imperial-PA-15126/59851131_zpid/","","","400000","402100","2628","286200","06/16/2023","2140","sqft","186.92","10123.34","sqft","39.51","4","4","","Linda Diffendal","No","No","","9109 Timberglen Dr","Imperial","15126","PA","USA","40.44849","-80.21732"
"https://www.zillow.com/homedetails/106-Harbor-Dr-Mc-Donald-PA-15057/87995201_zpid/","","","405000","407100","2498","249900","06/16/2023","2054","sqft","197.18","0.46","acres","887185.1","4","3","","Jeremy Mulder","No","No","","106 Harbor Dr","Mc Donald","15057","PA","USA","40.40285","-80.26158"
"https://www.zillow.com/homedetails/1411-Old-Meadow-Rd-Pittsburgh-PA-15241/11433833_zpid/","","","400000","402200","2663","199500","06/15/2023","2058","sqft","194.36","10258.38","sqft","38.99","5","3","","Diane Tatano","No","No","","1411 Old Meadow Rd","Pittsburgh","15241","PA","USA","40.352554","-80.09588"
"https://www.zillow.com/homedetails/1106-Dana-Dr-Bethel-Park-PA-15102/11639112_zpid/","","","410000","412200","2466","241200","06/15/2023","1870","sqft","219.25","0.36","acres","1153305.2","4","3","","Barbara Baker","No","No","","1106 Dana Dr","Bethel Park","15102","PA","USA","40.29247","-80.0461"
"https://www.zillow.com/homedetails/1331-Centerman-Ave-Bethel-Park-PA-15102/11607069_zpid/","","","400000","402200","1800","157300","06/14/2023","1688","sqft","236.97","0.32","acres","1250000","3","2","","Jim Dolanch","No","No","","1331 Centerman Ave","Bethel Park","15102","PA","USA","40.302673","-80.0236"
"https://www.zillow.com/homedetails/9-Fernwood-Ave-Pittsburgh-PA-15228/11311180_zpid/","","","400000","402300","1800","185500","06/13/2023","1972","sqft","202.84","6189.88","sqft","64.62","3","2","","Wendy Weaver","No","No","","9 Fernwood Ave","Pittsburgh","15228","PA","USA","40.3832","-80.037544"
"https://www.zillow.com/homedetails/219-Ruxton-St-Pittsburgh-PA-15211/11517190_zpid/","","","399900","387700","2100","241000","06/13/2023","1870","sqft","213.85","5000.69","sqft","79.97","3","3","","Michele Leone","No","No","","219 Ruxton St","Pittsburgh","15211","PA","USA","40.42512","-80.00192"
"https://www.zillow.com/homedetails/310-Skylark-Dr-Coraopolis-PA-15108/11641429_zpid/","","","405500","407900","2666","253900","06/12/2023","2583","sqft","156.99","10149.48","sqft","39.95","5","4","","Raymond Carnevali","No","No","","310 Skylark Dr","Coraopolis","15108","PA","USA","40.531433","-80.254425"
"https://www.zillow.com/homedetails/924-Copper-Creek-Trl-Gibsonia-PA-15044/338888202_zpid/","","","413400","","1825","400","06/12/2023","","","","0.29","acres","1436823.11","","","","","No","No","","924 Copper Creek Trl","Gibsonia","15044","PA","USA","40.627163","-79.91437"
"https://www.zillow.com/homedetails/172-44th-St-Pittsburgh-PA-15201/11512784_zpid/","","","402500","405100","2297","69800","06/09/2023","1460","sqft","275.68","858.13","sqft","469.04","3","3","","Katrina McClelland","No","No","","172 44th St","Pittsburgh","15201","PA","USA","40.47202","-79.960846"
"https://www.zillow.com/homedetails/241-Horse-Shoe-Dr-Clinton-PA-15026/242629943_zpid/","","","405000","407800","2700","272000","06/07/2023","2248","sqft","180.16","0.26","acres","1538753.8","4","3","","Dawn Foster","No","No","","241 Horse Shoe Dr","Clinton","15026","PA","USA","40.483356","-80.31726"
"https://www.zillow.com/homedetails/715-Vallevista-Ave-Pittsburgh-PA-15234/11396750_zpid/","","","405000","407800","1811","199600","06/06/2023","1716","sqft","236.01","4800.31","sqft","84.37","3","2","","Morgan Bardzil","No","No","","715 Vallevista Ave","Pittsburgh","15234","PA","USA","40.364414","-80.0363"
"https://www.zillow.com/homedetails/2407-Clearview-Dr-Glenshaw-PA-15116/11485908_zpid/","","","399900","402700","2998","189600","06/06/2023","2368","sqft","168.88","0.42","acres","944307.69","3","3","","","No","No","","2407 Clearview Dr","Glenshaw","15116","PA","USA","40.535717","-79.981735"
"https://www.zillow.com/homedetails/307-Sunnyfield-Dr-Glenshaw-PA-15116/11486056_zpid/","","","400000","402800","2500","250000","06/06/2023","2032","sqft","196.85","9147.6","sqft","43.73","3","3","","Cathy Wanserski","No","No","","307 Sunnyfield Dr","Glenshaw","15116","PA","USA","40.533043","-79.981895"
"https://www.zillow.com/homedetails/130-Eade-Ave-Glenshaw-PA-15116/11525868_zpid/","","","400000","402900","2500","177900","06/05/2023","2000","sqft","200","0.51","acres","788488.07","3","3","","Dave Bryant","No","No","","130 Eade Ave","Glenshaw","15116","PA","USA","40.546818","-79.976746"
"https://www.zillow.com/homedetails/6738-Elk-Rush-Dr-Imperial-PA-15126/59850883_zpid/","","","407500","410400","2749","243000","06/05/2023","","","","10149.48","sqft","40.15","4","4","","Adam Valeriano","No","No","","6738 Elk Rush Dr","Imperial","15126","PA","USA","40.448563","-80.21786"
"https://www.zillow.com/homedetails/111-Ennerdale-Ln-Pittsburgh-PA-15237/11559526_zpid/","","","400000","403100","2988","194700","06/02/2023","2370","sqft","168.78","0.34","acres","1187406.3","5","2.5","","","No","No","","111 Ennerdale Ln","Pittsburgh","15237","PA","USA","40.550953","-80.00653"
"https://www.zillow.com/homedetails/117-Bridal-Ln-Oakdale-PA-15071/121886818_zpid/","","","407700","410800","2400","295700","06/02/2023","","","","0.67","acres","608507.46","4","3","","Jackie Horvath","No","No","","117 Bridal Ln","Oakdale","15071","PA","USA","40.425705","-80.23279"
"https://www.zillow.com/homedetails/531-Austin-Ave-Pittsburgh-PA-15243/11313600_zpid/","","","402000","405100","1700","173000","06/01/2023","","","","","","","3","2","","Sara Abraham-Hofmann","No","No","","531 Austin Ave","Pittsburgh","15243","PA","USA","40.37696","-80.05902"
"https://www.zillow.com/homedetails/630-Broughton-Rd-Bethel-Park-PA-15102/11470877_zpid/","","","400000","403100","1919","232300","06/01/2023","","","","2.45","acres","163265.31","4","2","","Melissa West-Latin","No","No","","630 Broughton Rd","Bethel Park","15102","PA","USA","40.3367","-80.01111"
"https://www.zillow.com/homedetails/2421-Rolling-Farms-Rd-Glenshaw-PA-15116/11486802_zpid/","","","400000","403100","1999","170200","06/01/2023","1870","sqft","213.9","2178","sqft","183.65","4","3","","Charlotte Gibbons","No","No","","2421 Rolling Farms Rd","Glenshaw","15116","PA","USA","40.54001","-79.94117"
"https://www.zillow.com/homedetails/116-Hawthorne-Dr-Pittsburgh-PA-15235/11494539_zpid/","","","410000","413300","2776","184200","05/31/2023","2728","sqft","150.29","0.33","acres","1245443.5","4","3","","Krista Lorenzo","No","No","","116 Hawthorne Dr","Pittsburgh","15235","PA","USA","40.436005","-79.81807"
"https://www.zillow.com/homedetails/121-Delano-Dr-Pittsburgh-PA-15236/11506960_zpid/","","","405000","408300","1719","135000","05/31/2023","2574","sqft","157.34","8180.57","sqft","49.51","5","4","","Cye Murphy","No","No","","121 Delano Dr","Pittsburgh","15236","PA","USA","40.332973","-79.95945"
"https://www.zillow.com/homedetails/106-Lebanon-Hills-Dr-Pittsburgh-PA-15228/11358784_zpid/","","","410000","413900","2134","192800","05/30/2023","1673","sqft","245.07","8400","sqft","48.81","3","2","","","No","No","","106 Lebanon Hills Dr","Pittsburgh","15228","PA","USA","40.36833","-80.04834"
"https://www.zillow.com/homedetails/9008-Meadow-Oaks-Dr-Allison-Park-PA-15101/11591009_zpid/","","","412000","415500","2500","207700","05/30/2023","2097","sqft","196.47","0.43","acres","948871.49","3","4","","Diana Staudenmaier","No","No","","9008 Meadow Oaks Dr","Allison Park","15101","PA","USA","40.569145","-79.99372"
"https://www.zillow.com/homedetails/218-Dana-Dr-Sewickley-PA-15143/333136175_zpid/","","","409905","","2039","500","05/30/2023","","","","3350","sqft","122.36","","","","","No","No","","218 Dana Dr","Sewickley","15143","PA","USA","40.565002","-80.104515"
"https://www.zillow.com/homedetails/7213-Whipple-St-Pittsburgh-PA-15218/11344448_zpid/","","","400000","403800","1416","122500","05/26/2023","1843","sqft","217.04","3301.85","sqft","121.14","4","3","","Michelle Moreno-DeCarlo","No","No","","7213 Whipple St","Pittsburgh","15218","PA","USA","40.424625","-79.89668"
"https://www.zillow.com/homedetails/2308-Clearvue-Rd-Pittsburgh-PA-15237/11616485_zpid/","","","405000","408900","2925","241500","05/26/2023","2468","sqft","164.1","1.03","acres","392061.96","4","3","","Karen Connor","No","No","","2308 Clearvue Rd","Pittsburgh","15237","PA","USA","40.57904","-80.066864"
"https://www.zillow.com/homedetails/2692-Marshfield-Dr-Pittsburgh-PA-15241/11581650_zpid/","","","410000","414000","2781","310300","05/25/2023","2310","sqft","177.49","0.34","acres","1195335.28","4","4","","Wendy Weaver","No","No","","2692 Marshfield Dr","Pittsburgh","15241","PA","USA","40.307262","-80.08699"
"https://www.zillow.com/homedetails/133-Cassia-Dr-Clairton-PA-15025/11250959_zpid/","","","400000","364700","2710","180400","05/23/2023","2040","sqft","196.08","0.33","acres","1212121.21","4","3","","Lori Maffeo","No","No","","133 Cassia Dr","Clairton","15025","PA","USA","40.28509","-79.95332"
"https://www.zillow.com/homedetails/3616-Elm-Ave-Pittsburgh-PA-15234/11358178_zpid/","","","405500","409800","2095","42500","05/22/2023","","","","7405.2","sqft","54.76","4","3","","Erin Berg","No","No","","3616 Elm Ave","Pittsburgh","15234","PA","USA","40.36684","-80.01864"
"https://www.zillow.com/homedetails/1624-Branning-Rd-Pittsburgh-PA-15235/11454147_zpid/","","","399900","404500","1571","253600","05/19/2023","2007","sqft","199.25","0.41","acres","983038.35","3","2","","Ryan Shedlock","No","No","","1624 Branning Rd","Pittsburgh","15235","PA","USA","40.439804","-79.84286"
"https://www.zillow.com/homedetails/663-Shady-Dr-E-Pittsburgh-PA-15228/11311420_zpid/","","","405000","410100","1817","167400","05/18/2023","1928","sqft","210.06","4800","sqft","84.38","3","2","","","No","No","","663 Shady Dr E","Pittsburgh","15228","PA","USA","40.381203","-80.04271"
"https://www.zillow.com/homedetails/4209-Sherrod-St-Pittsburgh-PA-15201/11513516_zpid/","","","410000","414900","2034","143600","05/18/2023","2020","sqft","202.97","2574.4","sqft","159.26","4","3","","Sean Kelly","No","No","","4209 Sherrod St","Pittsburgh","15201","PA","USA","40.467922","-79.95639"
"https://www.zillow.com/homedetails/4115-High-St-South-Park-PA-15129/87988076_zpid/","","","409000","414000","2714","218200","05/17/2023","2181","sqft","187.53","0.39","acres","1048717.95","4","4","","John Geisler","No","No","","4115 High St","South Park","15129","PA","USA","40.290527","-80.0214"
"https://www.zillow.com/homedetails/343-Cornell-Ave-Pittsburgh-PA-15229/11406597_zpid/","","","408000","413200","1884","142900","05/15/2023","2108","sqft","193.55","4800.31","sqft","84.99","4","4","","Jean Ou","No","No","","343 Cornell Ave","Pittsburgh","15229","PA","USA","40.51538","-80.04376"
"https://www.zillow.com/homedetails/663-Shady-Dr-Pittsburgh-PA-15228/2058272130_zpid/","","","405000","","1669","","05/15/2023","1928","sqft","210.06","4800.31","sqft","84.37","4","2","","Karin Smith","No","No","","663 Shady Dr","Pittsburgh","15228","PA","USA","",""
"https://www.zillow.com/homedetails/2272-Wood-Acres-Ct-Pittsburgh-PA-15237/11616631_zpid/","","","412000","417600","3300","253100","05/12/2023","2504","sqft","164.54","1.58","acres","260759.49","4","3","","Lisa Peters","No","No","","2272 Wood Acres Ct","Pittsburgh","15237","PA","USA","40.573658","-80.07145"
"https://www.zillow.com/homedetails/111-21st-St-Pittsburgh-PA-15215/11334909_zpid/","","","407500","413100","2764","45600","05/11/2023","2112","sqft","192.95","2552.62","sqft","159.64","4","4","","Julie Rost","No","No","","111 21st St","Pittsburgh","15215","PA","USA","40.494083","-79.9159"
"https://www.zillow.com/homedetails/247-Gerrie-Dr-Pittsburgh-PA-15241/11609457_zpid/","","","402000","407900","2400","175900","05/08/2023","1819","sqft","221","0.46","acres","866379.31","4","3","","Nina Lang","No","No","","247 Gerrie Dr","Pittsburgh","15241","PA","USA","40.305386","-80.08638"
"https://www.zillow.com/homedetails/1021-Woodhill-Dr-Gibsonia-PA-15044/11317727_zpid/","","","410000","416400","2705","222400","05/05/2023","2223","sqft","184.44","0.46","acres","887445.89","4","3","","Stephanie Fresh","No","No","","1021 Woodhill Dr","Gibsonia","15044","PA","USA","40.623745","-79.93667"
"https://www.zillow.com/homedetails/816-7th-St-Oakmont-PA-15139/11447266_zpid/","","","412500","418900","2100","341200","05/05/2023","1782","sqft","231.48","0.25","acres","1624655.38","4","3","","Lisa Rutkowski","No","No","","816 7th St","Oakmont","15139","PA","USA","40.523136","-79.83577"
"https://www.zillow.com/homedetails/5649-Woodmont-St-Pittsburgh-PA-15217/11630688_zpid/","","","410000","416400","1500","302700","05/05/2023","2794","sqft","146.74","3963.96","sqft","103.43","4","3","","Heather Kaczorowski","No","No","","5649 Woodmont St","Pittsburgh","15217","PA","USA","40.44228","-79.925804"
"https://www.zillow.com/homedetails/334-Sycamore-St-Imperial-PA-15126/59845790_zpid/","","","407500","413900","1849","245000","05/05/2023","1736","sqft","234.74","1","acres","407500","3","3","","Alexis Cuervo","No","No","","334 Sycamore St","Imperial","15126","PA","USA","40.45658","-80.252075"
"https://www.zillow.com/homedetails/123-Grove-Ave-Pittsburgh-PA-15229/11409356_zpid/","","","400000","406300","2998","188300","05/04/2023","2433","sqft","164.41","0.87","acres","457456.54","4","4","","Emily Fraser","No","No","","123 Grove Ave","Pittsburgh","15229","PA","USA","40.515465","-80.01472"
"https://www.zillow.com/homedetails/335-Main-St-Pittsburgh-PA-15201/11513927_zpid/","","","400000","406500","1840","81100","05/03/2023","1409","sqft","283.89","2744.28","sqft","145.76","2","2","","Robyn Jones","No","No","","335 Main St","Pittsburgh","15201","PA","USA","40.46705","-79.95671"
"https://www.zillow.com/homedetails/121-Parkview-Dr-Pittsburgh-PA-15239/333136000_zpid/","","","399486","","1492","1400","05/03/2023","","","","0.39","acres","1017519.01","","","","","No","No","","121 Parkview Dr","Pittsburgh","15239","PA","USA","40.47738","-79.73074"
"https://www.zillow.com/homedetails/2278-Clairmont-Dr-Pittsburgh-PA-15241/11472979_zpid/","","","410000","416700","2670","238100","05/02/2023","2100","sqft","195.24","0.31","acres","1342062.19","3","3","","Edward Hrabik","No","No","","2278 Clairmont Dr","Pittsburgh","15241","PA","USA","40.340584","-80.08632"
"https://www.zillow.com/homedetails/201-Outlook-Dr-Pittsburgh-PA-15228/11358560_zpid/","","","405000","411800","1996","155900","05/01/2023","1533","sqft","264.19","4652","sqft","87.06","3","3","","","No","No","","201 Outlook Dr","Pittsburgh","15228","PA","USA","40.372097","-80.04757"
"https://www.zillow.com/homedetails/118-Greenwood-Pl-Bridgeville-PA-15017/11400048_zpid/","","","405000","412200","1778","122300","04/28/2023","1650","sqft","245.45","5501.63","sqft","73.61","3","2","","Jodi Lesniakowski","No","No","","118 Greenwood Pl","Bridgeville","15017","PA","USA","40.356453","-80.109"
"https://www.zillow.com/homedetails/109-Cove-Run-Rd-Cheswick-PA-15024/11622085_zpid/","","","404000","411200","1755","140000","04/28/2023","1358","sqft","297.5","11.72","acres","34470.99","3","2","","Eileen Lusk","No","No","","109 Cove Run Rd","Cheswick","15024","PA","USA","40.57203","-79.847046"
"https://www.zillow.com/homedetails/425-Lorlita-Ln-Pittsburgh-PA-15241/11581191_zpid/","","","400000","408200","1999","262500","04/21/2023","1366","sqft","292.83","0.33","acres","1207364.93","3","3","","Kelli Verosky","No","No","","425 Lorlita Ln","Pittsburgh","15241","PA","USA","40.308323","-80.07188"
"https://www.zillow.com/homedetails/101-Merrie-Woode-Dr-Pittsburgh-PA-15235/11494477_zpid/","","","410000","418600","3343","285000","04/20/2023","2750","sqft","149.09","1.2","acres","341666.67","4","4","","Benjamin Ross","No","No","","101 Merrie Woode Dr","Pittsburgh","15235","PA","USA","40.43596","-79.82662"
"https://www.zillow.com/homedetails/187-Wheatland-Rd-Wexford-PA-15090/59847095_zpid/","","","410000","419500","1995","249200","04/20/2023","1986","sqft","206.45","1.13","acres","362837.76","4","2","","","No","No","","187 Wheatland Rd","Wexford","15090","PA","USA","40.64755","-80.087456"
"https://www.zillow.com/homedetails/75-Forest-Rd-Bradfordwoods-PA-15015/59842290_zpid/","","","410000","418700","2100","186000","04/19/2023","1482","sqft","276.65","0.98","acres","417192.65","2","2.5","","","No","No","","75 Forest Rd","Bradfordwoods","15015","PA","USA","40.63547","-80.08005"
"https://www.zillow.com/homedetails/746-Crawford-Rd-Pittsburgh-PA-15237/11481572_zpid/","","","405000","413900","1589","139900","04/17/2023","","","","3.86","acres","104922.28","3","2","","Leann Monz","No","No","","746 Crawford Rd","Pittsburgh","15237","PA","USA","40.537075","-80.087494"
"https://www.zillow.com/homedetails/353-Nelson-Dr-Monroeville-PA-15146/337926738_zpid/","","","401935","","1595","400","04/13/2023","","","","10801","sqft","37.21","","","","","No","No","","353 Nelson Dr","Monroeville","15146","PA","USA","40.457745","-79.77995"
"https://www.zillow.com/homedetails/239-Bluestone-Dr-Bethel-Park-PA-15102/11639208_zpid/","","","410000","419800","2662","299900","04/12/2023","","","","0.41","acres","990338.16","3","3","","Rose Lepore","No","No","","239 Bluestone Dr","Bethel Park","15102","PA","USA","40.297363","-80.06293"
"https://www.zillow.com/homedetails/3910-Mimosa-Dr-Bethel-Park-PA-15102/11578857_zpid/","","","406291","416300","2768","247000","04/10/2023","2244","sqft","181.06","0.32","acres","1264128.81","4","3","","Lynne Bingham","No","No","","3910 Mimosa Dr","Bethel Park","15102","PA","USA","40.314083","-80.02478"
"https://www.zillow.com/homedetails/1206-Barnstaple-Dr-South-Park-PA-15129/11637452_zpid/","","","412500","421900","2470","238500","04/10/2023","1962","sqft","210.24","0.47","acres","882352.94","4","3","","Gayle Blonar","No","No","","1206 Barnstaple Dr","South Park","15129","PA","USA","40.29344","-79.98302"
"https://www.zillow.com/homedetails/6322-Crombie-St-Pittsburgh-PA-15217/11635559_zpid/","","","404750","414400","2057","184600","04/06/2023","","","","2495.99","sqft","162.16","4","3","","Maureen States","No","No","","6322 Crombie St","Pittsburgh","15217","PA","USA","40.430782","-79.91689"
"https://www.zillow.com/homedetails/928-Copper-Creek-Trl-Gibsonia-PA-15044/338888204_zpid/","","","402540","","1825","400","04/05/2023","","","","0.29","acres","1396292.59","","","","","No","No","","928 Copper Creek Trl","Gibsonia","15044","PA","USA","40.62681","-79.91432"
"https://www.zillow.com/homedetails/514-Pryor-Way-Sewickley-PA-15143/11519141_zpid/","","","400000","410800","1800","222900","04/04/2023","2045","sqft","195.6","5536.48","sqft","72.25","4","2","","Lori Anne Weber","No","No","","514 Pryor Way","Sewickley","15143","PA","USA","40.542164","-80.18206"
"https://www.zillow.com/homedetails/2002-Mongallo-Dr-Coraopolis-PA-15108/11322075_zpid/","","","410000","420200","2600","251500","04/03/2023","2156","sqft","190.17","0.57","acres","716792.42","3","2.5","","","No","No","","2002 Mongallo Dr","Coraopolis","15108","PA","USA","40.488384","-80.114456"
"https://www.zillow.com/homedetails/407-Center-Ave-Aspinwall-PA-15215/11335067_zpid/","","","410000","420700","1599","173300","03/31/2023","1400","sqft","292.86","2500.34","sqft","163.98","3","2","","Julie Rost","No","No","","407 Center Ave","Aspinwall","15215","PA","USA","40.49323","-79.90422"
"https://www.zillow.com/homedetails/116-Country-Ln-Pittsburgh-PA-15229/11484425_zpid/","","","403100","413700","2299","206200","03/31/2023","1890","sqft","213.28","10426","sqft","38.66","4","2.5","","","No","No","","116 Country Ln","Pittsburgh","15229","PA","USA","40.531216","-80.02734"
"https://www.zillow.com/homedetails/3255-Cramlington-Dr-Gibsonia-PA-15044/11299163_zpid/","","","400000","411700","2321","187000","03/29/2023","1800","sqft","222.22","8712","sqft","45.91","3","3","","CHRISTOPHER CARR","No","No","","3255 Cramlington Dr","Gibsonia","15044","PA","USA","40.613033","-79.929405"
"https://www.zillow.com/homedetails/2364-Weston-Dr-Pittsburgh-PA-15241/11549773_zpid/","","","407100","417900","2570","208900","03/29/2023","","","","0.4","acres","1017750","4","3","","Kathleen Mathison","No","No","","2364 Weston Dr","Pittsburgh","15241","PA","USA","40.318203","-80.076546"
"https://www.zillow.com/homedetails/136-Alta-Vista-Dr-Imperial-PA-15126/338888173_zpid/","","","409265","","999","2500","03/29/2023","","","","8637","sqft","47.39","","","","","No","No","","136 Alta Vista Dr","Imperial","15126","PA","USA","40.451656","-80.25689"
"https://www.zillow.com/homedetails/1508-Arch-St-Pittsburgh-PA-15212/2061187334_zpid/","","","407000","417800","1483","","03/28/2023","1280","sqft","317.97","1598.65","sqft","254.59","2","2","","Tirzah DeCaria","No","No","","1508 Arch St","Pittsburgh","15212","PA","USA","40.458164","-80.00938"
"https://www.zillow.com/homedetails/147-Alta-Vista-Dr-Imperial-PA-15126/338888145_zpid/","","","399545","","999","2500","03/27/2023","","","","10757","sqft","37.14","","","","","No","No","","147 Alta Vista Dr","Imperial","15126","PA","USA","40.452038","-80.25721"
"https://www.zillow.com/homedetails/122-Oakwood-Cir-Gibsonia-PA-15044/11330411_zpid/","","","400000","411800","3399","272200","03/20/2023","2800","sqft","142.86","0.75","acres","533333.33","4","2.5","","","No","No","","122 Oakwood Cir","Gibsonia","15044","PA","USA","40.62881","-79.86865"
"https://www.zillow.com/homedetails/2505-Highland-Cir-Bethel-Park-PA-15102/11471380_zpid/","","","402000","413900","2355","149400","03/20/2023","","","","0.3","acres","1340000","4","4","","Lynn Dempsey","No","No","","2505 Highland Cir","Bethel Park","15102","PA","USA","40.33819","-80.03041"
"https://www.zillow.com/homedetails/4125-Windsor-St-Pittsburgh-PA-15217/11636223_zpid/","","","405000","417500","2400","129000","03/17/2023","2035","sqft","199.02","3001.28","sqft","134.94","4","3","","Devin Canofari","No","No","","4125 Windsor St","Pittsburgh","15217","PA","USA","40.424343","-79.92903"
"https://www.zillow.com/homedetails/1352-High-Oak-Ct-Pittsburgh-PA-15241/11472928_zpid/","","","400000","704500","4303","458400","03/16/2023","3257","sqft","122.81","8860.1","sqft","45.15","5","5","","","No","No","","1352 High Oak Ct","Pittsburgh","15241","PA","USA","40.33928","-80.094666"
"https://www.zillow.com/homedetails/227-Baywood-Ave-Pittsburgh-PA-15228/11311768_zpid/","","","410000","428100","1999","176300","03/15/2023","1932","sqft","212.22","6751.8","sqft","60.72","4","2","","Aimee O'Connor","No","No","","227 Baywood Ave","Pittsburgh","15228","PA","USA","40.37939","-80.04898"
"https://www.zillow.com/homedetails/6390-Ebdy-St-Pittsburgh-PA-15217/11636624_zpid/","","","400000","412800","1800","136600","03/14/2023","1428","sqft","280.11","4116.42","sqft","97.17","3","2","","Catherine White","No","No","","6390 Ebdy St","Pittsburgh","15217","PA","USA","40.424152","-79.92083"
"https://www.zillow.com/homedetails/1253-Tennessee-Ave-Pittsburgh-PA-15216/11652571_zpid/","","","413000","426200","2888","174700","03/14/2023","2284","sqft","180.82","3598.06","sqft","114.78","5","3","","Julie Welter","No","No","","1253 Tennessee Ave","Pittsburgh","15216","PA","USA","40.39293","-80.03281"
"https://www.zillow.com/homedetails/2548-Country-Side-Ln-Wexford-PA-15090/11274034_zpid/","","","410000","423200","3434","258000","03/13/2023","2684","sqft","152.76","2.38","acres","172052.04","4","3","","Shannon Madigan","No","No","","2548 Country Side Ln","Wexford","15090","PA","USA","40.60702","-80.08136"
"https://www.zillow.com/homedetails/1263-Lamson-Cir-Pittsburgh-PA-15241/11434023_zpid/","","","400000","412900","2100","150000","03/13/2023","1547","sqft","258.56","0.31","acres","1290322.58","3","3","","Judy Smith","No","No","","1263 Lamson Cir","Pittsburgh","15241","PA","USA","40.34923","-80.09522"
"https://www.zillow.com/homedetails/1121-Lakemont-Dr-Pittsburgh-PA-15243/11359434_zpid/","","","405000","","1495","161100","03/10/2023","","","","0.26","acres","1537001.9","3","2","","Margaret Harkins","No","No","","1121 Lakemont Dr","Pittsburgh","15243","PA","USA","40.372433","-80.06439"
"https://www.zillow.com/homedetails/495-Herbst-Manor-Rd-Coraopolis-PA-15108/11367267_zpid/","","","410000","423700","2184","210000","03/10/2023","2416","sqft","169.7","1.17","acres","350757.12","4","4","","Tracy Dewit","No","No","","495 Herbst Manor Rd","Coraopolis","15108","PA","USA","40.49091","-80.12198"
"https://www.zillow.com/homedetails/133-Parkview-Rd-Pittsburgh-PA-15237/61279373_zpid/","","","402500","416000","2057","149000","03/10/2023","","","","1.55","acres","259610.42","3","2","","Elaine Bodnar","No","No","","133 Parkview Rd","Pittsburgh","15237","PA","USA","40.54768","-80.00289"
"https://www.zillow.com/homedetails/377-Greene-Dr-Clairton-PA-15025/248643608_zpid/","","","400000","413400","2470","255100","03/10/2023","1880","sqft","212.77","0.42","acres","962927.3","3","4","","Eileen Allan","No","No","","377 Greene Dr","Clairton","15025","PA","USA","40.299294","-79.970856"
"https://www.zillow.com/homedetails/329-Dell-Ave-Pittsburgh-PA-15216/11655421_zpid/","","","401000","414600","1700","200400","03/09/2023","1325","sqft","302.64","4791","sqft","83.7","3","1","","","No","No","","329 Dell Ave","Pittsburgh","15216","PA","USA","40.389603","-80.047356"
"https://www.zillow.com/homedetails/207-Commodore-Dr-Mc-Donald-PA-15057/87990381_zpid/","","","410000","423900","2768","203200","03/09/2023","","","","0.3","acres","1366666.67","5","4","","Sandra Toulouse","No","No","","207 Commodore Dr","Mc Donald","15057","PA","USA","40.404427","-80.26048"
"https://www.zillow.com/homedetails/316-Summer-Dr-Coraopolis-PA-15108/11401903_zpid/","","","410000","424800","2749","235300","03/03/2023","2355","sqft","174.1","0.37","acres","1108108.11","4","3","","Nicholas McCune","No","No","","316 Summer Dr","Coraopolis","15108","PA","USA","40.478912","-80.141556"
"https://www.zillow.com/homedetails/3780-Legion-Dr-Gibsonia-PA-15044/11370631_zpid/","","","403000","418200","1450","156100","02/27/2023","","","","6","acres","67166.67","3","2","","","No","No","","3780 Legion Dr","Gibsonia","15044","PA","USA","40.657578","-79.94176"
"https://www.zillow.com/homedetails/126-Cherrywood-Dr-New-Kensington-PA-15068/64597993_zpid/","","","400000","415100","3200","272500","02/27/2023","2938","sqft","136.15","0.35","acres","1142857.14","3","3","","","No","No","","126 Cherrywood Dr","New Kensington","15068","PA","USA","40.518513","-79.7657"
"https://www.zillow.com/homedetails/213-Dana-Dr-Sewickley-PA-15143/333136173_zpid/","","","403557","","2081","500","02/24/2023","","","","3348","sqft","120.54","","","","","No","No","","213 Dana Dr","Sewickley","15143","PA","USA","40.565506","-80.104706"
"https://www.zillow.com/homedetails/5222-Broad-St-Pittsburgh-PA-15224/87996537_zpid/","","","406500","422500","1870","132800","02/23/2023","1470","sqft","276.53","3798.43","sqft","107.02","3","4","","Libby Sosinski","No","No","","5222 Broad St","Pittsburgh","15224","PA","USA","40.465828","-79.93872"
"https://www.zillow.com/homedetails/108-Elmhurst-Dr-Coraopolis-PA-15108/11256505_zpid/","","","410000","426400","2570","234600","02/21/2023","","","","0.66","acres","623953.74","4","3","","Melinda Lynch","No","No","","108 Elmhurst Dr","Coraopolis","15108","PA","USA","40.529312","-80.267395"
"https://www.zillow.com/homedetails/215-Dana-Dr-Sewickley-PA-15143/333136176_zpid/","","","405050","","2081","500","02/21/2023","","","","3106","sqft","130.41","","","","","No","No","","215 Dana Dr","Sewickley","15143","PA","USA","40.565563","-80.10464"
"https://www.zillow.com/homedetails/7147-Ohio-River-Blvd-Pittsburgh-PA-15202/11367803_zpid/","","","400000","416700","3143","250600","02/17/2023","2433","sqft","164.41","0.33","acres","1217285.45","5","3","","Joe Paolazzi","No","No","","7147 Ohio River Blvd","Pittsburgh","15202","PA","USA","40.50444","-80.0848"
"https://www.zillow.com/homedetails/18-Seneca-Rd-Pittsburgh-PA-15241/11472217_zpid/","","","400000","416700","1817","126500","02/17/2023","2276","sqft","175.75","0.25","acres","1589825.12","4","3","","Linda Ehland","No","No","","18 Seneca Rd","Pittsburgh","15241","PA","USA","40.33609","-80.054115"
"https://www.zillow.com/homedetails/502-Kellingwood-Dr-Pittsburgh-PA-15238/11646640_zpid/","","","410000","426800","2635","256700","02/10/2023","2032","sqft","201.77","0.81","acres","506172.84","4","3","","Jordan Schramm","No","No","","502 Kellingwood Dr","Pittsburgh","15238","PA","USA","40.5811","-79.88048"
"https://www.zillow.com/homedetails/1096-Woodhill-Dr-Gibsonia-PA-15044/11317927_zpid/","","","410000","428200","2950","225600","02/01/2023","2332","sqft","175.81","0.53","acres","766736.79","5","2.5","","","No","No","","1096 Woodhill Dr","Gibsonia","15044","PA","USA","40.624958","-79.929695"
"https://www.zillow.com/homedetails/301-Oakwood-Ct-Clairton-PA-15025/11577768_zpid/","","","400000","417800","2768","226000","02/01/2023","2364","sqft","169.2","0.47","acres","846729.52","4","3","","","No","No","","301 Oakwood Ct","Clairton","15025","PA","USA","40.314983","-79.94584"
"https://www.zillow.com/homedetails/1192-Satellite-Cir-Pittsburgh-PA-15241/11473319_zpid/","","","410000","428300","2952","197000","01/31/2023","2156","sqft","190.17","0.29","acres","1413793.1","4","3","","Karen White","No","No","","1192 Satellite Cir","Pittsburgh","15241","PA","USA","40.33845","-80.10557"
"https://www.zillow.com/homedetails/131-Shannon-Dr-Pittsburgh-PA-15237/11523879_zpid/","","","400000","417800","3052","201000","01/31/2023","","","","0.25","acres","1600000","4","3","","Alyssa Policella","No","No","","131 Shannon Dr","Pittsburgh","15237","PA","USA","40.543182","-79.99875"
"https://www.zillow.com/homedetails/5884-Hobart-St-Pittsburgh-PA-15217/11632250_zpid/","","","400000","401800","2325","123000","01/31/2023","1797","sqft","222.59","3380.26","sqft","118.33","4","3","","Ann Greathouse","No","No","","5884 Hobart St","Pittsburgh","15217","PA","USA","40.43396","-79.91945"
"https://www.zillow.com/homedetails/6309-Pleasant-St-South-Park-PA-15129/246265028_zpid/","","","410000","428400","2680","254500","01/30/2023","2004","sqft","204.59","0.38","acres","1091296.25","4","4","","Dante Abbondanza","No","No","","6309 Pleasant St","South Park","15129","PA","USA","40.290665","-80.02228"
"https://www.zillow.com/homedetails/95-Donna-Dr-Pittsburgh-PA-15237/11643456_zpid/","","","406000","424400","2400","219000","01/27/2023","","","","10541.52","sqft","38.51","3","4","","Georgie Smigel","No","No","","95 Donna Dr","Pittsburgh","15237","PA","USA","40.583534","-80.052055"
"https://www.zillow.com/homedetails/712-Culloden-Ct-Coraopolis-PA-15108/164712133_zpid/","","","400000","418700","2500","247100","01/20/2023","1816","sqft","220.26","0.26","acres","1548586.91","4","3","","Matthew Swab","No","No","","712 Culloden Ct","Coraopolis","15108","PA","USA","40.52604","-80.237236"
"https://www.zillow.com/homedetails/4745-Friendship-Ave-Pittsburgh-PA-15224/11520622_zpid/","","","400000","419000","3645","185800","01/17/2023","2682","sqft","149.14","3911.69","sqft","102.26","5","3","","Kenneth Girty","No","No","","4745 Friendship Ave","Pittsburgh","15224","PA","USA","40.463036","-79.9472"
"https://www.zillow.com/homedetails/3377-Wagner-Rd-Allison-Park-PA-15101/11621641_zpid/","","","410000","430000","2442","258600","01/10/2023","1706","sqft","240.33","1.2","acres","341157.59","3","4","","","No","No","","3377 Wagner Rd","Allison Park","15101","PA","USA","40.576763","-79.91789"
"https://www.zillow.com/homedetails/163-Cassia-Dr-Clairton-PA-15025/11251100_zpid/","","","405000","425100","2737","183400","01/06/2023","","","","10454.4","sqft","38.74","4","3","","Ashley Loftis","No","No","","163 Cassia Dr","Clairton","15025","PA","USA","40.28219","-79.95332"
"https://www.zillow.com/homedetails/369-McCully-St-Pittsburgh-PA-15216/11659238_zpid/","","","399900","419700","2400","204200","01/06/2023","1866","sqft","214.31","6507.86","sqft","61.45","3","3","","Lisa Jackson","No","No","","369 McCully St","Pittsburgh","15216","PA","USA","40.386066","-80.05136"
"https://www.zillow.com/homedetails/343-Nelson-Dr-Monroeville-PA-15146/337926746_zpid/","","","411250","","1639","400","12/30/2022","","","","9681","sqft","42.48","","","","","No","No","","343 Nelson Dr","Monroeville","15146","PA","USA","40.45703","-79.77927"
"https://www.zillow.com/homedetails/9904-E-Moccasin-Trl-Wexford-PA-15090/11258268_zpid/","","","400000","420400","2999","270900","12/29/2022","2380","sqft","168.07","0.28","acres","1418439.72","4","3","","Sandra Schall","No","No","","9904 E Moccasin Trl","Wexford","15090","PA","USA","40.59261","-80.04302"
"https://www.zillow.com/homedetails/353-Hastings-St-Pittsburgh-PA-15206/11287555_zpid/","","","400000","420400","2233","239600","12/29/2022","1709","sqft","234.06","3001.28","sqft","133.28","3","2","","Rachel French","No","No","","353 Hastings St","Pittsburgh","15206","PA","USA","40.450188","-79.913605"
"https://www.zillow.com/homedetails/127-Alta-Vista-Dr-Imperial-PA-15126/338888135_zpid/","","","407235","","1069","2500","12/29/2022","","","","10249","sqft","39.73","","","","","No","No","","127 Alta Vista Dr","Imperial","15126","PA","USA","40.450485","-80.25838"
"https://www.zillow.com/homedetails/1131-Shawnee-Ridge-Dr-Cheswick-PA-15024/92379588_zpid/","","","412000","433100","2966","207600","12/28/2022","2160","sqft","190.74","0.27","acres","1519734.42","4","3","","Nam Khuu","No","No","","1131 Shawnee Ridge Dr","Cheswick","15024","PA","USA","40.561676","-79.84867"
"https://www.zillow.com/homedetails/253-Hytyre-Farms-Dr-Gibsonia-PA-15044/67345260_zpid/","","","400000","402000","2500","201500","12/27/2022","1913","sqft","209.1","6000","sqft","66.67","3","2.5","","","No","No","","253 Hytyre Farms Dr","Gibsonia","15044","PA","USA","40.6261","-79.91506"
"https://www.zillow.com/homedetails/207-Parkridge-Pl-South-Park-PA-15129/164543797_zpid/","","","412500","433600","2737","208100","12/27/2022","2312","sqft","178.42","0.3","acres","1362285.34","4","3","","Jodi Lesniakowski","No","No","","207 Parkridge Pl","South Park","15129","PA","USA","40.283176","-80.00325"
"https://www.zillow.com/homedetails/112-2nd-St-Pittsburgh-PA-15215/11335212_zpid/","","","400000","420800","1700","160900","12/21/2022","","","","3049.2","sqft","131.18","3","2","","Lynn Niman","No","No","","112 2nd St","Pittsburgh","15215","PA","USA","40.49182","-79.90639"
"https://www.zillow.com/homedetails/10117-Deer-View-Point-Wexford-PA-15090/11274890_zpid/","","","400000","420900","3058","256500","12/20/2022","2338","sqft","171.09","10779","sqft","37.11","4","2.5","","","No","No","","10117 Deer View Point","Wexford","15090","PA","USA","40.600986","-80.030136"
"https://www.zillow.com/homedetails/1374-Navahoe-Dr-Pittsburgh-PA-15228/11396876_zpid/","","","406000","427400","2569","249200","12/16/2022","1924","sqft","211.02","8006.33","sqft","50.71","3","3","","Valerie Rose","No","No","","1374 Navahoe Dr","Pittsburgh","15228","PA","USA","40.360394","-80.046486"
"https://www.zillow.com/homedetails/103-Armour-Dr-Monroeville-PA-15146/306759810_zpid/","","","404605","","1597","3000","12/15/2022","","","","0.26","acres","1558044.01","","","","","No","No","","103 Armour Dr","Monroeville","15146","PA","USA","40.45559","-79.773155"
"https://www.zillow.com/homedetails/131-Alta-Vista-Dr-Imperial-PA-15126/338888137_zpid/","","","411860","","1069","2500","12/15/2022","","","","10378","sqft","39.69","","","","","No","No","","131 Alta Vista Dr","Imperial","15126","PA","USA","40.45077","-80.2581"
"https://www.zillow.com/homedetails/2668-Marshfield-Dr-Pittsburgh-PA-15241/11581656_zpid/","","","405000","426500","2733","263700","12/13/2022","2240","sqft","180.8","0.41","acres","990462.22","4","3","","Julie Welter","No","No","","2668 Marshfield Dr","Pittsburgh","15241","PA","USA","40.307995","-80.08558"
"https://www.zillow.com/homedetails/230-Sweetbriar-St-Pittsburgh-PA-15211/11585579_zpid/","","","400000","421200","1699","111200","12/13/2022","1914","sqft","208.99","5000.69","sqft","79.99","3","2","","Sara Linkosky","No","No","","230 Sweetbriar St","Pittsburgh","15211","PA","USA","40.437405","-80.022125"
"https://www.zillow.com/homedetails/233-Carrington-St-Pittsburgh-PA-15212/11387868_zpid/","","","411001","","1764","46000","12/09/2022","","","","6098.4","sqft","67.39","3","2","","Susan Meadowcroft","No","No","","233 Carrington St","Pittsburgh","15212","PA","USA","40.458443","-80.011086"
"https://www.zillow.com/homedetails/4317-Zenith-Ln-South-Park-PA-15129/2059240818_zpid/","","","406045","","1451","","12/09/2022","1903","sqft","213.37","0.72","acres","563951.39","4","3","","David Bruckner","No","No","","4317 Zenith Ln","South Park","15129","PA","USA","",""
"https://www.zillow.com/homedetails/825-Savannah-Ave-Pittsburgh-PA-15221/11342658_zpid/","","","400000","440100","2681","155000","12/07/2022","2658","sqft","150.49","8712","sqft","45.91","4","2","","Allison Pochapin","No","No","","825 Savannah Ave","Pittsburgh","15221","PA","USA","40.43678","-79.89371"
"https://www.zillow.com/homedetails/130-Alta-Vista-Dr-Imperial-PA-15126/338888176_zpid/","","","410010","","999","2500","12/07/2022","","","","9226","sqft","44.44","","","","","No","No","","130 Alta Vista Dr","Imperial","15126","PA","USA","40.451256","-80.25728"
"https://www.zillow.com/homedetails/99-E-Belmere-Ln-Wexford-PA-15090/333110311_zpid/","","","400000","421600","1870","272800","12/06/2022","2150","sqft","186.05","1","acres","400000","4","2","","Aubre Stacknick","No","No","","99 E Belmere Ln","Wexford","15090","PA","USA","40.650333","-80.06366"
"https://www.zillow.com/homedetails/42-Easton-Rd-Pittsburgh-PA-15238/11527839_zpid/","","","400000","","4628","444100","12/05/2022","2992","sqft","133.69","1.57","acres","255263.04","4","3","","","No","No","","42 Easton Rd","Pittsburgh","15238","PA","USA","40.545025","-79.885666"
"https://www.zillow.com/homedetails/Forest-Grove-Rd-Coraopolis-PA-15108/164334034_zpid/","","","400000","","1099","34000","12/05/2022","","","","11.89","acres","33649.93","","","","","No","No","","Forest Grove Rd","Coraopolis","15108","PA","USA","40.494366","-80.1346"
"https://www.zillow.com/homedetails/913-Middle-St-Pittsburgh-PA-15212/11388878_zpid/","","","405000","427000","1650","179200","12/02/2022","","","","2090.88","sqft","193.7","2","2","","Mary Scafede","No","No","","913 Middle St","Pittsburgh","15212","PA","USA","40.455826","-80.00003"
"https://www.zillow.com/homedetails/127-Camelot-Cir-Coraopolis-PA-15108/11404035_zpid/","","","400000","421800","2604","219300","12/02/2022","2128","sqft","187.97","0.35","acres","1136363.64","4","3","","Gina Giampietro","No","No","","127 Camelot Cir","Coraopolis","15108","PA","USA","40.494396","-80.13751"
"https://www.zillow.com/homedetails/1261-Satellite-Cir-Pittsburgh-PA-15241/11473276_zpid/","","","405000","427000","2600","200200","12/02/2022","2035","sqft","199.02","0.3","acres","1343729.26","5","3","","Taylor Drawbaugh","No","No","","1261 Satellite Cir","Pittsburgh","15241","PA","USA","40.338886","-80.10309"
"https://www.zillow.com/homedetails/404-Lytham-Ct-Coraopolis-PA-15108/59838180_zpid/","","","402500","424400","2710","323800","12/02/2022","1996","sqft","201.65","0.33","acres","1214177.98","4","4","","Deirdre Dowd","No","No","","404 Lytham Ct","Coraopolis","15108","PA","USA","40.532936","-80.240814"
"https://www.zillow.com/homedetails/2509-Brandt-School-Rd-Wexford-PA-15090/11274232_zpid/","","","405000","427100","2820","239600","11/30/2022","2352","sqft","172.19","0.47","acres","867237.69","4","4","","Irene Klocko","No","No","","2509 Brandt School Rd","Wexford","15090","PA","USA","40.60254","-80.08276"
"https://www.zillow.com/homedetails/279-Gilkeson-Rd-Pittsburgh-PA-15228/11398188_zpid/","","","410000","","2034","115000","11/30/2022","1836","sqft","223.31","1.6","acres","256410.26","4","2","","Magen Bedillion","No","No","","279 Gilkeson Rd","Pittsburgh","15228","PA","USA","40.358524","-80.059395"
"https://www.zillow.com/homedetails/214-Dombey-Dr-Pittsburgh-PA-15237/11558596_zpid/","","","400000","421800","2814","184700","11/30/2022","2322","sqft","172.27","0.26","acres","1564333.2","4","3","","Jeremy Mulder","No","No","","214 Dombey Dr","Pittsburgh","15237","PA","USA","40.553097","-80.03229"
"https://www.zillow.com/homedetails/1034-Whispering-Woods-Dr-Coraopolis-PA-15108/11640883_zpid/","","","400000","421800","2500","200200","11/30/2022","1904","sqft","210.08","0.35","acres","1139601.14","4","4","","Ruth Kitterman","No","No","","1034 Whispering Woods Dr","Coraopolis","15108","PA","USA","40.528427","-80.263176"
"https://www.zillow.com/homedetails/42-Easton-Dr-Pittsburgh-PA-15238/2067321237_zpid/","","","400000","421800","3496","","11/30/2022","2992","sqft","133.69","","","","4","3","","Cynthia Stratiff","No","No","","42 Easton Dr","Pittsburgh","15238","PA","USA","",""
"https://www.zillow.com/homedetails/1202-Sherman-Ave-Pittsburgh-PA-15212/11388536_zpid/","","","400000","386300","1522","124700","11/29/2022","1068","sqft","374.53","0.5","acres","800000","2","2","","Mario Costanzo","No","No","","1202 Sherman Ave","Pittsburgh","15212","PA","USA","40.45565","-80.00967"
"https://www.zillow.com/homedetails/43-White-Birch-Cir-Pittsburgh-PA-15220/11460512_zpid/","","","399900","421800","2010","297500","11/29/2022","1952","sqft","204.87","0.28","acres","1404143.26","4","4","","Tarasa Hurley","No","No","","43 White Birch Cir","Pittsburgh","15220","PA","USA","40.406326","-80.06276"
"https://www.zillow.com/homedetails/1202-S-Herman-St-N-Pittsburgh-PA-15212/2061441441_zpid/","","","400000","","1333","","11/29/2022","","","","","","","","","","","No","No","","1202 S Herman St N","Pittsburgh","15212","PA","USA","",""
"https://www.zillow.com/homedetails/2145-Haymaker-Rd-Monroeville-PA-15146/11628428_zpid/","","","409000","431500","3496","237000","11/23/2022","3200","sqft","127.81","0.31","acres","1306291.92","5","4","","Deborah DiLorenzo","No","No","","2145 Haymaker Rd","Monroeville","15146","PA","USA","40.407562","-79.75764"
"https://www.zillow.com/homedetails/2519-Wexford-Run-Rd-Wexford-PA-15090/11274158_zpid/","","","408500","431000","2564","225000","11/21/2022","2100","sqft","194.52","0.5","acres","817000","4","3","","Debra Donahue","No","No","","2519 Wexford Run Rd","Wexford","15090","PA","USA","40.604538","-80.07518"
"https://www.zillow.com/homedetails/3196-Evergreen-Rd-Pittsburgh-PA-15237/11442113_zpid/","","","400000","422200","2485","162800","11/17/2022","1970","sqft","203.05","1.78","acres","224719.1","3","3","","Christina Talotta","No","No","","3196 Evergreen Rd","Pittsburgh","15237","PA","USA","40.524944","-80.01513"
"https://www.zillow.com/homedetails/3451-Ligonier-St-Pittsburgh-PA-15201/11514331_zpid/","","","403500","425900","1731","53200","11/14/2022","2100","sqft","192.14","1058.51","sqft","381.2","3","3","","Kaedi Knepshield","No","No","","3451 Ligonier St","Pittsburgh","15201","PA","USA","40.463177","-79.96519"
"https://www.zillow.com/homedetails/809-Arlington-Ave-Pittsburgh-PA-15203/11474435_zpid/","","","400000","369600","1969","99500","11/04/2022","1476","sqft","271","1350.36","sqft","296.22","2","3","","Carrie Majumder","No","No","","809 Arlington Ave","Pittsburgh","15203","PA","USA","40.426025","-79.99129"
"https://www.zillow.com/homedetails/483-Byrlee-Dr-Pittsburgh-PA-15237/11484819_zpid/","","","399500","421600","2795","162300","10/26/2022","2325","sqft","171.83","10728","sqft","37.24","4","3","","","No","No","","483 Byrlee Dr","Pittsburgh","15237","PA","USA","40.53446","-80.00563"
"https://www.zillow.com/homedetails/5010-Summit-Dr-South-Park-PA-15129/300249187_zpid/","","","406700","429600","2999","306500","10/25/2022","2606","sqft","156.06","6188","sqft","65.72","3","2.5","","","No","No","","5010 Summit Dr","South Park","15129","PA","USA","40.2887","-80.01644"
"https://www.zillow.com/homedetails/238-Dell-Ln-Pittsburgh-PA-15237/11643751_zpid/","","","399900","422500","1999","182400","10/24/2022","1780","sqft","224.66","0.5","acres","807063.57","3","2","","Jessica Branchen","No","No","","238 Dell Ln","Pittsburgh","15237","PA","USA","40.583126","-80.03498"
"https://www.zillow.com/homedetails/10004-Valleyview-Ct-Wexford-PA-15090/11274516_zpid/","","","400000","422300","3225","248000","10/21/2022","2849","sqft","140.4","1.24","acres","321802.09","2","3","","Dave McSwigan","No","No","","10004 Valleyview Ct","Wexford","15090","PA","USA","40.602226","-80.06152"
"https://www.zillow.com/homedetails/3053-Grassmere-Ave-Pittsburgh-PA-15216/11571488_zpid/","","","405000","427600","1949","122400","10/21/2022","2070","sqft","195.65","5501.63","sqft","73.61","3","2","","Carri Czyzewski","No","No","","3053 Grassmere Ave","Pittsburgh","15216","PA","USA","40.396824","-80.041565"
"https://www.zillow.com/homedetails/524-W-5th-Ave-McKeesport-PA-15132/87988269_zpid/","","","400000","309500","1800","240000","10/21/2022","","","","0.36","acres","1107692.31","","","","","No","No","","524 W 5th Ave","McKeesport","15132","PA","USA","40.34823","-79.87884"
"https://www.zillow.com/homedetails/122-Fairway-Cir-Pittsburgh-PA-15241/11510428_zpid/","","","405000","427600","2570","255700","10/19/2022","2080","sqft","194.71","","","","3","3","","Michele Belice","No","No","","122 Fairway Cir","Pittsburgh","15241","PA","USA","40.32892","-80.07146"
"https://www.zillow.com/homedetails/5541-Pocusset-St-Pittsburgh-PA-15217/11635234_zpid/","","","405000","427600","1997","190000","10/18/2022","1320","sqft","306.82","6516.58","sqft","62.15","3","3","","Sara Leitera","No","No","","5541 Pocusset St","Pittsburgh","15217","PA","USA","40.430096","-79.92877"
"https://www.zillow.com/homedetails/215-1-2-Valley-Dr-Pittsburgh-PA-15215/11335012_zpid/","","","410900","433800","1681","146100","10/14/2022","1233","sqft","333.25","","","","3","2","","Jane Herrmann","No","No","","215 1/2 Valley Dr","Pittsburgh","15215","PA","USA","40.49632","-79.90114"
"https://www.zillow.com/homedetails/1558-King-James-Dr-Pittsburgh-PA-15237/11589090_zpid/","","","410000","432800","2963","272700","10/14/2022","2400","sqft","170.83","0.5","acres","820000","4","3","","Andrew Bencsics","No","No","","1558 King James Dr","Pittsburgh","15237","PA","USA","40.56348","-80.06937"
"https://www.zillow.com/homedetails/6-Wellington-Ct-Mc-Kees-Rocks-PA-15136/11400941_zpid/","","","405999","428600","2833","210400","10/11/2022","2600","sqft","156.15","0.43","acres","945503.03","4","4","","Max Lomas","No","No","","6 Wellington Ct","Mc Kees Rocks","15136","PA","USA","40.45147","-80.14275"
"https://www.zillow.com/homedetails/901-Charles-St-Glenshaw-PA-15116/11443655_zpid/","","","405000","427500","3995","156900","10/07/2022","3142","sqft","128.9","10001.38","sqft","40.49","5","4","","Lorraine Easton","No","No","","901 Charles St","Glenshaw","15116","PA","USA","40.52704","-79.95452"
"https://www.zillow.com/homedetails/483-483-Byrlee-Rd-Pittsburgh-PA-15237/2061842320_zpid/","","","399500","","1888","","10/07/2022","2821","sqft","141.62","10728.83","sqft","37.24","4","3","","Carolyn Dymerski","No","No","","483-483 Byrlee Rd","Pittsburgh","15237","PA","USA","",""
"https://www.zillow.com/homedetails/342-Harmar-St-Pittsburgh-PA-15219/11400552_zpid/","","","404000","427600","2729","156800","10/04/2022","1800","sqft","224.44","3001.28","sqft","134.61","3","3","","Kristi Stebler","No","No","","342 Harmar St","Pittsburgh","15219","PA","USA","40.457333","-79.96739"
"https://www.zillow.com/homedetails/357-Nelson-Dr-Monroeville-PA-15146/337926742_zpid/","","","406710","429200","1672","227400","10/04/2022","1344","sqft","302.61","0.41","acres","985607.1","3","2","","","No","No","","357 Nelson Dr","Monroeville","15146","PA","USA","40.45823","-79.77996"
"https://www.zillow.com/homedetails/6727-Elk-Rush-Dr-Imperial-PA-15126/59850894_zpid/","","","400000","422100","2628","161900","10/03/2022","2104","sqft","190.11","10018.8","sqft","39.92","4","4","","Robin Ross","No","No","","6727 Elk Rush Dr","Imperial","15126","PA","USA","40.447254","-80.21796"
"https://www.zillow.com/homedetails/1419-Boyle-St-Pittsburgh-PA-15212/11388061_zpid/","","","400000","423100","1498","30400","09/27/2022","","","","1598.65","sqft","250.21","4","3","","Karl Owens","No","No","","1419 Boyle St","Pittsburgh","15212","PA","USA","40.45796","-80.00671"
"https://www.zillow.com/homedetails/1034-Millennium-Dr-Bethel-Park-PA-15102/164636564_zpid/","","","400000","423100","2981","330300","09/27/2022","2613","sqft","153.08","0.26","acres","1537592.66","4","2.5","","","No","No","","1034 Millennium Dr","Bethel Park","15102","PA","USA","40.345585","-80.018616"
"https://www.zillow.com/homedetails/6648-Kinsman-Rd-Pittsburgh-PA-15217/11288352_zpid/","","","411075","863400","5223","251000","09/26/2022","2276","sqft","180.61","4800","sqft","85.64","4","3.5","","","No","No","","6648 Kinsman Rd","Pittsburgh","15217","PA","USA","40.445007","-79.91363"
"https://www.zillow.com/homedetails/409-Twele-Rd-Greenock-PA-15047/11574739_zpid/","","","400000","239000","1395","125000","09/26/2022","1200","sqft","333.33","3.16","acres","126582.28","3","2","","Maggie James","No","No","","409 Twele Rd","Greenock","15047","PA","USA","40.31336","-79.79199"
"https://www.zillow.com/homedetails/111-High-Oak-Dr-Wexford-PA-15090/59852914_zpid/","","","405000","428400","2820","215000","09/26/2022","","","","0.46","acres","877763.33","4","3","","Adriene Eggert","No","No","","111 High Oak Dr","Wexford","15090","PA","USA","40.628517","-80.06361"
"https://www.zillow.com/homedetails/5896-Kings-School-Rd-Bethel-Park-PA-15102/11579960_zpid/","","","401000","424000","1781","138400","09/23/2022","2112","sqft","189.87","2.2","acres","182272.73","4","2","","Colin Bonnett","No","No","","5896 Kings School Rd","Bethel Park","15102","PA","USA","40.307808","-80.03569"
"https://www.zillow.com/homedetails/4469-Cassabill-Dr-Homestead-PA-15120/116178512_zpid/","","","413340","476800","2855","329700","09/23/2022","2666","sqft","155.04","0.33","acres","1254446.13","4","3","","Susan Silversmith","No","No","","4469 Cassabill Dr","Homestead","15120","PA","USA","40.38353","-79.91908"
"https://www.zillow.com/homedetails/3204-Sundale-Dr-Glenshaw-PA-15116/11560172_zpid/","","","400000","422900","2265","158100","09/22/2022","1621","sqft","246.76","7043.65","sqft","56.79","3","3","","Shawn Wilson","No","No","","3204 Sundale Dr","Glenshaw","15116","PA","USA","40.550232","-79.98782"
"https://www.zillow.com/homedetails/1024-Augusta-Way-Pittsburgh-PA-15236/11428905_zpid/","","","407000","430200","2804","287900","09/20/2022","2436","sqft","167.08","9095","sqft","44.75","3","3","","","No","No","","1024 Augusta Way","Pittsburgh","15236","PA","USA","40.346653","-79.98041"
"https://www.zillow.com/homedetails/116-Spruce-Valley-Dr-Pittsburgh-PA-15229/11406849_zpid/","","","413950","437500","2500","179000","09/19/2022","","","","6011.28","sqft","68.86","3","3","","Dawn Ross","No","No","","116 Spruce Valley Dr","Pittsburgh","15229","PA","USA","40.511436","-80.04339"
"https://www.zillow.com/homedetails/8201-Van-Buren-Dr-Pittsburgh-PA-15237/11557703_zpid/","","","410000","433300","2850","258200","09/19/2022","2268","sqft","180.78","0.28","acres","1467430.21","3","3","","Jim Belchick","No","No","","8201 Van Buren Dr","Pittsburgh","15237","PA","USA","40.554085","-80.05276"
"https://www.zillow.com/homedetails/222-Leaside-Dr-Monroeville-PA-15146/11599814_zpid/","","","405000","427900","2889","181000","09/16/2022","2400","sqft","168.75","8694.58","sqft","46.58","4","4","","Dawn Sciulli","No","No","","222 Leaside Dr","Monroeville","15146","PA","USA","40.458065","-79.77005"
"https://www.zillow.com/homedetails/117-Cherrington-Dr-Pittsburgh-PA-15237/11485213_zpid/","","","406890","429800","2400","177200","09/14/2022","1901","sqft","214.04","10842.08","sqft","37.53","4","3","","","No","No","","117 Cherrington Dr","Pittsburgh","15237","PA","USA","40.53635","-79.99597"
"https://www.zillow.com/homedetails/4281-Hawthorn-Dr-South-Park-PA-15129/337926998_zpid/","","","413981","437300","1327","258900","09/14/2022","1667","sqft","248.34","0.26","acres","1581843.19","2","2","","","No","No","","4281 Hawthorn Dr","South Park","15129","PA","USA","40.277557","-79.968605"
"https://www.zillow.com/homedetails/102-Downing-Dr-Coraopolis-PA-15108/11477607_zpid/","","","406000","428800","2749","225100","09/13/2022","2244","sqft","180.93","0.36","acres","1127777.78","4","3","","Laurie Kelly","No","No","","102 Downing Dr","Coraopolis","15108","PA","USA","40.494987","-80.1767"
"https://www.zillow.com/homedetails/1605-Norman-Dr-Sewickley-PA-15143/30795262_zpid/","","","410000","433100","2500","211400","09/13/2022","2106","sqft","194.68","1742.4","sqft","235.31","4","3","","Linda Taylor","No","No","","1605 Norman Dr","Sewickley","15143","PA","USA","40.590885","-80.10214"
"https://www.zillow.com/homedetails/890-Ashley-Rd-Gibsonia-PA-15044/164570745_zpid/","","","400000","422500","3200","289400","09/13/2022","","","","0.64","acres","622083.98","3","3","","Sonya Clemente","No","No","","890 Ashley Rd","Gibsonia","15044","PA","USA","40.627422","-79.86755"
"https://www.zillow.com/homedetails/1607-Valley-Brooke-Ct-Wexford-PA-15090/11274240_zpid/","","","400000","422200","2169","172500","09/09/2022","1358","sqft","294.55","0.98","acres","407622.54","3","3","","Debra Donahue","No","No","","1607 Valley Brooke Ct","Wexford","15090","PA","USA","40.62617","-80.077545"
"https://www.zillow.com/homedetails/1312-Spreading-Oak-Dr-Pittsburgh-PA-15220/11460198_zpid/","","","400000","422200","3336","262900","09/06/2022","2162","sqft","185.01","7866.94","sqft","50.85","4","5","","Bonnie Bagay","No","No","","1312 Spreading Oak Dr","Pittsburgh","15220","PA","USA","40.40969","-80.06519"
"https://www.zillow.com/homedetails/1554-Hastings-Mill-Rd-Pittsburgh-PA-15241/11510794_zpid/","","","405000","427400","2937","279700","09/06/2022","2818","sqft","143.72","0.33","acres","1216581.56","4","3","","James Walsh","No","No","","1554 Hastings Mill Rd","Pittsburgh","15241","PA","USA","40.328735","-80.09062"
"https://www.zillow.com/homedetails/113-Snowden-Dr-Pittsburgh-PA-15229/11439733_zpid/","","","410000","384200","2400","167300","09/02/2022","1786","sqft","229.56","10223.53","sqft","40.1","4","4","","Jeremy Mulder","No","No","","113 Snowden Dr","Pittsburgh","15229","PA","USA","40.52401","-80.06258"
"https://www.zillow.com/homedetails/1550-Hastings-Mill-Rd-Pittsburgh-PA-15241/11510697_zpid/","","","405000","427400","2781","295000","09/02/2022","2352","sqft","172.19","4939.59","sqft","81.99","5","3","","Michele Belice","No","No","","1550 Hastings Mill Rd","Pittsburgh","15241","PA","USA","40.329006","-80.09057"
"https://www.zillow.com/homedetails/11-Hillcrest-Ct-Monroeville-PA-15146/11627613_zpid/","","","399900","421900","2570","216700","08/31/2022","","","","0.46","acres","870672.76","4","3","","Rosemarie Stashko","No","No","","11 Hillcrest Ct","Monroeville","15146","PA","USA","40.428185","-79.76249"
"https://www.zillow.com/homedetails/217-Heritage-Dr-Oakdale-PA-15071/121887467_zpid/","","","412500","435100","2429","229400","08/31/2022","","","","3500","sqft","117.86","4","4","","Brian Carothers","No","No","","217 Heritage Dr","Oakdale","15071","PA","USA","40.4262","-80.24407"
"https://www.zillow.com/homedetails/26-Equestrian-Dr-Imperial-PA-15126/306759595_zpid/","","","408625","430900","2666","288500","08/31/2022","","","","0.28","acres","1443904.59","4","","","James Eaton","No","No","","26 Equestrian Dr","Imperial","15126","PA","USA","40.488525","-80.31418"
"https://www.zillow.com/homedetails/1281-Snee-Dr-Pittsburgh-PA-15236/11507919_zpid/","","","400000","422000","2740","210200","08/30/2022","2470","sqft","161.94","0.38","acres","1057082.45","4","3","","Michael Thatcher","No","No","","1281 Snee Dr","Pittsburgh","15236","PA","USA","40.334427","-79.9929"
"https://www.zillow.com/homedetails/136-Valley-Fields-Dr-Pittsburgh-PA-15239/58575916_zpid/","","","402500","424600","2435","286000","08/29/2022","","","","0.63","acres","637876.39","4","3","","Diana Adams","No","No","","136 Valley Fields Dr","Pittsburgh","15239","PA","USA","40.491444","-79.75923"
"https://www.zillow.com/homedetails/2910-Mary-St-Pittsburgh-PA-15203/116179471_zpid/","","","410000","432200","2893","313900","08/26/2022","1872","sqft","219.02","1298.09","sqft","315.85","4","5","","Reed Pirain","No","No","","2910 Mary St","Pittsburgh","15203","PA","USA","40.423065","-79.966286"
"https://www.zillow.com/homedetails/1735-Quigg-Dr-Pittsburgh-PA-15241/11398365_zpid/","","","400000","421900","2514","202200","08/25/2022","","","","6323.57","sqft","63.26","4","3","","Deborah Dattalo","No","No","","1735 Quigg Dr","Pittsburgh","15241","PA","USA","40.356956","-80.06112"
"https://www.zillow.com/homedetails/282-Challen-Dr-Pittsburgh-PA-15236/11507455_zpid/","","","399900","353400","1606","166300","08/25/2022","2000","sqft","199.95","9099.68","sqft","43.95","4","3","","Sandra Rodeheaver","No","No","","282 Challen Dr","Pittsburgh","15236","PA","USA","40.32673","-79.951"
"https://www.zillow.com/homedetails/5313-Keystone-St-Pittsburgh-PA-15201/11612330_zpid/","","","405000","427100","2100","149600","08/24/2022","1500","sqft","270","792.79","sqft","510.85","3","3","","Arron Groomes","No","No","","5313 Keystone St","Pittsburgh","15201","PA","USA","40.481472","-79.95065"
"https://www.zillow.com/homedetails/294-Old-Farm-Rd-Pittsburgh-PA-15228/11309553_zpid/","","","412000","434500","2500","234200","08/23/2022","1836","sqft","224.4","6015.64","sqft","68.49","4","3","","John Adair","No","No","","294 Old Farm Rd","Pittsburgh","15228","PA","USA","40.381424","-80.02998"
"https://www.zillow.com/homedetails/212-Sieaforth-Ave-Pittsburgh-PA-15216/11655493_zpid/","","","403000","424900","2258","162200","08/22/2022","1720","sqft","234.3","4939.7","sqft","81.58","3","3","","Ruth Weigers","No","No","","212 Sieaforth Ave","Pittsburgh","15216","PA","USA","40.391506","-80.04599"
"https://www.zillow.com/homedetails/304-Heritage-Dr-Pittsburgh-PA-15235/11494768_zpid/","","","405000","426900","2368","215600","08/16/2022","","","","0.33","acres","1242905.45","4","3","","Lee Borellis","No","No","","304 Heritage Dr","Pittsburgh","15235","PA","USA","40.42798","-79.818985"
"https://www.zillow.com/homedetails/232-42nd-St-Pittsburgh-PA-15201/11513389_zpid/","","","413000","485600","3198","99900","08/16/2022","","","","1838.23","sqft","224.67","2","2","","Heather Kaczorowski","No","No","","232 42nd St","Pittsburgh","15201","PA","USA","40.469593","-79.95962"
"https://www.zillow.com/homedetails/3471-S-Park-Rd-Bethel-Park-PA-15102/11548814_zpid/","","","405000","408600","2305","188900","08/16/2022","","","","2.04","acres","198529.41","3","2","","Valerie Loutsion","No","No","","3471 S Park Rd","Bethel Park","15102","PA","USA","40.31981","-80.060394"
"https://www.zillow.com/homedetails/1403-Old-Meadow-Rd-Pittsburgh-PA-15241/11433831_zpid/","","","402000","423700","2500","187200","08/15/2022","2000","sqft","201","0.8","acres","499751.37","4","3","","Barbara Baker","No","No","","1403 Old Meadow Rd","Pittsburgh","15241","PA","USA","40.351913","-80.096306"
"https://www.zillow.com/homedetails/8205-Van-Buren-Dr-Pittsburgh-PA-15237/11557701_zpid/","","","405000","426700","2600","233000","08/10/2022","2064","sqft","196.22","0.27","acres","1475947.52","4","4","","Artem Kovalevskiy","No","No","","8205 Van Buren Dr","Pittsburgh","15237","PA","USA","40.554287","-80.05274"
"https://www.zillow.com/homedetails/21-Christonia-Rd-Gibsonia-PA-15044/11299600_zpid/","","","405000","426700","2500","233100","08/09/2022","2184","sqft","185.44","1","acres","405000","4","3","","Diane Boyle","No","No","","21 Christonia Rd","Gibsonia","15044","PA","USA","40.612583","-79.89657"
"https://www.zillow.com/homedetails/152-Lloyd-Ave-Pittsburgh-PA-15218/11381947_zpid/","","","400000","421400","2262","211700","08/08/2022","2107","sqft","189.84","6952","sqft","57.54","5","3","","","No","No","","152 Lloyd Ave","Pittsburgh","15218","PA","USA","40.427128","-79.88263"
"https://www.zillow.com/homedetails/2644-Monterey-Dr-Pittsburgh-PA-15241/11581092_zpid/","","","405000","426500","2400","258300","08/05/2022","","","","0.5","acres","810000","5","3","","Mary Zavodszky","No","No","","2644 Monterey Dr","Pittsburgh","15241","PA","USA","40.30817","-80.08267"
"https://www.zillow.com/homedetails/229-Heritage-Dr-Oakdale-PA-15071/121888072_zpid/","","","399900","420600","2705","257000","08/04/2022","2136","sqft","187.22","6564.49","sqft","60.92","4","4","","","No","No","","229 Heritage Dr","Oakdale","15071","PA","USA","40.427105","-80.244125"
"https://www.zillow.com/homedetails/156-Dutch-Ln-Pittsburgh-PA-15236/11507178_zpid/","","","400000","421100","2678","179400","07/29/2022","2506","sqft","159.62","0.37","acres","1075557.95","4","3","","Nick Bova","No","No","","156 Dutch Ln","Pittsburgh","15236","PA","USA","40.328644","-79.9634"
"https://www.zillow.com/homedetails/102-Bertley-Ridge-Dr-Coraopolis-PA-15108/11477083_zpid/","","","400000","421000","2670","190500","07/28/2022","","","","0.27","acres","1456664.24","4","4","","Dan Kite","No","No","","102 Bertley Ridge Dr","Coraopolis","15108","PA","USA","40.476196","-80.173454"
"https://www.zillow.com/homedetails/604-Glengarry-Ct-Pittsburgh-PA-15239/104363231_zpid/","","","407400","428800","2353","228900","07/28/2022","2072","sqft","196.62","0.57","acres","716244.73","4","4","","Roxanne King","No","No","","604 Glengarry Ct","Pittsburgh","15239","PA","USA","40.505226","-79.753494"
"https://www.zillow.com/homedetails/2619-Mount-Royal-Rd-Pittsburgh-PA-15217/11289789_zpid/","","","400000","420900","2299","193000","07/25/2022","1588","sqft","251.89","4029.3","sqft","99.27","3","3","","Casey Caudill","No","No","","2619 Mount Royal Rd","Pittsburgh","15217","PA","USA","40.427437","-79.914276"
"https://www.zillow.com/homedetails/10-Equestrian-Dr-Imperial-PA-15126/2062928242_zpid/","","","405000","","1250","","07/20/2022","","","","","","","","","","","No","No","","10 Equestrian Dr","Imperial","15126","PA","USA","",""
"https://www.zillow.com/homedetails/1319-Francis-Way-Oakdale-PA-15071/333136584_zpid/","","","413940","430000","2715","321200","07/19/2022","2114","sqft","195.81","0.27","acres","1541789.35","4","2.5","","","No","No","","1319 Francis Way","Oakdale","15071","PA","USA","40.406765","-80.1598"
"https://www.zillow.com/homedetails/509-Avery-St-Pittsburgh-PA-15212/11389053_zpid/","","","399900","420600","1844","152200","07/18/2022","","","","740.52","sqft","540.03","3","2","","Mary Scafede","No","No","","509 Avery St","Pittsburgh","15212","PA","USA","40.452843","-79.99996"
"https://www.zillow.com/homedetails/62-Colony-Oaks-Dr-Pittsburgh-PA-15209/11371851_zpid/","","","400000","420600","2514","220000","07/15/2022","1914","sqft","208.99","0.45","acres","888691.4","4","3","","Michael Reed","No","No","","62 Colony Oaks Dr","Pittsburgh","15209","PA","USA","40.506695","-79.978584"
"https://www.zillow.com/homedetails/1266-Sun-Ridge-Dr-Pittsburgh-PA-15241/11473291_zpid/","","","400000","420600","2195","187000","07/15/2022","","","","0.3","acres","1335113.48","3","3","","Julie Welter","No","No","","1266 Sun Ridge Dr","Pittsburgh","15241","PA","USA","40.340603","-80.10156"
"https://www.zillow.com/homedetails/1401-Pennsylvania-Ave-Oakmont-PA-15139/11489140_zpid/","","","400000","420600","1688","221500","07/15/2022","2324","sqft","172.12","0.4","acres","995767.99","3","2","","Linda Pavlik","No","No","","1401 Pennsylvania Ave","Oakmont","15139","PA","USA","40.520664","-79.8245"
"https://www.zillow.com/homedetails/103-Jude-Dr-Pittsburgh-PA-15237/11522603_zpid/","","","404000","424800","2500","171800","07/15/2022","2062","sqft","195.93","0.32","acres","1271639.91","4","3","","Nancy Dorn","No","No","","103 Jude Dr","Pittsburgh","15237","PA","USA","40.54746","-80.02343"
"https://www.zillow.com/homedetails/2438-Willowbrook-Rd-Pittsburgh-PA-15241/11580794_zpid/","","","402000","422600","2149","182800","07/13/2022","1962","sqft","204.89","0.79","acres","509505.7","3","3","","Wendy Vespa","No","No","","2438 Willowbrook Rd","Pittsburgh","15241","PA","USA","40.315044","-80.075134"
"https://www.zillow.com/homedetails/499-Highview-Rd-Wexford-PA-15090/11258030_zpid/","","","410000","431000","1995","219800","07/12/2022","2575","sqft","159.22","2.77","acres","147960.73","3","1.5","","","No","No","","499 Highview Rd","Wexford","15090","PA","USA","40.590794","-80.06518"
"https://www.zillow.com/homedetails/78-Carleton-Dr-Pittsburgh-PA-15243/11314380_zpid/","","","405000","425700","2364","225100","07/12/2022","","","","8276.4","sqft","48.93","4","3","","Marilyn Spirer","No","No","","78 Carleton Dr","Pittsburgh","15243","PA","USA","40.37514","-80.0809"
"https://www.zillow.com/homedetails/8988-Willoughby-Rd-Pittsburgh-PA-15237/11589271_zpid/","","","410000","431000","2500","253500","07/11/2022","","","","0.33","acres","1238670.69","4","3","","Jill Hobbs","No","No","","8988 Willoughby Rd","Pittsburgh","15237","PA","USA","40.56864","-80.05566"
"https://www.zillow.com/homedetails/4942-Cheyenne-Ct-Gibsonia-PA-15044/11276771_zpid/","","","412850","433900","2364","202300","07/08/2022","1788","sqft","230.9","10301.94","sqft","40.07","3","3","","Caryn Frasca","No","No","","4942 Cheyenne Ct","Gibsonia","15044","PA","USA","40.60392","-79.92882"
"https://www.zillow.com/homedetails/222-S-Millvale-Ave-Pittsburgh-PA-15224/11520731_zpid/","","","408000","428700","2500","108700","07/06/2022","1672","sqft","244.02","2705.08","sqft","150.83","3","3","","Joseph Pegher","No","No","","222 S Millvale Ave","Pittsburgh","15224","PA","USA","40.464104","-79.9457"
"https://www.zillow.com/homedetails/589-Clemson-Dr-Pittsburgh-PA-15243/11360825_zpid/","","","410000","430600","2995","208200","06/30/2022","2301","sqft","178.18","0.38","acres","1089845.83","5","3","","Amanda Gomez","No","No","","589 Clemson Dr","Pittsburgh","15243","PA","USA","40.369293","-80.071846"
"https://www.zillow.com/homedetails/807-Breezewood-Dr-Glenshaw-PA-15116/11485158_zpid/","","","405000","425300","2400","196700","06/30/2022","1870","sqft","216.58","9099.68","sqft","44.51","4","3","","Dan Kite","No","No","","807 Breezewood Dr","Glenshaw","15116","PA","USA","40.53972","-79.98563"
"https://www.zillow.com/homedetails/1029-Old-Post-Rd-South-Park-PA-15129/11606753_zpid/","","","410000","430600","2768","201200","06/30/2022","2352","sqft","174.32","0.28","acres","1469534.05","4","3","","Maria Werner","No","No","","1029 Old Post Rd","South Park","15129","PA","USA","40.301254","-80.0109"
"https://www.zillow.com/homedetails/1004-E-End-Ave-Pittsburgh-PA-15221/11343177_zpid/","","","400000","420100","2477","164200","06/29/2022","","","","5002","sqft","79.97","4","2","","Jane Herrmann","No","No","","1004 E End Ave","Pittsburgh","15221","PA","USA","40.4342","-79.89411"
"https://www.zillow.com/homedetails/24-Morningtide-Ct-Monroeville-PA-15146/87991685_zpid/","","","399900","420000","2873","305600","06/29/2022","3935","sqft","101.63","4469.26","sqft","89.48","4","4","","Lauren Klein","No","No","","24 Morningtide Ct","Monroeville","15146","PA","USA","40.39861","-79.76374"
"https://www.zillow.com/homedetails/8463-Coventry-Dr-Allison-Park-PA-15101/11559740_zpid/","","","405500","425800","2500","221500","06/28/2022","2150","sqft","188.6","0.29","acres","1394016.26","4","3","","","No","No","","8463 Coventry Dr","Allison Park","15101","PA","USA","40.557343","-79.99049"
"https://www.zillow.com/homedetails/208-Heritage-Dr-Oakdale-PA-15071/121888248_zpid/","","","410000","430100","2670","271600","06/27/2022","2538","sqft","161.54","8559.54","sqft","47.9","3","3","","Ashley Ames","No","No","","208 Heritage Dr","Oakdale","15071","PA","USA","40.426163","-80.24315"
"https://www.zillow.com/homedetails/300-Biddle-Ave-Pittsburgh-PA-15221/11342708_zpid/","","","400000","419900","1719","131900","06/24/2022","","","","6242.15","sqft","64.08","5","1","","Kristen Elk","No","No","","300 Biddle Ave","Pittsburgh","15221","PA","USA","40.4375","-79.892975"
"https://www.zillow.com/homedetails/913-Lovingston-Dr-Pittsburgh-PA-15216/11656854_zpid/","","","410000","430400","1945","182000","06/24/2022","1959","sqft","209.29","8794.76","sqft","46.62","4","3","","Janet Hensler","No","No","","913 Lovingston Dr","Pittsburgh","15216","PA","USA","40.38488","-80.0349"
"https://www.zillow.com/homedetails/765-Fruithurst-Dr-Pittsburgh-PA-15228/11309604_zpid/","","","402000","422000","2100","187900","06/22/2022","1544","sqft","260.36","6812.78","sqft","59.01","4","3","","Jennifer Orebaugh","No","No","","765 Fruithurst Dr","Pittsburgh","15228","PA","USA","40.380013","-80.02823"
"https://www.zillow.com/homedetails/9013-Woodview-Dr-Pittsburgh-PA-15237/11557501_zpid/","","","404513","426100","2500","223500","06/22/2022","","","","0.27","acres","1477943","4","3","","Mishaal Paniwala","No","No","","9013 Woodview Dr","Pittsburgh","15237","PA","USA","40.55651","-80.06264"
"https://www.zillow.com/homedetails/150-Fisher-Ln-Baden-PA-15005/11657177_zpid/","","","405000","425100","1927","179400","06/21/2022","","","","1.77","acres","228813.56","3","3","","Rachael Schafer","No","No","","150 Fisher Ln","Baden","15005","PA","USA","40.643364","-80.13626"
"https://www.zillow.com/homedetails/1236-Trailside-Dr-Oakdale-PA-15071/333136602_zpid/","","","407514","427300","2919","344800","06/19/2022","2718","sqft","149.93","0.25","acres","1630056","4","3","","David Bruckner","No","No","","1236 Trailside Dr","Oakdale","15071","PA","USA","40.407967","-80.15776"
"https://www.zillow.com/homedetails/1530-Mountainview-Dr-Gibsonia-PA-15044/11317953_zpid/","","","400000","419700","2500","205500","06/16/2022","1947","sqft","205.44","0.68","acres","586682.31","4","3","","Cynthia Hovan","No","No","","1530 Mountainview Dr","Gibsonia","15044","PA","USA","40.624126","-79.92962"
"https://www.zillow.com/homedetails/107-Castle-Shannon-Blvd-Pittsburgh-PA-15228/11312187_zpid/","","","407500","427500","1685","155000","06/14/2022","","","","5736.85","sqft","71.03","3","2","","Julie Welter","No","No","","107 Castle Shannon Blvd","Pittsburgh","15228","PA","USA","40.377308","-80.042625"
"https://www.zillow.com/homedetails/141-Piper-Dr-Pittsburgh-PA-15234/11431679_zpid/","","","405000","424900","2937","232300","06/14/2022","2346","sqft","172.63","8102.16","sqft","49.99","5","3","","Sharon Ritchey","No","No","","141 Piper Dr","Pittsburgh","15234","PA","USA","40.352043","-80.04708"
"https://www.zillow.com/homedetails/508-Harrogate-Rd-Pittsburgh-PA-15241/11433219_zpid/","","","410000","430100","2700","242300","06/13/2022","2070","sqft","198.07","0.33","acres","1231601.08","4","3","","Patty Irr","No","No","","508 Harrogate Rd","Pittsburgh","15241","PA","USA","40.353848","-80.071365"
"https://www.zillow.com/homedetails/602-Harvester-Dr-Oakdale-PA-15071/59851318_zpid/","","","410000","430100","2749","279700","06/13/2022","2628","sqft","156.01","0.29","acres","1417316.09","4","4","","","No","No","","602 Harvester Dr","Oakdale","15071","PA","USA","40.44602","-80.20143"
"https://www.zillow.com/homedetails/2337-Cramden-Rd-Pittsburgh-PA-15241/11549448_zpid/","","","410000","430000","2385","260000","06/10/2022","","","","","","","4","3","","Shelley Killinger","No","No","","2337 Cramden Rd","Pittsburgh","15241","PA","USA","40.321938","-80.073586"
"https://www.zillow.com/homedetails/415-Hulton-Rd-Oakmont-PA-15139/11446937_zpid/","","","399900","419400","2500","227200","06/09/2022","","","","4216.61","sqft","94.84","4","3","","Molly Finley","No","No","","415 Hulton Rd","Oakmont","15139","PA","USA","40.525238","-79.83864"
"https://www.zillow.com/homedetails/314-2nd-St-Aspinwall-PA-15215/11281268_zpid/","","","400000","419500","1711","235200","06/08/2022","1692","sqft","236.41","1655.28","sqft","241.65","3","2","","Jane Herrmann","No","No","","314 2nd St","Aspinwall","15215","PA","USA","40.490627","-79.90226"
"https://www.zillow.com/homedetails/300-Westbury-Dr-Coraopolis-PA-15108/11553558_zpid/","","","412500","432600","2795","207800","06/08/2022","2690","sqft","153.35","0.27","acres","1551014.24","4","4","","","No","No","","300 Westbury Dr","Coraopolis","15108","PA","USA","40.538223","-80.20918"
"https://www.zillow.com/homedetails/1204-Woodhill-Dr-Gibsonia-PA-15044/11318054_zpid/","","","399900","419300","2400","261100","06/07/2022","2198","sqft","181.94","0.46","acres","871052.06","4","3","","Bonnie Hoolahan","No","No","","1204 Woodhill Dr","Gibsonia","15044","PA","USA","40.621983","-79.932274"
"https://www.zillow.com/homedetails/3018-Hamilton-St-Clairton-PA-15025/116178458_zpid/","","","410000","429800","2768","228500","06/07/2022","2128","sqft","192.67","5227.2","sqft","78.44","4","3","","Joy Lamars","No","No","","3018 Hamilton St","Clairton","15025","PA","USA","40.28465","-79.962166"
"https://www.zillow.com/homedetails/2819-Tischler-Rd-Bethel-Park-PA-15102/11509395_zpid/","","","410000","429900","2234","175700","06/06/2022","","","","6534","sqft","62.75","3","3","","Kathleen Mathison","No","No","","2819 Tischler Rd","Bethel Park","15102","PA","USA","40.329845","-80.03612"
"https://www.zillow.com/homedetails/601-Rockland-Dr-Pittsburgh-PA-15239/119343864_zpid/","","","405900","425400","2470","231500","06/06/2022","2160","sqft","187.92","0.31","acres","1295977.01","4","4","","Melissa Nonnenberg","No","No","","601 Rockland Dr","Pittsburgh","15239","PA","USA","40.482105","-79.74201"
"https://www.zillow.com/homedetails/356-Nelson-Dr-Monroeville-PA-15146/337926737_zpid/","","","403455","422800","2244","263800","06/03/2022","1736","sqft","232.4","0.36","acres","1115416.34","3","2.5","","","No","No","","356 Nelson Dr","Monroeville","15146","PA","USA","40.457825","-79.78069"
"https://www.zillow.com/homedetails/2626-Mount-Royal-Rd-Pittsburgh-PA-15217/11289854_zpid/","","","400000","419300","2146","170100","06/01/2022","1302","sqft","307.22","4290.66","sqft","93.23","3","2","","Rick Schweikert","No","No","","2626 Mount Royal Rd","Pittsburgh","15217","PA","USA","40.427376","-79.91465"
"https://www.zillow.com/homedetails/1016-Woodhill-Dr-Gibsonia-PA-15044/11317748_zpid/","","","410000","429800","3099","323800","05/31/2022","2549","sqft","160.85","0.45","acres","909292.53","4","3","","Linda Boettcher","No","No","","1016 Woodhill Dr","Gibsonia","15044","PA","USA","40.623135","-79.937195"
"https://www.zillow.com/homedetails/6340-Morrowfield-Ave-Pittsburgh-PA-15217/11635894_zpid/","","","400000","419300","2485","199200","05/31/2022","1697","sqft","235.71","4107.71","sqft","97.38","3","3","","Lillian Denhardt","No","No","","6340 Morrowfield Ave","Pittsburgh","15217","PA","USA","40.426956","-79.92122"
"https://www.zillow.com/homedetails/1410-Juniata-St-Pittsburgh-PA-15233/11375911_zpid/","","","400000","419200","2500","256100","05/27/2022","2020","sqft","198.02","1071.58","sqft","373.28","3","3","","Barbara Baker","No","No","","1410 Juniata St","Pittsburgh","15233","PA","USA","40.45689","-80.0277"
"https://www.zillow.com/homedetails/1281-Manor-Dr-Pittsburgh-PA-15241/11510776_zpid/","","","400000","419200","2963","299300","05/27/2022","2760","sqft","144.93","9324","sqft","42.9","5","3.5","","","No","No","","1281 Manor Dr","Pittsburgh","15241","PA","USA","40.326485","-80.09424"
"https://www.zillow.com/homedetails/202-President-Dr-Glenshaw-PA-15116/11443080_zpid/","","","411000","430700","2500","161700","05/22/2022","2167","sqft","189.66","0.27","acres","1539902.59","4","3","","Lisa Wilson","No","No","","202 President Dr","Glenshaw","15116","PA","USA","40.52961","-79.97087"
"https://www.zillow.com/homedetails/4885-S-Pioneer-Rd-Gibsonia-PA-15044/11276258_zpid/","","","405000","424400","2500","182600","05/20/2022","2120","sqft","191.04","0.62","acres","653225.81","4","3","","Dolly Nicely","No","No","","4885 S Pioneer Rd","Gibsonia","15044","PA","USA","40.600735","-79.95044"
"https://www.zillow.com/homedetails/196-Mayfair-Dr-Pittsburgh-PA-15228/11359777_zpid/","","","400196","419400","2498","219200","05/20/2022","1949","sqft","205.33","6037.42","sqft","66.29","3","3","","Cindy McVerry","No","No","","196 Mayfair Dr","Pittsburgh","15228","PA","USA","40.369404","-80.05845"
"https://www.zillow.com/homedetails/122-Magnolia-Dr-Mc-Kees-Rocks-PA-15136/248643185_zpid/","","","405000","424500","2948","292400","05/20/2022","2276","sqft","177.94","0.45","acres","897162.33","4","2.5","","","No","No","","122 Magnolia Dr","Mc Kees Rocks","15136","PA","USA","40.454903","-80.117035"
