Property URL,MLS ID,Number of days on Zillow,Property price (USD),Zestimate (USD),Rent zestimate (USD per month),Tax assessed value (USD),Sold date (MM/DD/YYYY),Living area,Living area unit,Price per living area unit (USD),Lot/land area,Lot/land area unit,Price per lot/land area unit (USD),Bedrooms,Bathrooms,Broker name,Broker agent,Is owner occupied,Property owned by Zillow,Property unit number,Street address,City,Zip,State,Country,Latitude,Longitude
"https://www.zillow.com/homedetails/2725-Zephyr-Ave-Pittsburgh-PA-15204/11483701_zpid/","","","55000","55000","1450","47700","10/12/2023","2175","sqft","25.29","4983.26","sqft","11.04","5","1","","Ryan Shedlock","No","No","","2725 Zephyr Ave","Pittsburgh","15204","PA","USA","40.45318","-80.0503"
"https://www.zillow.com/homedetails/8074-Chaske-St-Verona-PA-15147/11375244_zpid/","","","51300","51300","1407","55900","09/28/2023","1092","sqft","46.98","6037.42","sqft","8.5","3","1","","Robert Moncavage","No","No","","8074 Chaske St","Verona","15147","PA","USA","40.475616","-79.86916"
"https://www.zillow.com/homedetails/734-10th-St-Pitcairn-PA-15140/11601836_zpid/","","","50000","50000","1250","42500","09/28/2023","1798","sqft","27.81","3998.81","sqft","12.5","4","2","","Stephanie Adeniran","No","No","","734 10th St","Pitcairn","15140","PA","USA","40.406696","-79.771996"
"https://www.zillow.com/homedetails/210-Clarks-Pike-Rd-E-Tarentum-PA-15084/2056194395_zpid/","","","55000","","1050","","09/26/2023","1632","sqft","33.7","0.35","acres","157142.86","4","1","","Nicole D Arduino","No","No","","210 Clarks Pike Rd E","Tarentum","15084","PA","USA","",""
"https://www.zillow.com/homedetails/853-Eldora-Pl-Pittsburgh-PA-15210/11324849_zpid/","","","54000","54000","1381","20600","09/21/2023","1534","sqft","35.2","2500.34","sqft","21.6","3","1","","Kim Bradley","No","No","","853 Eldora Pl","Pittsburgh","15210","PA","USA","40.41431","-80.00107"
"https://www.zillow.com/homedetails/2808-Grover-Ave-McKeesport-PA-15132/11462457_zpid/","","","54000","54000","891","11200","09/21/2023","1056","sqft","51.14","2500.34","sqft","21.6","2","1","","Hedy Krenn","No","No","","2808 Grover Ave","McKeesport","15132","PA","USA","40.341274","-79.844345"
"https://www.zillow.com/homedetails/1807-Packer-St-McKeesport-PA-15132/11463020_zpid/","","","52000","52000","1078","17100","09/21/2023","1288","sqft","40.37","2874.96","sqft","18.09","3","2","","Hedy Krenn","No","No","","1807 Packer St","McKeesport","15132","PA","USA","40.33965","-79.84719"
"https://www.zillow.com/homedetails/1724-Federal-St-McKeesport-PA-15132/11464946_zpid/","","","50000","50000","1104","12900","09/21/2023","1360","sqft","36.76","2874.96","sqft","17.39","2","2","","Hedy Krenn","No","No","","1724 Federal St","McKeesport","15132","PA","USA","40.341084","-79.85115"
"https://www.zillow.com/homedetails/119-Quincy-Ave-Pittsburgh-PA-15210/11437081_zpid/","","","55000","55000","1395","18000","09/20/2023","","","","3000","sqft","18.33","4","2","","Alex Deacon","No","No","","119 Quincy Ave","Pittsburgh","15210","PA","USA","40.40755","-79.99049"
"https://www.zillow.com/homedetails/Belle-Vw-Mc-Henry-MD-21541/249559895_zpid/","","","55000","","799","75300","09/18/2023","","","","0.66","acres","83069.24","","","","","No","No","","Belle Vw","Mc Henry","21541","MD","USA","40.38152","-80.21109"
"https://www.zillow.com/homedetails/3115-Churchview-Ave-Pittsburgh-PA-15227/11642516_zpid/","","","50000","50000","1298","37000","09/14/2023","994","sqft","50.3","0.32","acres","157084.51","2","1","","Thomas Bencho","No","No","","3115 Churchview Ave","Pittsburgh","15227","PA","USA","40.386345","-79.965775"
"https://www.zillow.com/homedetails/143-Robin-St-North-Versailles-PA-15137/11538818_zpid/","","","52000","52000","1302","23000","09/13/2023","1100","sqft","47.27","9051.77","sqft","5.74","2","1","","Jason Mazzei","No","No","","143 Robin St","North Versailles","15137","PA","USA","40.37238","-79.815414"
"https://www.zillow.com/homedetails/211-Stanton-Ave-Pittsburgh-PA-15209/11611226_zpid/","","","50000","50000","1711","54300","08/29/2023","1886","sqft","26.51","1799.03","sqft","27.79","3","2","","Marianne Hall","No","No","","211 Stanton Ave","Pittsburgh","15209","PA","USA","40.4776","-79.97084"
"https://www.zillow.com/homedetails/316-318-Tabor-St-Pittsburgh-PA-15204/2056372945_zpid/","","","57000","","1034","","08/25/2023","992","sqft","57.46","1498.46","sqft","38.04","4","2","","Rob Borgo","No","No","","316-318 Tabor St","Pittsburgh","15204","PA","USA","",""
"https://www.zillow.com/homedetails/500-Russellwood-Ave-Mc-Kees-Rocks-PA-15136/11594101_zpid/","","","55400","55400","1062","32400","08/21/2023","1156","sqft","47.92","1441.84","sqft","38.42","2","1","","Ryan Shedlock","No","No","","500 Russellwood Ave","Mc Kees Rocks","15136","PA","USA","40.47003","-80.07128"
"https://www.zillow.com/homedetails/319-Long-Rd-Pittsburgh-PA-15235/11451685_zpid/","","","50000","50000","1136","71500","08/18/2023","1262","sqft","39.62","10027.51","sqft","4.99","2","2","","Dan Matcuk","No","No","","319 Long Rd","Pittsburgh","15235","PA","USA","40.460773","-79.83366"
"https://www.zillow.com/homedetails/3300-Stewart-St-McKeesport-PA-15132/11462681_zpid/","","","52000","","1298","32700","08/15/2023","1558","sqft","33.38","3696","sqft","14.07","3","1","","","No","No","","3300 Stewart St","McKeesport","15132","PA","USA","40.342766","-79.83906"
"https://www.zillow.com/homedetails/611-Payne-Hill-Rd-Clairton-PA-15025/11605246_zpid/","","","51000","208100","1499","148300","08/15/2023","2587","sqft","19.71","1.23","acres","41632.65","3","1.5","","","No","No","","611 Payne Hill Rd","Clairton","15025","PA","USA","40.29876","-79.9197"
"https://www.zillow.com/homedetails/147-Union-St-Duquesne-PA-15110/11423172_zpid/","","","52000","","1318","46300","08/14/2023","1880","sqft","27.66","7810","sqft","6.66","3","1","","","No","No","","147 Union St","Duquesne","15110","PA","USA","40.37297","-79.85882"
"https://www.zillow.com/homedetails/1404-Maple-St-McKeesport-PA-15132/11462200_zpid/","","","51000","51000","1134","31600","08/14/2023","1617","sqft","31.54","2613.6","sqft","19.51","3","1","","Robert Moncavage","No","No","","1404 Maple St","McKeesport","15132","PA","USA","40.343452","-79.84623"
"https://www.zillow.com/homedetails/902-Russellwood-Ave-Mc-Kees-Rocks-PA-15136/11599050_zpid/","","","55000","55000","1069","30800","08/14/2023","1496","sqft","36.76","2178","sqft","25.25","3","1","","Robert Moncavage","No","No","","902 Russellwood Ave","Mc Kees Rocks","15136","PA","USA","40.47307","-80.07678"
"https://www.zillow.com/homedetails/742-Dunmore-St-Pittsburgh-PA-15206/11282865_zpid/","","","55000","54900","1582","57000","08/11/2023","1128","sqft","48.76","7074.14","sqft","7.77","3","2","","Libby Sosinski","No","No","","742 Dunmore St","Pittsburgh","15206","PA","USA","40.472343","-79.9011"
"https://www.zillow.com/homedetails/702-Grant-Ave-Duquesne-PA-15110/11423616_zpid/","","","50000","49900","1064","13900","08/11/2023","1080","sqft","46.3","4356","sqft","11.48","2","1","","Matt O'Donnell","No","No","","702 Grant Ave","Duquesne","15110","PA","USA","40.372055","-79.852295"
"https://www.zillow.com/homedetails/117-6th-St-Turtle-Creek-PA-15145/11496599_zpid/","","","50000","59000","950","27900","08/11/2023","1032","sqft","48.45","2750","sqft","18.18","2","1","","","No","No","","117 6th St","Turtle Creek","15145","PA","USA","40.40208","-79.81823"
"https://www.zillow.com/homedetails/600-Grant-Ave-Duquesne-PA-15110/11423623_zpid/","","","50500","50500","995","11700","08/09/2023","1184","sqft","42.65","2800.91","sqft","18.03","3","1","","Christina Nahay","No","No","","600 Grant Ave","Duquesne","15110","PA","USA","40.372395","-79.8512"
"https://www.zillow.com/homedetails/810-Airbrake-Ave-Wilmerding-PA-15148/11536394_zpid/","","","50000","50000","950","26400","08/04/2023","1072","sqft","46.64","2750","sqft","18.18","2","1","","","No","No","","810 Airbrake Ave","Wilmerding","15148","PA","USA","40.39987","-79.81556"
"https://www.zillow.com/homedetails/3317-Freeland-St-McKeesport-PA-15132/11461520_zpid/","","","56500","56400","1300","50800","08/03/2023","1647","sqft","34.3","4673.99","sqft","12.09","3","2","","Cory Fast","No","No","","3317 Freeland St","McKeesport","15132","PA","USA","40.3475","-79.83757"
"https://www.zillow.com/homedetails/1124-Beverly-Rd-McKeesport-PA-15133/11465615_zpid/","","","55000","55000","1499","84500","08/02/2023","1550","sqft","35.48","7325","sqft","7.51","4","1.5","","","No","No","","1124 Beverly Rd","McKeesport","15133","PA","USA","40.33873","-79.87763"
"https://www.zillow.com/homedetails/5305-2nd-Ave-Pittsburgh-PA-15207/11550846_zpid/","","","57000","136700","2199","50200","08/02/2023","1946","sqft","29.29","2874","sqft","19.83","4","3","","","No","No","","5305 2nd Ave","Pittsburgh","15207","PA","USA","40.404366","-79.942245"
"https://www.zillow.com/homedetails/127-Clinton-St-Mc-Kees-Rocks-PA-15136/11594356_zpid/","","","55000","150700","1323","80000","08/02/2023","1941","sqft","28.34","5000","sqft","11","3","1","","","No","No","","127 Clinton St","Mc Kees Rocks","15136","PA","USA","40.468616","-80.08121"
"https://www.zillow.com/homedetails/61-N-Canal-St-Natrona-Heights-PA-15065/11320519_zpid/","","","50000","50000","1150","32700","08/01/2023","1428","sqft","35.01","3000","sqft","16.67","2","1.5","","","No","No","","61 N Canal St","Natrona Heights","15065","PA","USA","40.61836","-79.720276"
"https://www.zillow.com/homedetails/518-Nordeen-Dr-West-Mifflin-PA-15122/11352590_zpid/","","","54500","54500","1434","72100","08/01/2023","1163","sqft","46.86","","","","3","1","","","No","No","","518 Nordeen Dr","West Mifflin","15122","PA","USA","40.369423","-79.92765"
"https://www.zillow.com/homedetails/703-Attica-St-Pittsburgh-PA-15220/11362380_zpid/","","","51000","51000","1400","23200","07/31/2023","1024","sqft","49.8","8280.76","sqft","6.16","2","1","","Heather Kaczorowski","No","No","","703 Attica St","Pittsburgh","15220","PA","USA","40.442135","-80.03603"
"https://www.zillow.com/homedetails/2459-N-Charles-St-Pittsburgh-PA-15214/11499185_zpid/","","","55000","","1298","36900","07/31/2023","","","","4791.6","sqft","11.48","3","1","","Giovanni Fedele","No","No","","2459 N Charles St","Pittsburgh","15214","PA","USA","40.466743","-80.01966"
"https://www.zillow.com/homedetails/2304-Butler-Logan-Rd-Tarentum-PA-15084/11646796_zpid/","","","52000","52100","1417","55000","07/28/2023","","","","1.78","acres","29271.04","4","1","","Anthony Leone","No","No","","2304 Butler Logan Rd","Tarentum","15084","PA","USA","40.585136","-79.80342"
"https://www.zillow.com/homedetails/1511-Mack-St-Natrona-Heights-PA-15065/11320332_zpid/","","","50000","50000","1300","76500","07/26/2023","1160","sqft","43.1","7387","sqft","6.77","2","2","","","No","No","","1511 Mack St","Natrona Heights","15065","PA","USA","40.622704","-79.73259"
"https://www.zillow.com/homedetails/1522-Foliage-St-Pittsburgh-PA-15221/11378444_zpid/","","","50000","50100","1299","25400","07/26/2023","","","","2700.72","sqft","18.51","2","1","","Albert Anthony","No","No","","1522 Foliage St","Pittsburgh","15221","PA","USA","40.44913","-79.880875"
"https://www.zillow.com/homedetails/2206-Manor-Ave-Pittsburgh-PA-15218/11345918_zpid/","","","50000","98200","1379","41000","07/25/2023","1269","sqft","39.4","2261","sqft","22.11","3","1","","","No","No","","2206 Manor Ave","Pittsburgh","15218","PA","USA","40.420876","-79.883415"
"https://www.zillow.com/homedetails/2020-Frankella-Ave-Pittsburgh-PA-15221/11378355_zpid/","","","53500","62800","1350","36100","07/24/2023","1312","sqft","40.78","5357.88","sqft","9.99","3","1","","Michelle Simmons","No","No","","2020 Frankella Ave","Pittsburgh","15221","PA","USA","40.451447","-79.86978"
"https://www.zillow.com/homedetails/8146-Aber-Rd-Verona-PA-15147/11415240_zpid/","","","51000","","1400","59200","07/24/2023","896","sqft","56.92","0.62","acres","82258.67","3","1","","","No","No","","8146 Aber Rd","Verona","15147","PA","USA","40.47136","-79.86042"
"https://www.zillow.com/homedetails/4120-Rockwood-Dr-Pittsburgh-PA-15227/11355635_zpid/","","","55000","173900","1500","80000","07/21/2023","925","sqft","59.46","10480","sqft","5.25","3","1","","","No","No","","4120 Rockwood Dr","Pittsburgh","15227","PA","USA","40.367626","-79.98531"
"https://www.zillow.com/homedetails/626-Valley-St-Oakmont-PA-15139/11448083_zpid/","","","50000","50100","1400","50000","07/19/2023","1172","sqft","42.66","7500","sqft","6.67","3","1","","","No","No","","626 Valley St","Oakmont","15139","PA","USA","40.51229","-79.83751"
"https://www.zillow.com/homedetails/9208-Vantine-St-Pittsburgh-PA-15235/11415976_zpid/","","","56000","133300","1357","68300","07/18/2023","1180","sqft","47.46","6098","sqft","9.18","3","1","","","No","No","","9208 Vantine St","Pittsburgh","15235","PA","USA","40.460648","-79.85961"
"https://www.zillow.com/homedetails/1521-Obey-St-Pittsburgh-PA-15205/11475576_zpid/","","","50000","146600","1386","76500","07/18/2023","1273","sqft","39.28","2613.6","sqft","19.13","3","1","","","No","No","","1521 Obey St","Pittsburgh","15205","PA","USA","40.440624","-80.05151"
"https://www.zillow.com/homedetails/801-Lynda-Ln-North-Versailles-PA-15137/11497473_zpid/","","","53000","118600","1264","68100","07/18/2023","1475","sqft","35.93","6736","sqft","7.87","3","1","","","No","No","","801 Lynda Ln","North Versailles","15137","PA","USA","40.377094","-79.82596"
"https://www.zillow.com/homedetails/8-Marie-Ave-Avalon-PA-15202/11368366_zpid/","","","52000","52100","1402","91300","07/14/2023","1616","sqft","32.18","4234.03","sqft","12.28","3","1","","Connie Finnegan","No","No","","8 Marie Ave","Avalon","15202","PA","USA","40.50419","-80.07477"
"https://www.zillow.com/homedetails/3615-Woodland-St-McKeesport-PA-15132/11463930_zpid/","","","56250","118200","1980","61900","07/14/2023","1488","sqft","37.8","5000.69","sqft","11.25","4","2","","","No","No","","3615 Woodland St","McKeesport","15132","PA","USA","40.33774","-79.83388"
"https://www.zillow.com/homedetails/72-Sampson-Ave-Pittsburgh-PA-15205/11588332_zpid/","","","50000","140100","1250","77700","07/11/2023","1140","sqft","43.86","2500","sqft","20","3","1","","","No","No","","72 Sampson Ave","Pittsburgh","15205","PA","USA","40.44431","-80.07218"
"https://www.zillow.com/homedetails/224-E-Agnew-Ave-Pittsburgh-PA-15210/11557297_zpid/","","","55700","199800","1207","52300","07/10/2023","1733","sqft","32.14","6076.62","sqft","9.17","3","1","","Daniel Seigel","No","No","","224 E Agnew Ave","Pittsburgh","15210","PA","USA","40.39588","-79.983284"
"https://www.zillow.com/homedetails/658-Dow-Ave-Carnegie-PA-15106/11582269_zpid/","","","50000","132000","1200","65100","07/10/2023","1062","sqft","47.08","3000","sqft","16.67","2","1","","","No","No","","658 Dow Ave","Carnegie","15106","PA","USA","40.40594","-80.07972"
"https://www.zillow.com/homedetails/610-Pennview-Dr-Pittsburgh-PA-15235/11494082_zpid/","","","51500","118100","1222","65500","07/03/2023","1388","sqft","37.1","4525","sqft","11.38","2","1","","","No","No","","610 Pennview Dr","Pittsburgh","15235","PA","USA","40.446335","-79.83249"
"https://www.zillow.com/homedetails/1742-Lincoln-Way-White-Oak-PA-15131/11540961_zpid/","","","50000","96100","950","42500","07/03/2023","","","","","","","2","1","","","No","No","","1742 Lincoln Way","White Oak","15131","PA","USA","40.343807","-79.815"
"https://www.zillow.com/homedetails/1002-Airbrake-Ave-Wilmerding-PA-15148/11496691_zpid/","","","52000","","1157","34100","06/30/2023","1120","sqft","46.43","2970.79","sqft","17.5","2","2","","Francie Jacob","No","No","","1002 Airbrake Ave","Wilmerding","15148","PA","USA","40.400753","-79.8169"
"https://www.zillow.com/homedetails/322-Crane-Ave-Pittsburgh-PA-15216/11335668_zpid/","","","50000","178500","1914","90100","06/29/2023","2153","sqft","23.22","1","acres","50101.21","4","2","","","No","No","","322 Crane Ave","Pittsburgh","15216","PA","USA","40.418095","-80.02038"
"https://www.zillow.com/homedetails/2025-Veronica-St-Pittsburgh-PA-15212/11512076_zpid/","","","50000","","1366","40200","06/29/2023","1174","sqft","42.59","2199.78","sqft","22.73","2","2","","Arron Groomes","No","No","","2025 Veronica St","Pittsburgh","15212","PA","USA","40.468967","-79.98084"
"https://www.zillow.com/homedetails/312-Cape-May-Ave-Pittsburgh-PA-15216/11445455_zpid/","","","50469","50700","1214","48300","06/28/2023","1030","sqft","49","2000","sqft","25.23","2","1","","","No","No","","312 Cape May Ave","Pittsburgh","15216","PA","USA","40.410088","-80.02066"
"https://www.zillow.com/homedetails/4827-Sullivan-St-Pittsburgh-PA-15224/11519375_zpid/","","","55860","187600","1804","112000","06/23/2023","1200","sqft","46.55","8924","sqft","6.26","3","1.5","","","No","No","","4827 Sullivan St","Pittsburgh","15224","PA","USA","40.47101","-79.9449"
"https://www.zillow.com/homedetails/310-Howard-St-East-Pittsburgh-PA-15112/11458559_zpid/","","","52500","46000","949","20100","06/21/2023","850","sqft","61.76","1624.79","sqft","32.31","2","1","","Angela Occhipinti","No","No","","310 Howard St","East Pittsburgh","15112","PA","USA","40.396713","-79.84345"
"https://www.zillow.com/homedetails/5200-W-Smithfield-St-McKeesport-PA-15135/11575846_zpid/","","","51000","172100","1489","85200","06/21/2023","1236","sqft","41.26","6300","sqft","8.1","3","1.5","","","No","No","","5200 W Smithfield St","McKeesport","15135","PA","USA","40.308228","-79.83214"
"https://www.zillow.com/homedetails/122-Walnut-Ave-Clairton-PA-15025/11576627_zpid/","","","57000","57200","1050","41300","06/21/2023","950","sqft","60","4125.13","sqft","13.82","3","1","","MARISSA MONACK","No","No","","122 Walnut Ave","Clairton","15025","PA","USA","40.307987","-79.88984"
"https://www.zillow.com/homedetails/214-Indianola-Dr-Indianola-PA-15051/11593578_zpid/","","","50000","50200","1450","45900","06/21/2023","700","sqft","71.43","4876","sqft","10.25","3","1","","","No","No","","214 Indianola Dr","Indianola","15051","PA","USA","40.562885","-79.85844"
"https://www.zillow.com/homedetails/7736-Mark-Dr-Verona-PA-15147/11376748_zpid/","","","54000","230700","1494","56500","06/20/2023","1313","sqft","41.13","6608.05","sqft","8.17","3","2","","","No","No","","7736 Mark Dr","Verona","15147","PA","USA","40.469353","-79.87624"
"https://www.zillow.com/homedetails/207-Fleet-St-Braddock-PA-15104/11384694_zpid/","","","52500","66200","1050","15700","06/20/2023","","","","1306.8","sqft","40.17","2","1","","Joseph Yates","No","No","","207 Fleet St","Braddock","15104","PA","USA","40.408623","-79.875694"
"https://www.zillow.com/homedetails/1407-Charlton-Heights-Rd-Coraopolis-PA-15108/11477876_zpid/","","","50000","50200","1450","75000","06/20/2023","1380","sqft","36.23","1.13","acres","44444.44","3","1","","","No","No","","1407 Charlton Heights Rd","Coraopolis","15108","PA","USA","40.507603","-80.169106"
"https://www.zillow.com/homedetails/2711-Harrison-St-McKeesport-PA-15132/11502962_zpid/","","","55000","55300","997","35200","06/16/2023","1240","sqft","44.35","5000.69","sqft","11","2","1","","Lori Malseed","No","No","","2711 Harrison St","McKeesport","15132","PA","USA","40.33377","-79.83388"
"https://www.zillow.com/homedetails/933-Boyce-Rd-Bridgeville-PA-15017/59855303_zpid/","","","51000","178700","1417","116700","06/16/2023","1155","sqft","44.16","0.4","acres","127500","2","1","","","No","No","","933 Boyce Rd","Bridgeville","15017","PA","USA","40.322136","-80.1215"
"https://www.zillow.com/homedetails/434-Penn-St-Pittsburgh-PA-15227/11554180_zpid/","","","50000","135100","1461","80300","06/15/2023","1333","sqft","37.51","8316","sqft","6.01","3","1","","","No","No","","434 Penn St","Pittsburgh","15227","PA","USA","40.397697","-79.97363"
"https://www.zillow.com/homedetails/905-Harper-Rd-Crescent-PA-15046/11586951_zpid/","","","52500","","1390","44700","06/14/2023","1452","sqft","36.16","10001.38","sqft","5.25","4","2","","Michael Young","No","No","","905 Harper Rd","Crescent","15046","PA","USA","40.56503","-80.23122"
"https://www.zillow.com/homedetails/315-Grove-St-Mc-Kees-Rocks-PA-15136/11594847_zpid/","","","50000","50300","998","30000","06/14/2023","1224","sqft","40.85","2400","sqft","20.83","2","1","","","No","No","","315 Grove St","Mc Kees Rocks","15136","PA","USA","40.467697","-80.07016"
"https://www.zillow.com/homedetails/125-Liberty-St-Bridgeville-PA-15017/11399847_zpid/","","","53600","","1650","65800","06/13/2023","1394","sqft","38.45","10001.38","sqft","5.36","3","2","","Laurel Tokarczyk","No","No","","125 Liberty St","Bridgeville","15017","PA","USA","40.359386","-80.10742"
"https://www.zillow.com/homedetails/305-James-St-Turtle-Creek-PA-15145/11496450_zpid/","","","50000","","1397","30000","06/13/2023","1624","sqft","30.79","2500.34","sqft","20","4","2","","Jacqueline Williams","No","No","","305 James St","Turtle Creek","15145","PA","USA","40.406693","-79.818596"
"https://www.zillow.com/homedetails/144-5th-Ave-Braddock-PA-15104/11383978_zpid/","","","53007","53300","1150","13500","06/12/2023","1424","sqft","37.22","2880","sqft","18.41","2","1.5","","","No","No","","144 5th Ave","Braddock","15104","PA","USA","40.41321","-79.87799"
"https://www.zillow.com/homedetails/Juliet-St-Pittsburgh-PA-15213/164612867_zpid/","","","51000","","1514","45000","06/12/2023","","","","5280","sqft","9.66","","","","","No","No","","Juliet St","Pittsburgh","15213","PA","USA","40.431877","-79.95687"
"https://www.zillow.com/homedetails/29-Elm-Ln-Pittsburgh-PA-15223/11333075_zpid/","","","55000","74600","1407","43900","06/09/2023","1232","sqft","44.64","4151.27","sqft","13.25","3","2","","Michele Stillwagon","No","No","","29 Elm Ln","Pittsburgh","15223","PA","USA","40.498802","-79.94669"
"https://www.zillow.com/homedetails/8701-Wittmer-Rd-Pittsburgh-PA-15237/11589772_zpid/","","","53000","64900","1324","48000","06/08/2023","","","","679.54","sqft","77.99","2","1","","Linda Pelkofer","No","No","","8701 Wittmer Rd","Pittsburgh","15237","PA","USA","40.564426","-80.051704"
"https://www.zillow.com/homedetails/2332-Valera-Ave-Pittsburgh-PA-15210/11648395_zpid/","","","52600","52900","1300","81300","06/07/2023","1232","sqft","42.69","3149.39","sqft","16.7","2","2","","Daniel Seigel","No","No","","2332 Valera Ave","Pittsburgh","15210","PA","USA","40.386906","-79.98694"
"https://www.zillow.com/homedetails/224-Pineview-Dr-Elizabeth-PA-15037/11336977_zpid/","","","54000","124800","900","73100","06/06/2023","708","sqft","76.27","0.99","acres","54403.4","2","1","","","No","No","","224 Pineview Dr","Elizabeth","15037","PA","USA","40.230843","-79.8505"
"https://www.zillow.com/homedetails/41-Locust-Ave-Millvale-PA-15209/11329139_zpid/","","","53000","40300","1392","67500","06/05/2023","1230","sqft","43.09","2400.16","sqft","22.08","2","1","","Michael Pohlot","No","No","","41 Locust Ave","Millvale","15209","PA","USA","40.497143","-79.97196"
"https://www.zillow.com/homedetails/162-Briarwood-Dr-Pittsburgh-PA-15235/11453820_zpid/","","","50000","","1594","73000","06/05/2023","1219","sqft","41.02","5998.21","sqft","8.34","3","2","","","No","No","","162 Briarwood Dr","Pittsburgh","15235","PA","USA","40.44854","-79.83803"
"https://www.zillow.com/homedetails/1122-North-Ave-Millvale-PA-15209/11329348_zpid/","","","50000","124500","1347","63100","06/02/2023","1386","sqft","36.08","3049.2","sqft","16.4","3","1","","","No","No","","1122 North Ave","Millvale","15209","PA","USA","40.492245","-79.974174"
"https://www.zillow.com/homedetails/410-Grove-St-Mc-Kees-Rocks-PA-15136/11594623_zpid/","","","56000","135700","1364","38800","06/02/2023","1663","sqft","33.67","2400","sqft","23.33","4","2","","","No","No","","410 Grove St","Mc Kees Rocks","15136","PA","USA","40.4686","-80.070656"
"https://www.zillow.com/homedetails/405-Short-St-Pittsburgh-PA-15239/11626402_zpid/","","","51761","52100","749","37200","06/02/2023","538","sqft","96.21","6676","sqft","7.75","1","1","","","No","No","","405 Short St","Pittsburgh","15239","PA","USA","40.475166","-79.75722"
"https://www.zillow.com/homedetails/Twin-Hill-Rd-Ext-Wexford-PA-15090/164553236_zpid/","","","55000","","2100","38600","06/02/2023","","","","1.18","acres","46609.99","","","","","No","No","","Twin Hill Rd Ext","Wexford","15090","PA","USA","40.60064","-80.06457"
"https://www.zillow.com/homedetails/879-Miller-Ave-Clairton-PA-15025/11250327_zpid/","","","50000","","1085","40400","05/31/2023","1185","sqft","42.19","6969.6","sqft","7.17","3","1","","Robert Moncavage","No","No","","879 Miller Ave","Clairton","15025","PA","USA","40.285263","-79.88333"
"https://www.zillow.com/homedetails/1504-Marie-St-Pittsburgh-PA-15221/11417458_zpid/","","","50000","50400","1314","22900","05/31/2023","1276","sqft","39.18","3201.66","sqft","15.62","3","1","","Judith Ginyard","No","No","","1504 Marie St","Pittsburgh","15221","PA","USA","40.44893","-79.862206"
"https://www.zillow.com/homedetails/102-Constitution-Cir-Clairton-PA-15025/11250184_zpid/","","","52000","47400","1096","39700","05/26/2023","1200","sqft","43.33","5000.69","sqft","10.4","3","1","","Dean Korber","No","No","","102 Constitution Cir","Clairton","15025","PA","USA","40.286953","-79.887764"
"https://www.zillow.com/homedetails/720-Pacific-Ave-Glassport-PA-15045/11543780_zpid/","","","55000","115100","1078","48600","05/26/2023","775","sqft","70.97","6000","sqft","9.17","3","1","","","No","No","","720 Pacific Ave","Glassport","15045","PA","USA","40.32389","-79.88465"
"https://www.zillow.com/homedetails/2002-Dellrose-St-Pittsburgh-PA-15210/11557243_zpid/","","","55000","70800","1442","61100","05/26/2023","1260","sqft","43.65","1981.98","sqft","27.75","3","2","","Michael Vietmeier","No","No","","2002 Dellrose St","Pittsburgh","15210","PA","USA","40.39453","-79.98735"
"https://www.zillow.com/homedetails/336-Lee-Ave-Pittsburgh-PA-15237/11558241_zpid/","","","50000","160000","1357","94600","05/26/2023","968","sqft","51.65","4791","sqft","10.44","2","1","","","No","No","","336 Lee Ave","Pittsburgh","15237","PA","USA","40.55185","-80.04202"
"https://www.zillow.com/homedetails/2016-Bridge-Ave-McKeesport-PA-15132/11464628_zpid/","","","51000","","1362","39300","05/24/2023","","","","5227.2","sqft","9.76","4","2","","Phillip Nardozzi","No","No","","2016 Bridge Ave","McKeesport","15132","PA","USA","40.34335","-79.85079"
"https://www.zillow.com/homedetails/1834-Horizon-Dr-White-Oak-PA-15131/11541063_zpid/","","","50000","202500","1500","89000","05/24/2023","1320","sqft","37.88","8712","sqft","5.74","3","2","","","No","No","","1834 Horizon Dr","White Oak","15131","PA","USA","40.34489","-79.805115"
"https://www.zillow.com/homedetails/126-Delaney-Dr-Pittsburgh-PA-15235/11535157_zpid/","","","50000","144300","1200","81600","05/22/2023","1056","sqft","47.35","7998","sqft","6.25","2","1","","","No","No","","126 Delaney Dr","Pittsburgh","15235","PA","USA","40.432655","-79.80777"
"https://www.zillow.com/homedetails/820-Short-St-Mc-Kees-Rocks-PA-15136/11602746_zpid/","","","50000","","950","29100","05/22/2023","","","","2880","sqft","17.36","2","1","","Donna Isoldi","No","No","","820 Short St","Mc Kees Rocks","15136","PA","USA","40.47428","-80.06284"
"https://www.zillow.com/homedetails/2302-Hookstown-Grade-Rd-Clinton-PA-15026/59845523_zpid/","","","50000","50500","950","59400","05/22/2023","868","sqft","57.6","0.79","acres","63091.48","2","1","","Donna DiVito","No","No","","2302 Hookstown Grade Rd","Clinton","15026","PA","USA","40.517433","-80.27994"
"https://www.zillow.com/homedetails/120-Wallace-Ave-East-Pittsburgh-PA-15112/11456363_zpid/","","","53000","157900","1294","43800","05/19/2023","","","","6063.55","sqft","8.74","3","1","","Jeffrey Stanley","No","No","","120 Wallace Ave","East Pittsburgh","15112","PA","USA","40.41633","-79.83815"
"https://www.zillow.com/homedetails/1-Ayers-St-Pittsburgh-PA-15213/11419768_zpid/","","","50000","","1262","130200","05/18/2023","2587","sqft","19.33","3121","sqft","16.02","2","1","","","No","No","","1 Ayers St","Pittsburgh","15213","PA","USA","40.432976","-79.96021"
"https://www.zillow.com/homedetails/2627-Ellis-St-Pittsburgh-PA-15214/11505134_zpid/","","","50000","","1700","19000","05/18/2023","1860","sqft","26.88","3750.52","sqft","13.33","4","2","","Michael Reed","No","No","","2627 Ellis St","Pittsburgh","15214","PA","USA","40.471287","-80.01113"
"https://www.zillow.com/homedetails/677-Calera-St-Pittsburgh-PA-15207/11299945_zpid/","","","54000","","1461","71000","05/17/2023","1663","sqft","32.47","2652.8","sqft","20.36","3","2","","Dana Rowell","No","No","","677 Calera St","Pittsburgh","15207","PA","USA","40.3802","-79.934296"
"https://www.zillow.com/homedetails/755-Mary-St-Mc-Kees-Rocks-PA-15136/11488247_zpid/","","","50000","","1525","50700","05/17/2023","2191","sqft","22.82","5000.69","sqft","10","6","2","","Andrew Dellavecchia","No","No","","755 Mary St","Mc Kees Rocks","15136","PA","USA","40.466248","-80.063324"
"https://www.zillow.com/homedetails/1504-Highland-Ave-Duquesne-PA-15110/11424175_zpid/","","","52900","53600","996","28500","05/12/2023","1320","sqft","40.08","2975.15","sqft","17.78","3","1","","Christina Nahay","No","No","","1504 Highland Ave","Duquesne","15110","PA","USA","40.367073","-79.85896"
"https://www.zillow.com/homedetails/1920-Pallas-St-Braddock-PA-15104/11457632_zpid/","","","50000","104500","1150","28000","05/12/2023","960","sqft","52.08","1817","sqft","27.52","2","2","","","No","No","","1920 Pallas St","Braddock","15104","PA","USA","40.40581","-79.843765"
"https://www.zillow.com/homedetails/120-Parkfield-St-Pittsburgh-PA-15210/11647532_zpid/","","","50000","140900","1432","57300","05/12/2023","1190","sqft","42.02","5820","sqft","8.59","4","1.5","","","No","No","","120 Parkfield St","Pittsburgh","15210","PA","USA","40.391525","-79.98837"
"https://www.zillow.com/homedetails/604-Friday-Rd-Pittsburgh-PA-15209/11272659_zpid/","","","55000","55700","1695","65700","05/10/2023","1904","sqft","28.89","0.69","acres","79969.29","3","1","","","No","No","","604 Friday Rd","Pittsburgh","15209","PA","USA","40.48852","-79.95926"
"https://www.zillow.com/homedetails/813-2nd-Ave-Brackenridge-PA-15014/11280702_zpid/","","","55000","55700","900","26700","05/10/2023","1320","sqft","41.67","2970","sqft","18.52","2","1","","","No","No","","813 2nd Ave","Brackenridge","15014","PA","USA","40.604046","-79.74454"
"https://www.zillow.com/homedetails/7306-Denniston-Ave-Pittsburgh-PA-15218/11346023_zpid/","","","53000","","1318","52400","05/10/2023","1593","sqft","33.27","2748.64","sqft","19.28","3","1","","","No","No","","7306 Denniston Ave","Pittsburgh","15218","PA","USA","40.417557","-79.89014"
"https://www.zillow.com/homedetails/156-Pennsylvania-Ave-Clairton-PA-15025/11576370_zpid/","","","56000","64800","996","41600","05/10/2023","959","sqft","58.39","4721.9","sqft","11.86","2","1","","Melissa Spergel","No","No","","156 Pennsylvania Ave","Clairton","15025","PA","USA","40.309586","-79.893265"
"https://www.zillow.com/homedetails/1801-Triphammer-Rd-South-Park-PA-15129/164543682_zpid/","","","50000","","1563","3900","05/05/2023","","","","0.89","acres","56279.07","","","","","No","No","","1801 Triphammer Rd","South park","15129","PA","USA","40.282032","-79.984795"
"https://www.zillow.com/homedetails/3133-Ridgeway-Dr-South-Park-PA-15129/11251791_zpid/","","","55000","179200","1602","75500","05/04/2023","1186","sqft","46.37","0.32","acres","171877.47","3","1","","","No","No","","3133 Ridgeway Dr","South Park","15129","PA","USA","40.282326","-79.99612"
"https://www.zillow.com/homedetails/530-Carothers-Ave-Carnegie-PA-15106/11254724_zpid/","","","52000","135200","1250","50000","05/04/2023","1392","sqft","37.36","2500","sqft","20.8","2","1","","","No","No","","530 Carothers Ave","Carnegie","15106","PA","USA","40.398582","-80.088455"
"https://www.zillow.com/homedetails/758-Bunola-River-Rd-Elizabeth-PA-15037/11288938_zpid/","","","50000","95900","999","48100","05/04/2023","","","","","","","2","1","","","No","No","","758 Bunola River Rd","Elizabeth","15037","PA","USA","40.26434","-79.895096"
"https://www.zillow.com/homedetails/240-Frankfort-Ave-Pittsburgh-PA-15229/11408606_zpid/","","","55000","55800","1529","64100","05/04/2023","1152","sqft","47.74","5220","sqft","10.54","3","1","","","No","No","","240 Frankfort Ave","Pittsburgh","15229","PA","USA","40.51491","-80.02679"
"https://www.zillow.com/homedetails/509-Walnut-St-Springdale-PA-15144/11564437_zpid/","","","50000","141500","1032","75200","05/04/2023","780","sqft","64.1","8063","sqft","6.2","2","1","","","No","No","","509 Walnut St","Springdale","15144","PA","USA","40.54292","-79.78609"
"https://www.zillow.com/homedetails/412-Oak-Ave-Elizabeth-PA-15037/11266388_zpid/","","","50000","165300","1213","73400","05/03/2023","950","sqft","52.63","9000","sqft","5.56","3","1","","","No","No","","412 Oak Ave","Elizabeth","15037","PA","USA","40.26821","-79.88103"
"https://www.zillow.com/homedetails/110-S-7th-St-Duquesne-PA-15110/11423568_zpid/","","","55000","","1200","18600","05/03/2023","1382","sqft","39.8","865","sqft","63.58","3","1","","","No","No","","110 S 7th St","Duquesne","15110","PA","USA","40.370132","-79.85155"
"https://www.zillow.com/homedetails/666-Elm-Way-Oakmont-PA-15139/11447411_zpid/","","","50000","","1195","27000","05/03/2023","1008","sqft","49.6","3500","sqft","14.29","2","1","","","No","No","","666 Elm Way","Oakmont","15139","PA","USA","40.520596","-79.83796"
"https://www.zillow.com/homedetails/1032-Grand-Ave-Pittsburgh-PA-15212/11606037_zpid/","","","50000","","1673","54700","05/03/2023","1528","sqft","32.72","4399.56","sqft","11.36","2","2","","David Kerr","No","No","","1032 Grand Ave","Pittsburgh","15212","PA","USA","40.47527","-80.02668"
"https://www.zillow.com/homedetails/6045-Irishtown-Rd-Bethel-Park-PA-15102/11607955_zpid/","","","52000","52800","1594","103300","05/03/2023","780","sqft","66.67","1.75","acres","29714.29","3","1","","Robert Moncavage","No","No","","6045 Irishtown Rd","Bethel Park","15102","PA","USA","40.30203","-80.04689"
"https://www.zillow.com/homedetails/2944-Stafford-St-Pittsburgh-PA-15204/11483290_zpid/","","","50000","109900","1214","37400","05/02/2023","1472","sqft","33.97","2500","sqft","20","3","1","","","No","No","","2944 Stafford St","Pittsburgh","15204","PA","USA","40.457146","-80.050575"
"https://www.zillow.com/homedetails/1829-Butler-St-McKeesport-PA-15132/250758431_zpid/","","","54000","54900","984","7200","05/02/2023","988","sqft","54.66","435.6","sqft","123.97","2","2","","Matt O'Donnell","No","No","","1829 Butler St","McKeesport","15132","PA","USA","40.339413","-79.85033"
"https://www.zillow.com/homedetails/Prospect-St-Pittsburgh-PA-15211/164637529_zpid/","","","50000","","1500","17000","05/01/2023","","","","4463","sqft","11.2","","","","","No","No","","Prospect St","Pittsburgh","15211","PA","USA","40.428703","-80.00985"
"https://www.zillow.com/homedetails/624-Ferree-St-Coraopolis-PA-15108/11438930_zpid/","","","57000","185900","1450","83200","04/28/2023","1698","sqft","33.57","4000","sqft","14.25","3","1","","","No","No","","624 Ferree St","Coraopolis","15108","PA","USA","40.512604","-80.15556"
"https://www.zillow.com/homedetails/926-Morton-Ave-McKeesport-PA-15133/11465390_zpid/","","","56500","117000","1032","70800","04/28/2023","1142","sqft","49.47","5250","sqft","10.76","2","1","","","No","No","","926 Morton Ave","McKeesport","15133","PA","USA","40.34279","-79.87639"
"https://www.zillow.com/homedetails/12-Wabash-St-Pittsburgh-PA-15220/11362348_zpid/","","","50000","","1382","14000","04/27/2023","3032","sqft","16.49","5400","sqft","9.26","3","2","","","No","No","","12 Wabash St","Pittsburgh","15220","PA","USA","40.441334","-80.03536"
"https://www.zillow.com/homedetails/1216-Universal-Rd-Pittsburgh-PA-15235/11533149_zpid/","","","55300","159000","1350","61500","04/27/2023","1248","sqft","44.31","6098","sqft","9.07","3","1","","","No","No","","1216 Universal Rd","Pittsburgh","15235","PA","USA","40.462456","-79.80378"
"https://www.zillow.com/homedetails/3060-Glen-Mawr-St-Pittsburgh-PA-15204/11482658_zpid/","","","50000","","1281","44400","04/26/2023","1459","sqft","34.27","2500.34","sqft","20","5","1","","Tricia Hoffman","No","No","","3060 Glen Mawr St","Pittsburgh","15204","PA","USA","40.45821","-80.053825"
"https://www.zillow.com/homedetails/2749-Glen-Mawr-St-Pittsburgh-PA-15204/11483741_zpid/","","","50000","","1214","28500","04/26/2023","1452","sqft","34.44","2500.34","sqft","20","4","1","","Tricia Hoffman","No","No","","2749 Glen Mawr St","Pittsburgh","15204","PA","USA","40.454243","-80.0507"
"https://www.zillow.com/homedetails/418-Chestnut-St-McKeesport-PA-15132/11575463_zpid/","","","55000","","1077","67000","04/26/2023","912","sqft","60.31","0.68","acres","80882.35","3","1","","Kathy Armstrong","No","No","","418 Chestnut St","McKeesport","15132","PA","USA","40.315292","-79.82942"
"https://www.zillow.com/homedetails/431-Fountain-St-Pittsburgh-PA-15238/11414707_zpid/","","","50000","51000","1381","36200","04/21/2023","1056","sqft","47.35","2200","sqft","22.73","3","1","","","No","No","","431 Fountain St","Pittsburgh","15238","PA","USA","40.494793","-79.857956"
"https://www.zillow.com/homedetails/414-Elwood-Dr-Pittsburgh-PA-15235/11534682_zpid/","","","54000","172900","1300","77900","04/21/2023","1068","sqft","50.56","6000","sqft","9","3","1","","","No","No","","414 Elwood Dr","Pittsburgh","15235","PA","USA","40.44058","-79.81132"
"https://www.zillow.com/homedetails/423-Wilson-Dr-Pittsburgh-PA-15235/11450910_zpid/","","","50730","","1352","64700","04/20/2023","956","sqft","53.06","7501.03","sqft","6.76","3","2","","Brett Chupinka","No","No","","423 Wilson Dr","Pittsburgh","15235","PA","USA","40.469868","-79.84231"
"https://www.zillow.com/homedetails/522-California-Ave-Monroeville-PA-15146/11535650_zpid/","","","50000","51000","1250","69400","04/20/2023","1418","sqft","35.26","0.6","acres","83769.23","2","1","","","No","No","","522 California Ave","Monroeville","15146","PA","USA","40.416138","-79.80417"
"https://www.zillow.com/homedetails/1310-Malden-St-Pittsburgh-PA-15212/11604282_zpid/","","","50000","51000","996","46100","04/18/2023","884","sqft","56.56","2627","sqft","19.03","2","1","","","No","No","","1310 Malden St","Pittsburgh","15212","PA","USA","40.47479","-80.03338"
"https://www.zillow.com/homedetails/Old-Clairton-Rd-Clairton-PA-15025/164678717_zpid/","","","50000","","1584","35000","04/18/2023","","","","0.52","acres","95989.42","","","","","No","No","","Old Clairton Rd","Clairton","15025","PA","USA","40.310497","-79.94929"
"https://www.zillow.com/homedetails/134-Speer-St-Mc-Kees-Rocks-PA-15136/11264394_zpid/","","","53000","","1700","43500","04/17/2023","1064","sqft","49.81","0.33","acres","160314.58","2","","","Dana Rowell","No","No","","134 Speer St","Mc Kees Rocks","15136","PA","USA","40.484985","-80.08565"
"https://www.zillow.com/homedetails/708-E-13th-Ave-Homestead-PA-15120/11292672_zpid/","","","55000","127700","1278","48700","04/17/2023","1899","sqft","28.96","3740","sqft","14.71","3","1","","","No","No","","708 E 13th Ave","Homestead","15120","PA","USA","40.405","-79.90006"
"https://www.zillow.com/homedetails/152-E-Virginia-Ave-Homestead-PA-15120/11295501_zpid/","","","57000","","1347","50000","04/17/2023","1848","sqft","30.84","3998.81","sqft","14.25","3","1","","Mike Fink","No","No","","152 E Virginia Ave","Homestead","15120","PA","USA","40.384987","-79.90049"
"https://www.zillow.com/homedetails/721-Esther-St-Pittsburgh-PA-15227/11305611_zpid/","","","57000","58300","1394","59500","04/17/2023","900","sqft","63.33","5040","sqft","11.31","3","1","","","No","No","","721 Esther St","Pittsburgh","15227","PA","USA","40.382412","-79.99256"
"https://www.zillow.com/homedetails/933-6th-St-Verona-PA-15147/11489494_zpid/","","","50000","150800","1449","44500","04/14/2023","1216","sqft","41.12","3750.52","sqft","13.33","3","1","","Stephanie Furnier","No","No","","933 6th St","Verona","15147","PA","USA","40.509735","-79.830605"
"https://www.zillow.com/homedetails/719-Hemlock-St-Pittsburgh-PA-15202/11322939_zpid/","","","54000","166600","1394","67600","04/12/2023","1448","sqft","37.29","4848.23","sqft","11.14","4","1","","Libby Sosinski","No","No","","719 Hemlock St","Pittsburgh","15202","PA","USA","40.499317","-80.06829"
"https://www.zillow.com/homedetails/140-Turkeyfoot-Rd-Sewickley-PA-15143/11641952_zpid/","","","50000","51100","1800","76500","04/12/2023","1360","sqft","36.76","0.93","acres","53658.54","3","1.5","","","No","No","","140 Turkeyfoot Rd","Sewickley","15143","PA","USA","40.588062","-80.18292"
"https://www.zillow.com/homedetails/1247-Benton-Ave-Pittsburgh-PA-15212/11268959_zpid/","","","50000","319400","1214","53000","04/10/2023","1998","sqft","25.03","2661.52","sqft","18.79","3","","","Tina Nobers","No","No","","1247 Benton Ave","Pittsburgh","15212","PA","USA","40.48508","-80.03424"
"https://www.zillow.com/homedetails/1220-Universal-Rd-Pittsburgh-PA-15235/11533213_zpid/","","","57000","143400","1500","63700","04/10/2023","1696","sqft","33.61","7042","sqft","8.09","4","2","","","No","No","","1220 Universal Rd","Pittsburgh","15235","PA","USA","40.462505","-79.803604"
"https://www.zillow.com/homedetails/3302-Hazelhurst-Ave-Pittsburgh-PA-15227/11302674_zpid/","","","51500","52700","1094","65400","04/06/2023","720","sqft","71.53","6250","sqft","8.24","2","1","","","No","No","","3302 Hazelhurst Ave","Pittsburgh","15227","PA","USA","40.382668","-79.9637"
"https://www.zillow.com/homedetails/1508-Florida-Ave-Pittsburgh-PA-15221/11380656_zpid/","","","50000","84000","1050","23400","04/06/2023","936","sqft","53.42","2879.32","sqft","17.37","2","1","","Dean Sappas","No","No","","1508 Florida Ave","Pittsburgh","15221","PA","USA","40.43845","-79.86824"
"https://www.zillow.com/homedetails/316-57th-St-Pittsburgh-PA-15201/11275571_zpid/","","","51967","","1550","33100","04/05/2023","832","sqft","62.46","1960","sqft","26.51","3","1","","","No","No","","316 57th St","Pittsburgh","15201","PA","USA","40.482647","-79.943825"
"https://www.zillow.com/homedetails/1926-Dartmore-St-Pittsburgh-PA-15210/11646950_zpid/","","","53416","54700","1314","10000","04/04/2023","1264","sqft","42.26","2726.86","sqft","19.59","2","2","","Susan Kozak","No","No","","1926 Dartmore St","Pittsburgh","15210","PA","USA","40.39426","-79.9966"
"https://www.zillow.com/homedetails/529-Collins-Ave-East-Pittsburgh-PA-15112/11458499_zpid/","","","51000","82800","1095","36600","04/03/2023","740","sqft","68.92","6128.89","sqft","8.32","2","1","","Yaron Feldberg","No","No","","529 Collins Ave","East Pittsburgh","15112","PA","USA","40.398445","-79.839676"
"https://www.zillow.com/homedetails/506-1-2-Russellwood-Ave-Mc-Kees-Rocks-PA-15136/11594105_zpid/","","","55000","91400","988","33700","03/31/2023","1156","sqft","47.58","1560","sqft","35.26","2","1","","","No","No","","506 1/2 Russellwood Ave","Mc Kees Rocks","15136","PA","USA","40.47018","-80.07148"
"https://www.zillow.com/homedetails/130-Rebecca-Dr-Pittsburgh-PA-15237/11439434_zpid/","","","56000","57500","2500","177100","03/30/2023","1830","sqft","30.6","0.44","acres","125986.98","3","2.5","","","No","No","","130 Rebecca Dr","Pittsburgh","15237","PA","USA","40.52907","-80.076866"
"https://www.zillow.com/homedetails/832-Woodward-St-McKeesport-PA-15132/11460907_zpid/","","","57000","96600","1064","39400","03/30/2023","","","","4791.6","sqft","11.9","2","1","","Jeffrey Walker","No","No","","832 Woodward St","McKeesport","15132","PA","USA","40.35198","-79.83581"
"https://www.zillow.com/homedetails/181-Rose-Ave-Penn-Hills-PA-15235/11452531_zpid/","","","53000","162100","1300","76800","03/29/2023","1281","sqft","41.37","6000","sqft","8.83","3","1","","","No","No","","181 Rose Ave","Penn Hills","15235","PA","USA","40.454556","-79.83413"
"https://www.zillow.com/homedetails/506-Russellwood-Ave-Mc-Kees-Rocks-PA-15136/11594104_zpid/","","","55000","56600","1062","22300","03/29/2023","1156","sqft","47.58","1559.45","sqft","35.27","2","1","","Jeff Hornichak","No","No","","506 Russellwood Ave","Mc Kees Rocks","15136","PA","USA","40.470142","-80.07143"
"https://www.zillow.com/homedetails/113-Fountain-St-Allegheny-PA-15212/11388140_zpid/","","","57000","197400","1700","65200","03/28/2023","1896","sqft","30.06","2280","sqft","25","2","2","","","No","No","","113 Fountain St","Allegheny","15212","PA","USA","40.45898","-80.00147"
"https://www.zillow.com/homedetails/122-124-Rochelle-St-Pittsburgh-PA-15210/2058284166_zpid/","","","50000","","1294","","03/28/2023","","","","2613.6","sqft","19.13","6","3","","Elizabeth Kofmehl","No","No","","122-124 Rochelle St","Pittsburgh","15210","PA","USA","",""
"https://www.zillow.com/homedetails/1233-Island-Ave-Pittsburgh-PA-15212/11499445_zpid/","","","50000","51400","1697","51000","03/24/2023","2290","sqft","21.83","4835.16","sqft","10.34","4","2","","Libby Sosinski","No","No","","1233 Island Ave","Pittsburgh","15212","PA","USA","40.46281","-80.02631"
"https://www.zillow.com/homedetails/1923-Yates-St-McKeesport-PA-15135/11575741_zpid/","","","56500","67100","932","35900","03/24/2023","1087","sqft","51.98","9252.14","sqft","6.11","2","1","","William Beynon","No","No","","1923 Yates St","McKeesport","15135","PA","USA","40.30991","-79.83096"
"https://www.zillow.com/homedetails/114-View-St-Oakmont-PA-15139/11448059_zpid/","","","51000","202000","1299","77200","03/23/2023","1260","sqft","40.48","0.3","acres","170000","2","1","","","No","No","","114 View St","Oakmont","15139","PA","USA","40.512707","-79.84202"
"https://www.zillow.com/homedetails/1016-Chestnut-St-Pittsburgh-PA-15212/11395422_zpid/","","","50000","51400","1660","31200","03/22/2023","1866","sqft","26.8","2178","sqft","22.96","3","2","","Julie McKinney","No","No","","1016 Chestnut St","Pittsburgh","15212","PA","USA","40.457474","-79.99517"
"https://www.zillow.com/homedetails/1231-Success-St-Pittsburgh-PA-15212/11375471_zpid/","","","50000","51600","1584","20000","03/20/2023","1360","sqft","36.76","3049.2","sqft","16.4","3","2","","Michael Wicker","No","No","","1231 Success St","Pittsburgh","15212","PA","USA","40.4624","-80.026054"
"https://www.zillow.com/homedetails/2921-Daniels-St-Pittsburgh-PA-15210/11309156_zpid/","","","56000","57700","1281","25600","03/17/2023","1120","sqft","50","2760","sqft","20.29","2","1.5","","","No","No","","2921 Daniels St","Pittsburgh","15210","PA","USA","40.41421","-79.96667"
"https://www.zillow.com/homedetails/19-Slate-St-Pittsburgh-PA-15207/11297935_zpid/","","","55000","56700","1542","50500","03/16/2023","1664","sqft","33.05","7518.46","sqft","7.32","3","2","","John Polselli","No","No","","19 Slate St","Pittsburgh","15207","PA","USA","40.38215","-79.92713"
"https://www.zillow.com/homedetails/1348-Woodlawn-Ave-Pittsburgh-PA-15221/11380498_zpid/","","","55000","","1314","40300","03/16/2023","1382","sqft","39.8","2574.4","sqft","21.36","3","2","","Cameron Yockey","No","No","","1348 Woodlawn Ave","Pittsburgh","15221","PA","USA","40.439777","-79.87145"
"https://www.zillow.com/homedetails/1422-Oakglen-St-Pittsburgh-PA-15204/11479498_zpid/","","","53551","157100","1128","74900","03/15/2023","1248","sqft","42.91","3049","sqft","17.56","2","1","","","No","No","","1422 Oakglen St","Pittsburgh","15204","PA","USA","40.448605","-80.06169"
"https://www.zillow.com/homedetails/77-Kendall-Ave-Pittsburgh-PA-15202/11267656_zpid/","","","54900","175800","1114","55900","03/14/2023","1280","sqft","42.89","1633.5","sqft","33.61","3","1","","Libby Sosinski","No","No","","77 Kendall Ave","Pittsburgh","15202","PA","USA","40.488945","-80.0504"
"https://www.zillow.com/homedetails/606-Liberty-Way-McKeesport-PA-15133/11503419_zpid/","","","50000","52600","874","36500","03/14/2023","","","","6834.56","sqft","7.32","2","1","","Jason Ruzich","No","No","","606 Liberty Way","McKeesport","15133","PA","USA","40.331745","-79.861916"
"https://www.zillow.com/homedetails/741-Bucyrus-St-Pittsburgh-PA-15220/11367046_zpid/","","","54500","137900","1282","49000","03/09/2023","1230","sqft","44.31","1899.22","sqft","28.7","2","2","","Rob Borgo","No","No","","741 Bucyrus St","Pittsburgh","15220","PA","USA","40.444603","-80.04065"
"https://www.zillow.com/homedetails/1212-Loraine-St-Pittsburgh-PA-15212/164597191_zpid/","","","50000","","1834","2500","03/08/2023","","","","2000","sqft","25","","","","","No","No","","1212 Loraine St","Pittsburgh","15212","PA","USA","40.456455","-80.00534"
"https://www.zillow.com/homedetails/814-Hiland-Ave-Coraopolis-PA-15108/11478456_zpid/","","","55000","56900","1200","73300","03/07/2023","907","sqft","60.64","3898.62","sqft","14.11","2","2","","Garrett Browning","No","No","","814 Hiland Ave","Coraopolis","15108","PA","USA","40.51638","-80.17084"
"https://www.zillow.com/homedetails/1820-Lowrie-St-Pittsburgh-PA-15212/11512385_zpid/","","","50000","","1700","31300","03/07/2023","","","","1001.88","sqft","49.91","2","2","","Richard Creo","No","No","","1820 Lowrie St","Pittsburgh","15212","PA","USA","40.465183","-79.98181"
"https://www.zillow.com/homedetails/253-Indianola-Rd-Cheswick-PA-15024/164684726_zpid/","","","55000","","1197","11100","03/07/2023","","","","2.78","acres","19762.92","","","","","No","No","","253 Indianola Rd","Cheswick","15024","PA","USA","40.56719","-79.86611"
"https://www.zillow.com/homedetails/2108-Hillcrest-St-Bethel-Park-PA-15102/11431036_zpid/","","","50000","159800","1500","100400","03/06/2023","942","sqft","53.08","0.36","acres","140516.13","2","1","","","No","No","","2108 Hillcrest St","Bethel Park","15102","PA","USA","40.348633","-80.029686"
"https://www.zillow.com/homedetails/Blue-Ridge-Rd-Pittsburgh-PA-15239/164233929_zpid/","","","50000","","1594","25100","03/06/2023","","","","9.92","acres","5040.83","","","","","No","No","","Blue Ridge Rd","Pittsburgh","15239","PA","USA","40.463303","-79.714516"
"https://www.zillow.com/homedetails/Chartiers-Ave-Pittsburgh-PA-15205/164680371_zpid/","","","55000","","1394","33800","03/06/2023","","","","3.56","acres","15449.4","","","","","No","No","","Chartiers Ave","Pittsburgh","15205","PA","USA","40.428776","-80.07086"
"https://www.zillow.com/homedetails/1005-Roup-Ave-Brackenridge-PA-15014/11301438_zpid/","","","50000","51800","1050","44400","03/01/2023","860","sqft","58.14","6000","sqft","8.33","3","1","","","No","No","","1005 Roup Ave","Brackenridge","15014","PA","USA","40.61065","-79.742035"
"https://www.zillow.com/homedetails/831-4th-St-West-Elizabeth-PA-15088/11266582_zpid/","","","55000","165100","1318","30000","02/28/2023","3034","sqft","18.13","0.83","acres","66265.06","4","2","","Lori Maffeo","No","No","","831 4th St","West Elizabeth","15088","PA","USA","40.270844","-79.89794"
"https://www.zillow.com/homedetails/1631-James-St-Monroeville-PA-15146/11571743_zpid/","","","50000","51800","1394","89300","02/28/2023","1152","sqft","43.4","0.5","acres","99990.82","3","1.5","","","No","No","","1631 James St","Monroeville","15146","PA","USA","40.421837","-79.79836"
"https://www.zillow.com/homedetails/1228-Ford-St-Pittsburgh-PA-15205/11475450_zpid/","","","50000","160800","1399","66000","02/27/2023","950","sqft","52.63","5000","sqft","10","3","1","","","No","No","","1228 Ford St","Pittsburgh","15205","PA","USA","40.442192","-80.05668"
"https://www.zillow.com/homedetails/309-E-James-St-Homestead-PA-15120/11348673_zpid/","","","50000","51900","1194","65200","02/23/2023","1180","sqft","42.37","4500","sqft","11.11","2","1","","","No","No","","309 E James St","Homestead","15120","PA","USA","40.39179","-79.8965"
"https://www.zillow.com/homedetails/411-Russellwood-Ave-Mc-Kees-Rocks-PA-15136/11594641_zpid/","","","50000","51900","1400","58300","02/23/2023","2037","sqft","24.55","3201.66","sqft","15.62","4","1","","Aimee Nagel","No","No","","411 Russellwood Ave","Mc Kees Rocks","15136","PA","USA","40.46884","-80.07036"
"https://www.zillow.com/homedetails/369-Maytide-St-Pittsburgh-PA-15227/11305861_zpid/","","","50000","142300","1479","56000","02/22/2023","1122","sqft","44.56","2212","sqft","22.6","3","1","","","No","No","","369 Maytide St","Pittsburgh","15227","PA","USA","40.38432","-79.98689"
"https://www.zillow.com/homedetails/313-E-James-St-Homestead-PA-15120/11348668_zpid/","","","50000","52000","1198","62800","02/22/2023","1140","sqft","43.86","4500","sqft","11.11","2","1","","","No","No","","313 E James St","Homestead","15120","PA","USA","40.39179","-79.89639"
"https://www.zillow.com/homedetails/171-Pennsylvania-Ave-Clairton-PA-15025/11576571_zpid/","","","55000","99200","1235","54600","02/21/2023","1540","sqft","35.71","5285","sqft","10.41","4","1","","","No","No","","171 Pennsylvania Ave","Clairton","15025","PA","USA","40.308983","-79.89314"
"https://www.zillow.com/homedetails/3105-Wadlow-St-Pittsburgh-PA-15212/11606276_zpid/","","","50000","","1498","31000","02/21/2023","1700","sqft","29.41","2760","sqft","18.12","4","1","","","No","No","","3105 Wadlow St","Pittsburgh","15212","PA","USA","40.473682","-80.030174"
"https://www.zillow.com/homedetails/10162-Pearl-Rd-Pittsburgh-PA-15235/11415432_zpid/","","","53500","55700","1099","48100","02/16/2023","817","sqft","65.48","4800","sqft","11.15","2","1","","","No","No","","10162 Pearl Rd","Pittsburgh","15235","PA","USA","40.46764","-79.85077"
"https://www.zillow.com/homedetails/119-Morgan-St-Brackenridge-PA-15014/11280782_zpid/","","","51000","179000","1270","82800","02/15/2023","1872","sqft","27.24","4583","sqft","11.13","3","1.5","","","No","No","","119 Morgan St","Brackenridge","15014","PA","USA","40.603863","-79.739365"
"https://www.zillow.com/homedetails/610-Hays-Ave-Pittsburgh-PA-15210/11437189_zpid/","","","56000","105600","1394","20000","02/15/2023","1332","sqft","42.04","2178","sqft","25.71","3","1","","Michael Wicker","No","No","","610 Hays Ave","Pittsburgh","15210","PA","USA","40.408455","-79.987885"
"https://www.zillow.com/homedetails/5630-3rd-St-Verona-PA-15147/11449869_zpid/","","","57000","59200","1294","66400","02/15/2023","1008","sqft","56.55","4800","sqft","11.88","2","1.5","","","No","No","","5630 3rd St","Verona","15147","PA","USA","40.48472","-79.83921"
"https://www.zillow.com/homedetails/3944-Bakerstown-Rd-Gibsonia-PA-15044/164593668_zpid/","","","50000","","1800","54100","02/15/2023","","","","1.1","acres","45454.55","","","","","No","No","","3944 Bakerstown Rd","Gibsonia","15044","PA","USA","40.6582","-79.96647"
"https://www.zillow.com/homedetails/224-Pacific-Ave-McKeesport-PA-15132/11426125_zpid/","","","50000","103100","947","12200","02/14/2023","1120","sqft","44.64","1890.5","sqft","26.45","2","1","","Anthony Dasta","No","No","","224 Pacific Ave","McKeesport","15132","PA","USA","40.350727","-79.8746"
"https://www.zillow.com/homedetails/1004-Woodland-Ave-McKeesport-PA-15133/11466492_zpid/","","","56000","","999","53600","02/13/2023","1293","sqft","43.31","7405.2","sqft","7.56","2","1","","Robert Moncavage","No","No","","1004 Woodland Ave","McKeesport","15133","PA","USA","40.336597","-79.88379"
"https://www.zillow.com/homedetails/4018-Harvey-Ave-Homestead-PA-15120/11296069_zpid/","","","56050","129100","1064","46300","02/10/2023","529","sqft","105.95","6804.07","sqft","8.24","2","2","","Mary Frances Miller","No","No","","4018 Harvey Ave","Homestead","15120","PA","USA","40.380054","-79.903915"
"https://www.zillow.com/homedetails/428-Collins-Dr-Pittsburgh-PA-15235/11532849_zpid/","","","53900","183300","1479","54200","02/10/2023","1300","sqft","41.46","","","","4","2","","","No","No","","428 Collins Dr","Pittsburgh","15235","PA","USA","40.46354","-79.80962"
"https://www.zillow.com/homedetails/209-Greydon-Ave-Mc-Kees-Rocks-PA-15136/11595056_zpid/","","","50000","122200","1114","65900","02/10/2023","1660","sqft","30.12","2178","sqft","22.96","3","2","","Robert Moncavage","No","No","","209 Greydon Ave","Mc Kees Rocks","15136","PA","USA","40.465473","-80.07223"
"https://www.zillow.com/homedetails/138-Linnview-Ave-Pittsburgh-PA-15210/11556222_zpid/","","","56250","","1114","51100","02/09/2023","2363","sqft","23.8","3920.4","sqft","14.35","5","2","","Neal Dunn","No","No","","138 Linnview Ave","Pittsburgh","15210","PA","USA","40.403103","-79.98711"
"https://www.zillow.com/homedetails/441-Rosslyn-Ave-Springdale-PA-15144/11564103_zpid/","","","54500","184400","1400","97600","02/09/2023","1185","sqft","45.99","6499.15","sqft","8.39","3","1","","Dana Rowell","No","No","","441 Rosslyn Ave","Springdale","15144","PA","USA","40.545322","-79.78707"
"https://www.zillow.com/homedetails/1707-Ohio-Ave-West-Mifflin-PA-15122/11424195_zpid/","","","55000","57300","981","44000","02/08/2023","525","sqft","104.76","10454.4","sqft","5.26","2","1","","Matt O'Donnell","No","No","","1707 Ohio Ave","West Mifflin","15122","PA","USA","40.36692","-79.86002"
"https://www.zillow.com/homedetails/320-Carlisle-Ave-Pittsburgh-PA-15229/11406662_zpid/","","","53000","","1500","79200","02/02/2023","1260","sqft","42.06","6098.4","sqft","8.69","3","2","","","No","No","","320 Carlisle Ave","Pittsburgh","15229","PA","USA","40.51573","-80.04197"
"https://www.zillow.com/homedetails/1511-3rd-St-Natrona-Heights-PA-15065/11319566_zpid/","","","50000","129100","900","68300","02/01/2023","903","sqft","55.37","4560","sqft","10.96","2","1","","","No","No","","1511 3rd St","Natrona Heights","15065","PA","USA","40.623398","-79.734535"
"https://www.zillow.com/homedetails/515-Park-St-McKeesport-PA-15132/11425455_zpid/","","","50000","","1073","36200","01/30/2023","","","","7200.47","sqft","6.94","3","1","","Bill Holden","No","No","","515 Park St","McKeesport","15132","PA","USA","40.35048","-79.850655"
"https://www.zillow.com/homedetails/1318-Complete-St-Pittsburgh-PA-15212/11606346_zpid/","","","52000","153100","1179","47000","01/20/2023","1326","sqft","39.22","2940.3","sqft","17.69","3","1","","Shane Kunkle","No","No","","1318 Complete St","Pittsburgh","15212","PA","USA","40.473576","-80.03228"
"https://www.zillow.com/homedetails/313-E-22nd-Ave-Homestead-PA-15120/11294129_zpid/","","","53000","55500","1315","26700","01/19/2023","1408","sqft","37.64","6621.12","sqft","8","3","2","","Amy D'Allessandro","No","No","","313 E 22nd Ave","Homestead","15120","PA","USA","40.398617","-79.90073"
"https://www.zillow.com/homedetails/206-Auriles-St-Duquesne-PA-15110/11423880_zpid/","","","51000","53400","1027","41100","01/19/2023","2257","sqft","22.6","6795","sqft","7.51","2","1","","","No","No","","206 Auriles St","Duquesne","15110","PA","USA","40.36835","-79.85108"
"https://www.zillow.com/homedetails/411-Baker-Ave-Clairton-PA-15025/11634642_zpid/","","","50000","52400","914","54100","01/19/2023","1554","sqft","32.18","3484.8","sqft","14.35","2","2","","Sandra Rodeheaver","No","No","","411 Baker Ave","Clairton","15025","PA","USA","40.2896","-79.884995"
"https://www.zillow.com/homedetails/742-Herschel-St-Pittsburgh-PA-15220/11362444_zpid/","","","50000","52400","1300","18900","01/18/2023","1056","sqft","47.35","2748.64","sqft","18.19","2","1","","Michael Pohlot","No","No","","742 Herschel St","Pittsburgh","15220","PA","USA","40.4401","-80.04252"
"https://www.zillow.com/homedetails/131-Westminster-Dr-Verona-PA-15147/11415097_zpid/","","","55000","190400","1619","74600","01/18/2023","1400","sqft","39.29","10153","sqft","5.42","3","2","","","No","No","","131 Westminster Dr","Verona","15147","PA","USA","40.472797","-79.86524"
"https://www.zillow.com/homedetails/742-Herschel-St-Canonsburg-PA-15317/2062341112_zpid/","","","50000","","1529","","01/18/2023","","","","","","","","","","","No","No","","742 Herschel St","Canonsburg","15317","PA","USA","",""
"https://www.zillow.com/homedetails/2215-Lehigh-St-Pittsburgh-PA-15218/11382040_zpid/","","","56975","","1398","45900","01/17/2023","1045","sqft","54.52","9374.11","sqft","6.08","3","2","","Ian Hoover","No","No","","2215 Lehigh St","Pittsburgh","15218","PA","USA","40.428116","-79.87808"
"https://www.zillow.com/homedetails/69-Thomas-St-Pittsburgh-PA-15205/11584756_zpid/","","","52000","54500","1222","47500","01/17/2023","751","sqft","69.24","3094","sqft","16.81","2","1","","","No","No","","69 Thomas St","Pittsburgh","15205","PA","USA","40.44026","-80.06781"
"https://www.zillow.com/homedetails/109-Kathleen-St-Pittsburgh-PA-15211/11516899_zpid/","","","55000","57700","1700","54800","01/12/2023","1800","sqft","30.56","1742.4","sqft","31.57","5","1","","Jordana Zober","No","No","","109 Kathleen St","Pittsburgh","15211","PA","USA","40.4257","-80.00396"
"https://www.zillow.com/homedetails/2820-Larkins-Way-Pittsburgh-PA-15203/11292077_zpid/","","","57000","193700","1200","64900","01/10/2023","928","sqft","61.42","787","sqft","72.43","2","1","","","No","No","","2820 Larkins Way","Pittsburgh","15203","PA","USA","40.42487","-79.966415"
"https://www.zillow.com/homedetails/6-Crest-St-Russellton-PA-15076/11319318_zpid/","","","55100","140100","1466","67600","01/06/2023","1368","sqft","40.28","6098","sqft","9.04","3","1","","","No","No","","6 Crest St","Russellton","15076","PA","USA","40.62009","-79.83427"
"https://www.zillow.com/homedetails/11-Herman-St-Pittsburgh-PA-15223/11372357_zpid/","","","53000","199700","1400","102500","01/06/2023","1061","sqft","49.95","5142","sqft","10.31","2","1","","","No","No","","11 Herman St","Pittsburgh","15223","PA","USA","40.508766","-79.95022"
"https://www.zillow.com/homedetails/507-William-St-Duquesne-PA-15110/11423308_zpid/","","","50000","","1933","25400","01/06/2023","","","","2178","sqft","22.96","4","3","","Elizabeth Baxendell","No","No","","507 William St","Duquesne","15110","PA","USA","40.373806","-79.852"
"https://www.zillow.com/homedetails/906-Indiana-Ave-Glassport-PA-15045/11543920_zpid/","","","53000","55600","895","30200","01/06/2023","","","","3001.28","sqft","17.66","3","1","","Shawn Hannegan","No","No","","906 Indiana Ave","Glassport","15045","PA","USA","40.320778","-79.888664"
"https://www.zillow.com/homedetails/1832-Mount-Joseph-St-Pittsburgh-PA-15210/11557259_zpid/","","","50868","104800","996","32400","01/06/2023","","","","4920","sqft","10.34","2","1","","","No","No","","1832 Mount Joseph St","Pittsburgh","15210","PA","USA","40.39556","-79.99002"
"https://www.zillow.com/homedetails/2108-Park-Ln-McKeesport-PA-15132/59837645_zpid/","","","55000","57700","890","40000","01/06/2023","884","sqft","62.22","2392","sqft","22.99","2","1","","","No","No","","2108 Park Ln","McKeesport","15132","PA","USA","40.34054","-79.831245"
"https://www.zillow.com/homedetails/2333-Patterson-St-Pittsburgh-PA-15203/304678555_zpid/","","","50000","","1479","71400","01/06/2023","1546","sqft","32.34","2273.83","sqft","21.99","2","2","","Katie Polley","No","No","","2333 Patterson St","Pittsburgh","15203","PA","USA","40.419502","-79.97292"
"https://www.zillow.com/homedetails/2127-Hulton-Rd-Verona-PA-15147/11530670_zpid/","","","50000","189400","1613","122600","01/05/2023","2304","sqft","21.7","0.45","acres","111111.11","4","2","","","No","No","","2127 Hulton Rd","Verona","15147","PA","USA","40.525","-79.81428"
"https://www.zillow.com/homedetails/1419-Vance-Ave-Coraopolis-PA-15108/11438888_zpid/","","","55000","147000","1123","48500","01/04/2023","1092","sqft","50.37","9685","sqft","5.68","2","1","","","No","No","","1419 Vance Ave","Coraopolis","15108","PA","USA","40.51306","-80.159325"
"https://www.zillow.com/homedetails/150-Howard-St-Penn-Hills-PA-15235/11416036_zpid/","","","50500","","1495","44900","12/29/2022","1312","sqft","38.49","7501.03","sqft","6.73","3","2","","Julie Kopczak","No","No","","150 Howard St","Penn Hills","15235","PA","USA","40.461246","-79.8565"
"https://www.zillow.com/homedetails/1600-Maple-Ave-Turtle-Creek-PA-15145/11536068_zpid/","","","55000","57800","1397","59400","12/29/2022","1328","sqft","41.42","3000","sqft","18.33","4","2","","","No","No","","1600 Maple Ave","Turtle Creek","15145","PA","USA","40.408276","-79.815796"
"https://www.zillow.com/homedetails/437-Marguerite-Ave-Wilmerding-PA-15148/11537205_zpid/","","","50000","52600","1264","14400","12/29/2022","2041","sqft","24.5","5263","sqft","9.5","3","1.5","","","No","No","","437 Marguerite Ave","Wilmerding","15148","PA","USA","40.38951","-79.81002"
"https://www.zillow.com/homedetails/212-Kenmawr-Ave-Braddock-PA-15104/11384246_zpid/","","","55000","57800","1062","5500","12/28/2022","1417","sqft","38.81","1420.06","sqft","38.73","2","1","","Eli LaBelle","No","No","","212 Kenmawr Ave","Braddock","15104","PA","USA","40.410343","-79.87711"
"https://www.zillow.com/homedetails/2457-S-Braddock-Ave-Pittsburgh-PA-15218/11383484_zpid/","","","55000","57800","1150","21900","12/27/2022","998","sqft","55.11","3700","sqft","14.86","2","1","","","No","No","","2457 S Braddock Ave","Pittsburgh","15218","PA","USA","40.41717","-79.878265"
"https://www.zillow.com/homedetails/526-Hawkins-Ave-Braddock-PA-15104/11421643_zpid/","","","55000","57800","1297","32200","12/27/2022","1472","sqft","37.36","2400","sqft","22.92","3","1","","","No","No","","526 Hawkins Ave","Braddock","15104","PA","USA","40.407646","-79.865036"
"https://www.zillow.com/homedetails/1212-Romine-Ave-McKeesport-PA-15133/11465792_zpid/","","","50000","52600","1150","63100","12/22/2022","1050","sqft","47.62","5601.82","sqft","8.93","3","1","","Dan Haeck","No","No","","1212 Romine Ave","McKeesport","15133","PA","USA","40.340794","-79.87062"
"https://www.zillow.com/homedetails/2952-Stafford-St-Pittsburgh-PA-15204/11483293_zpid/","","","54900","","1400","14500","12/22/2022","","","","2500","sqft","21.96","4","2","","Alex Deacon","No","No","","2952 Stafford St","Pittsburgh","15204","PA","USA","40.457314","-80.05073"
"https://www.zillow.com/homedetails/801-Frank-St-Mc-Kees-Rocks-PA-15136/11488153_zpid/","","","50000","129500","1400","44300","12/22/2022","1236","sqft","40.45","1742.4","sqft","28.7","3","2","","Jordan Jones","No","No","","801 Frank St","Mc Kees Rocks","15136","PA","USA","40.466953","-80.06406"
"https://www.zillow.com/homedetails/2741-Bellingham-Ave-Pittsburgh-PA-15216/11570430_zpid/","","","50000","228100","1734","65900","12/21/2022","","","","6089.69","sqft","8.21","3","2","","","No","No","","2741 Bellingham Ave","Pittsburgh","15216","PA","USA","40.403057","-80.03927"
"https://www.zillow.com/homedetails/3802-Acorn-St-Pittsburgh-PA-15207/11420344_zpid/","","","50000","","1900","39400","12/20/2022","2016","sqft","24.8","2073.46","sqft","24.11","4","2","","Dina Angotti","No","No","","3802 Acorn St","Pittsburgh","15207","PA","USA","40.42652","-79.950134"
"https://www.zillow.com/homedetails/2022-Mountford-Ave-Pittsburgh-PA-15214/11506224_zpid/","","","53000","55700","1814","52700","12/20/2022","","","","5174.93","sqft","10.24","4","2","","Janet Bunner","No","No","","2022 Mountford Ave","Pittsburgh","15214","PA","USA","40.464497","-80.00748"
"https://www.zillow.com/homedetails/7942-Thon-Dr-Verona-PA-15147/11376920_zpid/","","","50000","161000","1394","50500","12/16/2022","1092","sqft","45.79","5350","sqft","9.35","3","2","","","No","No","","7942 Thon Dr","Verona","15147","PA","USA","40.468075","-79.86745"
"https://www.zillow.com/homedetails/Station-St-Sturgeon-PA-15082/164451999_zpid/","","","50000","","1668","23500","12/16/2022","","","","0.49","acres","102052.29","","","","","No","No","","Station St","Sturgeon","15082","PA","USA","40.37825","-80.21323"
"https://www.zillow.com/homedetails/924-Rothpletz-St-Pittsburgh-PA-15212/11606094_zpid/","","","53000","55800","1325","71900","12/15/2022","1408","sqft","37.64","8276.4","sqft","6.4","3","1","","Dawn Ross","No","No","","924 Rothpletz St","Pittsburgh","15212","PA","USA","40.475956","-80.02505"
"https://www.zillow.com/homedetails/108-Farragut-St-Homestead-PA-15120/11348068_zpid/","","","50000","109600","1099","34000","12/12/2022","1220","sqft","40.98","3052","sqft","16.38","2","1","","","No","No","","108 Farragut St","Homestead","15120","PA","USA","40.39537","-79.89914"
"https://www.zillow.com/homedetails/504-Bon-Air-Rd-Pittsburgh-PA-15235/11415544_zpid/","","","55000","158700","1500","55100","12/12/2022","1500","sqft","36.67","8267","sqft","6.65","4","2","","","No","No","","504 Bon Air Rd","Pittsburgh","15235","PA","USA","40.467194","-79.85514"
"https://www.zillow.com/homedetails/2032-Chalfant-St-Pittsburgh-PA-15221/11417559_zpid/","","","50800","53500","1300","33400","12/12/2022","1160","sqft","43.79","3005.64","sqft","16.9","3","1","","Ellen Livingston","No","No","","2032 Chalfant St","Pittsburgh","15221","PA","USA","40.44965","-79.86148"
"https://www.zillow.com/homedetails/1174-Ridge-Ave-Braddock-PA-15104/11457335_zpid/","","","53000","76900","996","30800","12/08/2022","1348","sqft","39.32","2500.34","sqft","21.2","3","1","","David Paola","No","No","","1174 Ridge Ave","Braddock","15104","PA","USA","40.407646","-79.843376"
"https://www.zillow.com/homedetails/423-Parkwood-Rd-Pittsburgh-PA-15210/11308825_zpid/","","","55000","107400","1351","37900","12/06/2022","1008","sqft","54.56","0.29","acres","192557.47","2","1","","","No","No","","423 Parkwood Rd","Pittsburgh","15210","PA","USA","40.41451","-79.98097"
"https://www.zillow.com/homedetails/721-Spruce-St-Pittsburgh-PA-15238/11414846_zpid/","","","54000","156800","1300","43000","12/05/2022","910","sqft","59.34","2550","sqft","21.18","2","2","","","No","No","","721 Spruce St","Pittsburgh","15238","PA","USA","40.494133","-79.85932"
"https://www.zillow.com/homedetails/537-N-6th-St-Clairton-PA-15025/11604702_zpid/","","","50000","75400","1050","13700","12/05/2022","768","sqft","65.1","4349","sqft","11.5","3","1","","","No","No","","537 N 6th St","Clairton","15025","PA","USA","40.306152","-79.89433"
"https://www.zillow.com/homedetails/234-Tarragonna-St-Pittsburgh-PA-15210/11436843_zpid/","","","50000","86100","996","15000","12/02/2022","924","sqft","54.11","1742.4","sqft","28.7","2","1","","Michael Wicker","No","No","","234 Tarragonna St","Pittsburgh","15210","PA","USA","40.408257","-79.996925"
"https://www.zillow.com/homedetails/332-Bigelow-St-Pittsburgh-PA-15207/11544986_zpid/","","","52000","","835","28000","12/02/2022","1590","sqft","32.7","4545","sqft","11.44","1","1","","","No","No","","332 Bigelow St","Pittsburgh","15207","PA","USA","40.41973","-79.94338"
"https://www.zillow.com/homedetails/4369-Stanton-Ave-Pittsburgh-PA-15201/11614953_zpid/","","","55107","203800","1613","88200","12/02/2022","2326","sqft","23.69","2391","sqft","23.05","3","1","","","No","No","","4369 Stanton Ave","Pittsburgh","15201","PA","USA","40.481174","-79.941986"
"https://www.zillow.com/homedetails/1800-Hassam-Rd-Coraopolis-PA-15108/164639867_zpid/","","","50000","","1152","82700","12/01/2022","","","","10.62","acres","4706.99","","","","","No","No","","1800 Hassam Rd","Coraopolis","15108","PA","USA","40.494217","-80.16589"
"https://www.zillow.com/homedetails/804-E-Pittsburgh-McKeesport-Blvd-North-Versailles-PA-15137/11497511_zpid/","","","50000","76100","1106","47700","11/30/2022","1010","sqft","49.5","6468.66","sqft","7.73","2","1","","Libby Sosinski","No","No","","804 E Pittsburgh McKeesport Blvd","North Versailles","15137","PA","USA","40.37723","-79.82754"
"https://www.zillow.com/homedetails/110-Ashland-Dr-Pittsburgh-PA-15239/11597361_zpid/","","","55000","58000","1125","61200","11/30/2022","480","sqft","114.58","2.19","acres","25083.23","2","1","","","No","No","","110 Ashland Dr","Pittsburgh","15239","PA","USA","40.48572","-79.77239"
"https://www.zillow.com/homedetails/95-Beltzhoover-Ave-Pittsburgh-PA-15210/11314750_zpid/","","","55000","121500","1494","4000","11/28/2022","1008","sqft","54.56","1481.04","sqft","37.14","3","2","","Donald Bennett","No","No","","95 Beltzhoover Ave","Pittsburgh","15210","PA","USA","40.422195","-79.99717"
"https://www.zillow.com/homedetails/9005-Knoll-St-Allison-Park-PA-15101/11618625_zpid/","","","50000","547300","3310","208000","11/23/2022","1467","sqft","34.08","0.81","acres","61530.64","3","1.5","","","No","No","","9005 Knoll St","Allison Park","15101","PA","USA","40.571587","-80.007355"
"https://www.zillow.com/homedetails/484-Johnson-Ave-Tarentum-PA-15084/11350952_zpid/","","","55000","138900","1481","59200","11/22/2022","1083","sqft","50.78","8306.89","sqft","6.62","3","2","","Diane Bureman","No","No","","484 Johnson Ave","Tarentum","15084","PA","USA","40.64306","-79.777336"
"https://www.zillow.com/homedetails/447-E-7th-Ave-Tarentum-PA-15084/11279424_zpid/","","","55000","121400","1481","46800","11/21/2022","1584","sqft","34.72","3354","sqft","16.4","4","2","","","No","No","","447 E 7th Ave","Tarentum","15084","PA","USA","40.604668","-79.75059"
"https://www.zillow.com/homedetails/1038-Creek-St-Homestead-PA-15120/11347048_zpid/","","","52000","54900","1162","7200","11/18/2022","","","","0.5","acres","104000","2","1","","Mildred Karolski","No","No","","1038 Creek St","Homestead","15120","PA","USA","40.404076","-79.89807"
"https://www.zillow.com/homedetails/5103-Grand-Ave-Pittsburgh-PA-15225/11367334_zpid/","","","55000","160700","1522","48600","11/17/2022","1328","sqft","41.42","3900","sqft","14.1","3","1","","","No","No","","5103 Grand Ave","Pittsburgh","15225","PA","USA","40.510506","-80.12707"
"https://www.zillow.com/homedetails/164-Lynnwood-Dr-Pittsburgh-PA-15235/11453736_zpid/","","","55000","160900","1300","71800","11/17/2022","956","sqft","57.53","8926","sqft","6.16","3","1","","","No","No","","164 Lynnwood Dr","Pittsburgh","15235","PA","USA","40.451942","-79.83556"
"https://www.zillow.com/homedetails/1416-4th-Ave-Coraopolis-PA-15108/11438674_zpid/","","","50000","","984","16200","11/16/2022","1800","sqft","27.78","7500","sqft","6.67","3","1.5","","","No","No","","1416 4th Ave","Coraopolis","15108","PA","USA","40.515","-80.15544"
"https://www.zillow.com/homedetails/427-Woodward-Ave-Mc-Kees-Rocks-PA-15136/11594871_zpid/","","","55000","58100","997","28500","11/16/2022","1112","sqft","49.46","2400","sqft","22.92","2","1","","","No","No","","427 Woodward Ave","Mc Kees Rocks","15136","PA","USA","40.46969","-80.06869"
"https://www.zillow.com/homedetails/427-W-Woodward-Ave-Mc-Kees-Rocks-PA-15136/2063057636_zpid/","","","55000","","950","","11/15/2022","","","","2352","sqft","23.38","3","1","","Christian Ivory","No","No","","427 W Woodward Ave","Mc Kees Rocks","15136","PA","USA","",""
"https://www.zillow.com/homedetails/151-Meadow-St-East-Liberty-PA-15206/11285118_zpid/","","","50000","","1295","17300","11/10/2022","1052","sqft","47.53","3014","sqft","16.59","2","1","","","No","No","","151 Meadow St","East Liberty","15206","PA","USA","40.464245","-79.913055"
"https://www.zillow.com/homedetails/1012-Sunglow-St-Homestead-PA-15120/11296407_zpid/","","","50000","237300","1575","93500","11/09/2022","1499","sqft","33.36","10026","sqft","4.99","3","2","","","No","No","","1012 Sunglow St","Homestead","15120","PA","USA","40.37836","-79.912415"
"https://www.zillow.com/homedetails/1161-Oakleaf-Dr-Pittsburgh-PA-15207/11351477_zpid/","","","52000","158900","1542","54900","11/09/2022","1288","sqft","40.37","7200","sqft","7.22","3","1.5","","","No","No","","1161 Oakleaf Dr","Pittsburgh","15207","PA","USA","40.37314","-79.91501"
"https://www.zillow.com/homedetails/1314-Singer-Pl-Pittsburgh-PA-15221/11378939_zpid/","","","52500","","2875","50000","11/09/2022","2879","sqft","18.24","7000","sqft","7.5","6","2.5","","","No","No","","1314 Singer Pl","Pittsburgh","15221","PA","USA","40.44739","-79.88215"
"https://www.zillow.com/homedetails/127-Iowa-St-Verona-PA-15147/11567228_zpid/","","","55000","","1222","60600","11/09/2022","1252","sqft","43.93","4800.31","sqft","11.46","2","1","","Jason Mazzei","No","No","","127 Iowa St","Verona","15147","PA","USA","40.51022","-79.79544"
"https://www.zillow.com/homedetails/1219-W-North-Ave-Pittsburgh-PA-15233/11611695_zpid/","","","50250","","1500","31700","11/09/2022","","","","1995.05","sqft","25.19","3","2","","Karl Owens","No","No","","1219 W North Ave","Pittsburgh","15233","PA","USA","40.452427","-80.023094"
"https://www.zillow.com/homedetails/1221-W-North-Ave-Pittsburgh-PA-15233/11611696_zpid/","","","50250","","1214","34100","11/09/2022","","","","2426.29","sqft","20.71","3","2","","Karl Owens","No","No","","1221 W North Ave","Pittsburgh","15233","PA","USA","40.45243","-80.02315"
"https://www.zillow.com/homedetails/1216-Center-Ave-North-Versailles-PA-15137/11538601_zpid/","","","56000","89200","1308","41100","11/08/2022","1084","sqft","51.66","0.28","acres","203266.79","2","1","","Angela Williams","No","No","","1216 Center Ave","North Versailles","15137","PA","USA","40.375782","-79.800514"
"https://www.zillow.com/homedetails/4006-Vinceton-St-Pittsburgh-PA-15214/11269593_zpid/","","","50000","","1570","20000","11/07/2022","1920","sqft","26.04","2178","sqft","22.96","4","1","","","No","No","","4006 Vinceton St","Pittsburgh","15214","PA","USA","40.49036","-80.022514"
"https://www.zillow.com/homedetails/200-Carson-St-Springdale-PA-15144/11563825_zpid/","","","50000","100500","1006","49000","11/07/2022","768","sqft","65.1","5681","sqft","8.8","2","1","","","No","No","","200 Carson St","Springdale","15144","PA","USA","40.548523","-79.78774"
"https://www.zillow.com/homedetails/4706-Lorigan-St-Pittsburgh-PA-15224/11402808_zpid/","","","55000","260700","2281","80000","11/03/2022","1843","sqft","29.84","3252","sqft","16.91","6","1.5","","","No","No","","4706 Lorigan St","Pittsburgh","15224","PA","USA","40.458763","-79.952194"
"https://www.zillow.com/homedetails/204-E-Woodford-Ave-Pittsburgh-PA-15210/11644945_zpid/","","","57000","60200","1064","45000","11/03/2022","928","sqft","61.42","4499.75","sqft","12.67","2","1","","Vivian Novak","No","No","","204 E Woodford Ave","Pittsburgh","15210","PA","USA","40.39272","-79.98273"
"https://www.zillow.com/homedetails/617-Constitution-Cir-Clairton-PA-15025/11250206_zpid/","","","56000","59200","1090","38200","11/02/2022","1064","sqft","52.63","5000.69","sqft","11.2","3","1","","Lia Larsen","No","No","","617 Constitution Cir","Clairton","15025","PA","USA","40.286926","-79.88938"
"https://www.zillow.com/homedetails/1612-Middle-St-Pittsburgh-PA-15215/11334192_zpid/","","","55500","58600","1500","44900","11/02/2022","1276","sqft","43.5","1930","sqft","28.76","2","2","","","No","No","","1612 Middle St","Pittsburgh","15215","PA","USA","40.495525","-79.92481"
"https://www.zillow.com/homedetails/2949-Zephyr-Ave-Pittsburgh-PA-15204/11483337_zpid/","","","56300","59500","1390","14000","11/02/2022","2018","sqft","27.9","5449.36","sqft","10.33","3","1","","Donald Bennett","No","No","","2949 Zephyr Ave","Pittsburgh","15204","PA","USA","40.455868","-80.05335"
"https://www.zillow.com/homedetails/517-Finley-St-Pittsburgh-PA-15206/11285678_zpid/","","","55000","171400","1851","21700","11/01/2022","1368","sqft","40.2","3500","sqft","15.71","3","1.5","","","No","No","","517 Finley St","Pittsburgh","15206","PA","USA","40.460747","-79.90849"
"https://www.zillow.com/homedetails/Town-Irwin-PA-15642/294903089_zpid/","","","54000","","1094","9270","11/01/2022","","","","2657.16","sqft","20.32","2","3","","Susan Gill","No","No","","Town","Irwin","15642","PA","USA","40.3496","-79.78295"
"https://www.zillow.com/homedetails/119-Bygate-Cir-Pittsburgh-PA-15220/11577557_zpid/","","","50000","219000","1597","116200","10/31/2022","1200","sqft","41.67","5849","sqft","8.55","3","1","","","No","No","","119 Bygate Cir","Pittsburgh","15220","PA","USA","40.394466","-80.07781"
"https://www.zillow.com/homedetails/323-Campbell-St-Mc-Kees-Rocks-PA-15136/11602940_zpid/","","","50000","52800","1496","53700","10/31/2022","1266","sqft","39.49","2500","sqft","20","2","2","","","No","No","","323 Campbell St","Mc Kees Rocks","15136","PA","USA","40.47425","-80.05521"
"https://www.zillow.com/homedetails/State-St-Clairton-PA-15025/164237450_zpid/","","","52000","","1195","54400","10/28/2022","","","","6.56","acres","7929.73","","","","","No","No","","State St","Clairton","15025","PA","USA","40.26505","-79.91075"
"https://www.zillow.com/homedetails/960-Geyer-Rd-Pittsburgh-PA-15209/11329184_zpid/","","","55000","205100","1798","81500","10/27/2022","1145","sqft","48.03","2","acres","27500","3","2","","","No","No","","960 Geyer Rd","Pittsburgh","15209","PA","USA","40.494175","-79.98098"
"https://www.zillow.com/homedetails/926-Washington-St-McKeesport-PA-15132/11461168_zpid/","","","50000","52800","1314","37500","10/27/2022","1440","sqft","34.72","4896.14","sqft","10.21","3","2","","Michael Pohlot","No","No","","926 Washington St","McKeesport","15132","PA","USA","40.350075","-79.83582"
"https://www.zillow.com/homedetails/1016-Pennsylvania-Ave-Pitcairn-PA-15140/11601291_zpid/","","","50000","103800","1280","38100","10/27/2022","1238","sqft","40.39","2010","sqft","24.88","3","1","","","No","No","","1016 Pennsylvania Ave","Pitcairn","15140","PA","USA","40.409904","-79.77899"
"https://www.zillow.com/homedetails/2801-Fayette-St-McKeesport-PA-15132/11499805_zpid/","","","50000","52800","1042","28300","10/24/2022","696","sqft","71.84","6600","sqft","7.58","2","1","","","No","No","","2801 Fayette St","McKeesport","15132","PA","USA","40.356483","-79.830864"
"https://www.zillow.com/homedetails/2120-Mount-Troy-Rd-Pittsburgh-PA-15212/11511972_zpid/","","","50000","52800","1595","83900","10/21/2022","1762","sqft","28.38","5940","sqft","8.42","3","1","","","No","No","","2120 Mount Troy Rd","Pittsburgh","15212","PA","USA","40.470894","-79.98211"
"https://www.zillow.com/homedetails/320-N-4th-St-Clairton-PA-15025/11604841_zpid/","","","50000","75700","1074","20100","10/21/2022","1290","sqft","38.76","3240.86","sqft","15.43","2","1","","Justin Riapos","No","No","","320 N 4th St","Clairton","15025","PA","USA","40.305683","-79.88928"
"https://www.zillow.com/homedetails/234-Winston-St-Pittsburgh-PA-15207/11550991_zpid/","","","55000","136100","1450","54300","10/20/2022","1490","sqft","36.91","2500","sqft","22","3","1","","","No","No","","234 Winston St","Pittsburgh","15207","PA","USA","40.404793","-79.93996"
"https://www.zillow.com/homedetails/1206-Wolfe-Ave-N-Braddock-PA-15104/2065568829_zpid/","","","55000","58100","1162","","10/20/2022","","","","","","","","1","","","No","No","","1206 Wolfe Ave N","Braddock","15104","PA","USA","",""
"https://www.zillow.com/homedetails/2767-Glen-Mawr-St-Pittsburgh-PA-15204/11483733_zpid/","","","55000","130700","1399","38900","10/18/2022","1831","sqft","30.04","2500.34","sqft","22","3","2","","Dale Polanosky","No","No","","2767 Glen Mawr St","Pittsburgh","15204","PA","USA","40.45464","-80.05106"
"https://www.zillow.com/homedetails/408-James-St-Turtle-Creek-PA-15145/11496122_zpid/","","","50000","","1364","35000","10/17/2022","1600","sqft","31.25","2500.34","sqft","20","4","1","","Corey Diethorn","No","No","","408 James St","Turtle Creek","15145","PA","USA","40.4085","-79.8185"
"https://www.zillow.com/homedetails/811-Maple-Dr-White-Oak-PA-15131/11499978_zpid/","","","52000","54700","1199","26000","10/17/2022","966","sqft","53.83","8276.4","sqft","6.28","2","2","","","No","No","","811 Maple Dr","White Oak","15131","PA","USA","40.357246","-79.82335"
"https://www.zillow.com/homedetails/416-5th-St-Clairton-PA-15025/59838285_zpid/","","","50000","71400","1090","16900","10/14/2022","1402","sqft","35.66","3750.52","sqft","13.33","3","1","","Dana Evans","No","No","","416 5th St","Clairton","15025","PA","USA","40.296814","-79.88408"
"https://www.zillow.com/homedetails/238-Tarragonna-St-Pittsburgh-PA-15210/11436844_zpid/","","","52000","55000","1400","51200","10/05/2022","","","","0.25","acres","208000","3","2","","Mildred Karolski","No","No","","238 Tarragonna St","Pittsburgh","15210","PA","USA","40.40814","-79.996925"
"https://www.zillow.com/homedetails/13033-Ferraro-Dr-Pittsburgh-PA-15235/11491315_zpid/","","","50000","","1400","70800","10/05/2022","1310","sqft","38.17","6000","sqft","8.33","3","1","","","No","No","","13033 Ferraro Dr","Pittsburgh","15235","PA","USA","40.48203","-79.81963"
"https://www.zillow.com/homedetails/825-Vermont-Ave-Glassport-PA-15045/11543773_zpid/","","","55000","58000","1066","61000","10/03/2022","","","","2613.6","sqft","21.04","3","2","","Joe Gallagher","No","No","","825 Vermont Ave","Glassport","15045","PA","USA","40.32179","-79.8893"
"https://www.zillow.com/homedetails/3711-Atkins-St-Pittsburgh-PA-15212/11269376_zpid/","","","50000","","1749","93100","09/30/2022","2189","sqft","22.84","2500.34","sqft","20","4","2","","","No","No","","3711 Atkins St","Pittsburgh","15212","PA","USA","40.483784","-80.03389"
"https://www.zillow.com/homedetails/7036-Kedron-St-Pittsburgh-PA-15208/11338682_zpid/","","","55000","58000","1360","26000","09/29/2022","1542","sqft","35.67","1860.01","sqft","29.57","4","1","","Joseph Pegher","No","No","","7036 Kedron St","Pittsburgh","15208","PA","USA","40.461426","-79.89857"
"https://www.zillow.com/homedetails/1176-Grandview-Ave-Braddock-PA-15104/11457361_zpid/","","","50000","70100","1280","37000","09/29/2022","1754","sqft","28.51","4621.72","sqft","10.82","2","1","","Edward Werner","No","No","","1176 Grandview Ave","Braddock","15104","PA","USA","40.40758","-79.84432"
"https://www.zillow.com/homedetails/700-E-17th-Ave-Homestead-PA-15120/11293389_zpid/","","","50000","172000","1507","69000","09/23/2022","2240","sqft","22.32","2875","sqft","17.39","4","2","","","No","No","","700 E 17th Ave","Homestead","15120","PA","USA","40.403072","-79.90006"
"https://www.zillow.com/homedetails/116-Carnegie-Ave-Clairton-PA-15025/11576576_zpid/","","","52000","","950","31700","09/23/2022","756","sqft","68.78","4970.2","sqft","10.46","2","1","","Bill Dapper","No","No","","116 Carnegie Ave","Clairton","15025","PA","USA","40.30949","-79.892136"
"https://www.zillow.com/homedetails/2006-Willow-St-Braddock-PA-15104/11457871_zpid/","","","50000","87400","1150","33800","09/22/2022","1504","sqft","33.24","3704","sqft","13.5","3","2","","","No","No","","2006 Willow St","Braddock","15104","PA","USA","40.40352","-79.841255"
"https://www.zillow.com/homedetails/1823-Greentree-Rd-Pittsburgh-PA-15220/11574052_zpid/","","","56667","194400","1580","85300","09/19/2022","946","sqft","59.9","3933","sqft","14.41","3","1","","","No","No","","1823 Greentree Rd","Pittsburgh","15220","PA","USA","40.397675","-80.06534"
"https://www.zillow.com/homedetails/1515-Broadway-Ave-Mc-Kees-Rocks-PA-15136/11598543_zpid/","","","55000","58100","1114","30000","09/16/2022","966","sqft","56.94","2090.88","sqft","26.3","3","1","","Jason Mazzei","No","No","","1515 Broadway Ave","Mc Kees Rocks","15136","PA","USA","40.475384","-80.082344"
"https://www.zillow.com/homedetails/2555-Ivyglen-St-Pittsburgh-PA-15227/11305996_zpid/","","","52000","139900","1494","43300","09/14/2022","1149","sqft","45.26","9300.06","sqft","5.59","3","1","","","No","No","","2555 Ivyglen St","Pittsburgh","15227","PA","USA","40.38162","-79.99399"
"https://www.zillow.com/homedetails/5203-Gem-Way-Pittsburgh-PA-15224/11520284_zpid/","","","55000","58100","1394","27100","09/14/2022","868","sqft","63.36","616","sqft","89.29","2","1","","","No","No","","5203 Gem Way","Pittsburgh","15224","PA","USA","40.465023","-79.93956"
"https://www.zillow.com/homedetails/732-Upston-St-McKeesport-PA-15133/11465423_zpid/","","","55000","58100","1295","51800","09/09/2022","1250","sqft","44","7801.6","sqft","7.05","3","2","","Sandra Tokosh","No","No","","732 Upston St","McKeesport","15133","PA","USA","40.34339","-79.87777"
"https://www.zillow.com/homedetails/43-N-3rd-St-Clairton-PA-15025/11605074_zpid/","","","52000","","854","27600","09/09/2022","","","","6978.31","sqft","7.45","3","1","","Jason Ruzich","No","No","","43 N 3rd St","Clairton","15025","PA","USA","40.30359","-79.88582"
"https://www.zillow.com/homedetails/201-McCorkle-Ct-Buena-Vista-PA-15018/11264673_zpid/","","","55000","58100","942","72700","09/08/2022","1216","sqft","45.23","0.55","acres","99663.05","2","1","","","No","No","","201 McCorkle Ct","Buena Vista","15018","PA","USA","40.272408","-79.79639"
"https://www.zillow.com/homedetails/2710-Houston-St-Pittsburgh-PA-15212/11610504_zpid/","","","50000","186800","1646","104300","09/08/2022","1200","sqft","41.67","0.29","acres","172528.52","3","1","","","No","No","","2710 Houston St","Pittsburgh","15212","PA","USA","40.475758","-79.983696"
"https://www.zillow.com/homedetails/2636-Library-Rd-Pittsburgh-PA-15234/11306841_zpid/","","","50000","","1286","30000","09/07/2022","1388","sqft","36.02","3807.14","sqft","13.13","2","1","","Roberta Mazzarini","No","No","","2636 Library Rd","Pittsburgh","15234","PA","USA","40.379887","-80.00098"
"https://www.zillow.com/homedetails/916-Maryland-Ave-Duquesne-PA-15110/11424992_zpid/","","","56000","76100","981","42300","09/07/2022","","","","2805.26","sqft","19.96","2","1","","","No","No","","916 Maryland Ave","Duquesne","15110","PA","USA","40.362507","-79.85099"
"https://www.zillow.com/homedetails/1134-Taggart-St-Mc-Kees-Rocks-PA-15136/11595302_zpid/","","","54000","57000","982","23100","09/02/2022","995","sqft","54.27","1332.94","sqft","40.51","2","2","","Shanna Funwela","No","No","","1134 Taggart St","Mc Kees Rocks","15136","PA","USA","40.4636","-80.06963"
"https://www.zillow.com/homedetails/3603-Miller-Ave-McKeesport-PA-15132/11460876_zpid/","","","50000","52400","1400","47500","08/31/2022","909","sqft","55.01","5549.54","sqft","9.01","3","2","","","No","No","","3603 Miller Ave","McKeesport","15132","PA","USA","40.35335","-79.835976"
"https://www.zillow.com/homedetails/1011-Woodland-Ave-McKeesport-PA-15133/11465828_zpid/","","","50000","52700","950","51200","08/31/2022","925","sqft","54.05","2131.57","sqft","23.46","2","1","","Maria DePasquale","No","No","","1011 Woodland Ave","McKeesport","15133","PA","USA","40.33653","-79.88278"
"https://www.zillow.com/homedetails/448-Pennsylvania-Ave-Wall-PA-15148/11572380_zpid/","","","55000","58000","941","26500","08/31/2022","732","sqft","75.14","2580","sqft","21.32","2","1","","","No","No","","448 Pennsylvania Ave","Wall","15148","PA","USA","40.394283","-79.7885"
"https://www.zillow.com/homedetails/1121-Knox-St-Mc-Kees-Rocks-PA-15136/11599092_zpid/","","","55000","58000","1400","42400","08/31/2022","872","sqft","63.07","2495.99","sqft","22.04","2","2","","Marianne Reid","No","No","","1121 Knox St","Mc Kees Rocks","15136","PA","USA","40.472687","-80.077545"
"https://www.zillow.com/homedetails/6601-Library-Rd-South-Park-PA-15129/164544050_zpid/","","","56000","159400","1620","49100","08/30/2022","728","sqft","76.92","4251.46","sqft","13.17","2","1","","Ryan Shedlock","No","No","","6601 Library Rd","South Park","15129","PA","USA","40.285297","-80.02351"
"https://www.zillow.com/homedetails/7309-Butler-St-Pittsburgh-PA-15206/11278114_zpid/","","","50000","","2470","71900","08/29/2022","","","","2400","sqft","20.83","6","2","","Sheena Spells","No","No","","7309 Butler St","Pittsburgh","15206","PA","USA","40.48827","-79.92095"
"https://www.zillow.com/homedetails/434-Oregon-Ave-Glassport-PA-15045/11504462_zpid/","","","50000","111000","1398","36200","08/29/2022","2037","sqft","24.55","5662","sqft","8.83","3","1.5","","","No","No","","434 Oregon Ave","Glassport","15045","PA","USA","40.32883","-79.88737"
"https://www.zillow.com/homedetails/218-Nobles-Ln-Pittsburgh-PA-15210/11556100_zpid/","","","55000","117700","1394","40100","08/25/2022","1176","sqft","46.77","6655.97","sqft","8.26","3","1","","John Adair","No","No","","218 Nobles Ln","Pittsburgh","15210","PA","USA","40.402668","-79.99476"
"https://www.zillow.com/homedetails/326-Linnview-Ave-Pittsburgh-PA-15210/11556273_zpid/","","","50000","133700","1400","59200","08/24/2022","1080","sqft","46.3","5625","sqft","8.89","3","1","","","No","No","","326 Linnview Ave","Pittsburgh","15210","PA","USA","40.40401","-79.98344"
"https://www.zillow.com/homedetails/1734-Leolyn-St-Pittsburgh-PA-15210/11557058_zpid/","","","50000","","1391","22000","08/24/2022","1088","sqft","45.96","3920","sqft","12.76","3","1","","","No","No","","1734 Leolyn St","Pittsburgh","15210","PA","USA","40.397724","-79.98578"
"https://www.zillow.com/homedetails/3741-Chartiers-Ave-Pittsburgh-PA-15204/11592701_zpid/","","","55000","58000","1288","44200","08/19/2022","1426","sqft","38.57","8772.98","sqft","6.27","5","2","","Bonita Diamond-Wilbert","No","No","","3741 Chartiers Ave","Pittsburgh","15204","PA","USA","40.457573","-80.07249"
"https://www.zillow.com/homedetails/755-Horton-St-Clairton-PA-15025/11633360_zpid/","","","55000","94100","1295","31300","08/19/2022","1000","sqft","55","8712","sqft","6.31","3","2","","Smadar Blumenthal","No","No","","755 Horton St","Clairton","15025","PA","USA","40.287636","-79.882"
"https://www.zillow.com/homedetails/725-Garden-St-N-McKeesport-PA-15131/2067321642_zpid/","","","57000","","1128","","08/19/2022","1670","sqft","34.13","9600.62","sqft","5.94","3","1","","Billy Burleson","No","No","","725 Garden St N","McKeesport","15131","PA","USA","40.361866","-79.81922"
"https://www.zillow.com/homedetails/23-Ring-St-Rural-Ridge-PA-15075/11646715_zpid/","","","52500","55300","1025","38200","08/18/2022","896","sqft","58.59","3280.07","sqft","16.01","2","2","","Nicole D Arduino","No","No","","23 Ring St","Rural Ridge","15075","PA","USA","40.58593","-79.826706"
"https://www.zillow.com/homedetails/945-8th-Ave-Brackenridge-PA-15014/11280449_zpid/","","","56000","59000","900","53100","08/17/2022","1128","sqft","49.65","3000","sqft","18.67","2","1","","","No","No","","945 8th Ave","Brackenridge","15014","PA","USA","40.60869","-79.74284"
"https://www.zillow.com/homedetails/808-Franklin-Ave-Pittsburgh-PA-15221/11342451_zpid/","","","56450","59500","1373","11700","08/17/2022","","","","2770.42","sqft","20.38","2","1","","Jeffrey Stanley","No","No","","808 Franklin Ave","Pittsburgh","15221","PA","USA","40.439995","-79.88298"
"https://www.zillow.com/homedetails/1242-8th-Ave-Natrona-Heights-PA-15065/11301666_zpid/","","","50000","69200","816","31000","08/15/2022","720","sqft","69.44","1500","sqft","33.33","1","1","","","No","No","","1242 8th Ave","Natrona Heights","15065","PA","USA","40.61051","-79.73344"
"https://www.zillow.com/homedetails/3218-Valewood-Dr-Homestead-PA-15120/11349137_zpid/","","","55500","200800","1550","86700","08/15/2022","1239","sqft","44.79","6840","sqft","8.11","3","1.5","","","No","No","","3218 Valewood Dr","Homestead","15120","PA","USA","40.387066","-79.896324"
"https://www.zillow.com/homedetails/323-Nelbon-Ave-Pittsburgh-PA-15235/11452109_zpid/","","","54000","186000","1499","62800","08/15/2022","1318","sqft","40.97","6786","sqft","7.96","3","2","","","No","No","","323 Nelbon Ave","Pittsburgh","15235","PA","USA","40.45772","-79.844246"
"https://www.zillow.com/homedetails/2161-Stewart-Rd-South-Park-PA-15129/11607351_zpid/","","","56682","59700","1500","86600","08/15/2022","948","sqft","59.79","1","acres","56682","2","1","","","No","No","","2161 Stewart Rd","South Park","15129","PA","USA","40.301895","-80.01664"
"https://www.zillow.com/homedetails/207-Wilbur-St-Pittsburgh-PA-15210/11437033_zpid/","","","51000","172700","1914","12000","08/12/2022","","","","1437.48","sqft","35.48","3","3","","Susan Kaczorek","No","No","","207 Wilbur St","Pittsburgh","15210","PA","USA","40.40783","-79.99288"
"https://www.zillow.com/homedetails/Peebles-Rd-Pittsburgh-PA-15237/164683574_zpid/","","","56000","","1802","200","08/09/2022","","","","2370","sqft","23.63","","","","","No","No","","Peebles Rd","Pittsburgh","15237","PA","USA","40.566","-80.00763"
"https://www.zillow.com/homedetails/41-Grandview-Ave-Pittsburgh-PA-15214/11327642_zpid/","","","51000","","1494","58400","08/08/2022","1201","sqft","42.46","2500.34","sqft","20.4","3","2","","Libby Sosinski","No","No","","41 Grandview Ave","Pittsburgh","15214","PA","USA","40.495335","-80.02936"
"https://www.zillow.com/homedetails/1001-Indiana-Ave-Glassport-PA-15045/11543847_zpid/","","","50000","52600","1200","49400","08/08/2022","1512","sqft","33.07","3400","sqft","14.71","2","1.5","","","No","No","","1001 Indiana Ave","Glassport","15045","PA","USA","40.319332","-79.888145"
"https://www.zillow.com/homedetails/1713-Rhine-St-Pittsburgh-PA-15212/11511642_zpid/","","","50000","52600","1632","50000","08/05/2022","2217","sqft","22.55","7357.28","sqft","6.8","3","1","","Tina Nobers","No","No","","1713 Rhine St","Pittsburgh","15212","PA","USA","40.464394","-79.99207"
"https://www.zillow.com/homedetails/232-Summers-Dr-Monroeville-PA-15146/11570031_zpid/","","","50000","126500","1164","63100","08/03/2022","864","sqft","57.87","9239","sqft","5.41","2","1","","","No","No","","232 Summers Dr","Monroeville","15146","PA","USA","40.437946","-79.78774"
"https://www.zillow.com/homedetails/1117-James-St-Pittsburgh-PA-15221/11379250_zpid/","","","56500","59500","1512","41300","08/02/2022","1512","sqft","37.37","5375.3","sqft","10.51","3","2","","LeSans Montgomery","No","No","","1117 James St","Pittsburgh","15221","PA","USA","40.446793","-79.87407"
"https://www.zillow.com/homedetails/1208-Meadow-St-McKeesport-PA-15132/11462026_zpid/","","","50000","52600","895","33300","08/02/2022","2191","sqft","22.82","5227.2","sqft","9.57","4","2","","Mary Sivrich","No","No","","1208 Meadow St","McKeesport","15132","PA","USA","40.344723","-79.84042"
"https://www.zillow.com/homedetails/1303-Cloverdale-St-Pittsburgh-PA-15210/11556422_zpid/","","","56000","155500","1514","84400","08/01/2022","1238","sqft","45.23","5280","sqft","10.61","4","2","","","No","No","","1303 Cloverdale St","Pittsburgh","15210","PA","USA","40.40071","-79.9974"
"https://www.zillow.com/homedetails/1409-Brookline-Blvd-Pittsburgh-PA-15226/11649102_zpid/","","","52000","215000","1495","57600","08/01/2022","1392","sqft","37.36","3150","sqft","16.51","3","1.5","","","No","No","","1409 Brookline Blvd","Pittsburgh","15226","PA","USA","40.39258","-80.00884"
"https://www.zillow.com/homedetails/1443-Hunter-Rd-Verona-PA-15147/11530878_zpid/","","","50000","52700","1072","34000","07/30/2022","784","sqft","63.78","4935.35","sqft","10.13","2","1","","Shane Smith","No","No","","1443 Hunter Rd","Verona","15147","PA","USA","40.509357","-79.815765"
"https://www.zillow.com/homedetails/3208-Stewart-St-McKeesport-PA-15132/11462686_zpid/","","","52000","54700","1200","37000","07/29/2022","","","","3746.16","sqft","13.88","3","1","","Ariel Harat","No","No","","3208 Stewart St","McKeesport","15132","PA","USA","40.342762","-79.83979"
"https://www.zillow.com/homedetails/425-N-4th-St-Clairton-PA-15025/11604932_zpid/","","","52000","54700","1142","20000","07/22/2022","1206","sqft","43.12","3123.25","sqft","16.65","3","2","","Justin Riapos","No","No","","425 N 4th St","Clairton","15025","PA","USA","40.30605","-79.8909"
"https://www.zillow.com/homedetails/232-Moore-Ave-Pittsburgh-PA-15210/11436348_zpid/","","","50000","111000","1300","26800","07/18/2022","1938","sqft","25.8","3124","sqft","16.01","2","1.5","","","No","No","","232 Moore Ave","Pittsburgh","15210","PA","USA","40.411224","-79.991974"
"https://www.zillow.com/homedetails/3134-Landis-St-Pittsburgh-PA-15204/11483015_zpid/","","","54000","56800","1294","16800","07/14/2022","2156","sqft","25.05","3001.28","sqft","17.99","5","1","","Billy Burleson","No","No","","3134 Landis St","Pittsburgh","15204","PA","USA","40.45733","-80.05643"
"https://www.zillow.com/homedetails/107-Lenox-Ave-Pittsburgh-PA-15221/11456297_zpid/","","","50000","113300","1227","74000","07/08/2022","1468","sqft","34.06","3484.8","sqft","14.35","4","2","","Lori Bost","No","No","","107 Lenox Ave","Pittsburgh","15221","PA","USA","40.41861","-79.84764"
"https://www.zillow.com/homedetails/119-Upper-Arrowhead-Rd-Pittsburgh-PA-15237/11442165_zpid/","","","50000","52600","1694","90200","07/05/2022","","","","0.9","acres","55555.56","3","1","","Gene Oswald","No","No","","119 Upper Arrowhead Rd","Pittsburgh","15237","PA","USA","40.52252","-80.01648"
"https://www.zillow.com/homedetails/9124-Maple-St-Pittsburgh-PA-15239/11261316_zpid/","","","51000","120800","1234","61400","06/30/2022","1120","sqft","45.54","5336.1","sqft","9.56","2","1","","Gary Craig","No","No","","9124 Maple St","Pittsburgh","15239","PA","USA","40.501167","-79.72444"
"https://www.zillow.com/homedetails/202-Moye-Pl-Pittsburgh-PA-15210/11317143_zpid/","","","50500","","1394","19000","06/30/2022","1760","sqft","28.69","2825","sqft","17.88","3","1","","","No","No","","202 Moye Pl","Pittsburgh","15210","PA","USA","40.415794","-79.98493"
