Property URL,MLS ID,Number of days on Zillow,Property price (USD),Zestimate (USD),Rent zestimate (USD per month),Tax assessed value (USD),Sold date (MM/DD/YYYY),Living area,Living area unit,Price per living area unit (USD),Lot/land area,Lot/land area unit,Price per lot/land area unit (USD),Bedrooms,Bathrooms,Broker name,Broker agent,Is owner occupied,Property owned by Zillow,Property unit number,Street address,City,Zip,State,Country,Latitude,Longitude
"https://www.zillow.com/homedetails/7233-Church-St-Pittsburgh-PA-15218/11345191_zpid/","","","250000","246600","1332","33200","10/17/2023","1200","sqft","208.33","1846.94","sqft","135.36","2","2","","Andrew Guillot","No","No","","7233 Church St","Pittsburgh","15218","PA","USA","40.421257","-79.89265"
"https://www.zillow.com/homedetails/185-Martha-Ave-Pittsburgh-PA-15209/11372125_zpid/","","","249900","245300","1500","150800","10/16/2023","1035","sqft","241.45","9304.42","sqft","26.86","2","1","","Austin Rusert","No","No","","185 Martha Ave","Pittsburgh","15209","PA","USA","40.5031","-79.9801"
"https://www.zillow.com/homedetails/4001-Buckboard-Trl-Allison-Park-PA-15101/11591880_zpid/","","","250000","279400","2977","265400","10/16/2023","3180","sqft","78.62","0.49","acres","508543.53","5","3","","Vince Schmidt","No","No","","4001 Buckboard Trl","Allison Park","15101","PA","USA","40.56821","-79.95907"
"https://www.zillow.com/homedetails/410-Duquesne-Dr-Pittsburgh-PA-15243/11312942_zpid/","","","250000","250000","2100","165600","10/13/2023","","","","6750","sqft","37.04","3","3","","Harry Kuruce","No","No","","410 Duquesne Dr","Pittsburgh","15243","PA","USA","40.381924","-80.05674"
"https://www.zillow.com/homedetails/1130-McKenna-Ave-Pittsburgh-PA-15205/11356092_zpid/","","","250000","234300","1825","106400","10/13/2023","1324","sqft","188.82","9147.6","sqft","27.33","3","2","","Jason Menni","No","No","","1130 McKenna Ave","Pittsburgh","15205","PA","USA","40.42654","-80.04833"
"https://www.zillow.com/homedetails/172-Colonial-Village-Dr-Pittsburgh-PA-15235/11568859_zpid/","","","250000","250000","1800","86600","10/11/2023","1568","sqft","159.44","6969.6","sqft","35.87","4","3","","Corey Burns","No","No","","172 Colonial Village Dr","Pittsburgh","15235","PA","USA","40.47426","-79.78842"
"https://www.zillow.com/homedetails/642-Griffin-St-Pittsburgh-PA-15211/11323819_zpid/","","","250000","249800","1798","67400","10/10/2023","1650","sqft","151.52","2700.72","sqft","92.57","4","2","","Lori Maffeo","No","No","","642 Griffin St","Pittsburgh","15211","PA","USA","40.42059","-80.01221"
"https://www.zillow.com/homedetails/17-Ellen-Dr-Mc-Kees-Rocks-PA-15136/11366000_zpid/","","","249900","249900","1849","138000","10/10/2023","1968","sqft","126.98","0.5","acres","499300.7","4","2","","Joe Corsale","No","No","","17 Ellen Dr","Mc Kees Rocks","15136","PA","USA","40.473797","-80.12923"
"https://www.zillow.com/homedetails/510-Cottage-Ln-Monroeville-PA-15146/11626895_zpid/","","","250000","250000","2166","151000","10/06/2023","1928","sqft","129.67","0.44","acres","566893.42","3","3","","Mary Kay Abdulovic","No","No","","510 Cottage Ln","Monroeville","15146","PA","USA","40.45526","-79.76261"
"https://www.zillow.com/homedetails/245-Knickerbocker-Dr-Pittsburgh-PA-15235/11534512_zpid/","","","250000","250000","1949","152600","10/05/2023","1744","sqft","143.35","8363.52","sqft","29.89","3","3","","Paul Murray","No","No","","245 Knickerbocker Dr","Pittsburgh","15235","PA","USA","40.444515","-79.80109"
"https://www.zillow.com/homedetails/3613-Oakcrest-Dr-Gibsonia-PA-15044/11317377_zpid/","","","250000","250000","1650","100000","09/29/2023","1144","sqft","218.53","0.79","acres","316455.7","3","1","","JoAnn Echtler","No","No","","3613 Oakcrest Dr","Gibsonia","15044","PA","USA","40.622864","-79.975746"
"https://www.zillow.com/homedetails/129-Sheldon-Ave-Pittsburgh-PA-15220/11468939_zpid/","","","247900","247900","1749","125000","09/28/2023","1170","sqft","211.88","7487.96","sqft","33.11","3","2","","Lucas Rathway","No","No","","129 Sheldon Ave","Pittsburgh","15220","PA","USA","40.416245","-80.05402"
"https://www.zillow.com/homedetails/1561-Critchfield-Dr-Bridgeville-PA-15017/11433893_zpid/","","","250000","250000","1879","120700","09/22/2023","1140","sqft","219.3","7801.6","sqft","32.04","3","2","","Amanda Naccarelli","No","No","","1561 Critchfield Dr","Bridgeville","15017","PA","USA","40.352493","-80.091774"
"https://www.zillow.com/homedetails/1422-Justine-St-Pittsburgh-PA-15204/11479745_zpid/","","","250000","250000","1649","94200","09/22/2023","1320","sqft","189.39","6599.34","sqft","37.88","3","2","","CHRISTOPHER CARR","No","No","","1422 Justine St","Pittsburgh","15204","PA","USA","40.447445","-80.06032"
"https://www.zillow.com/homedetails/1169-Saint-Vincent-Dr-Monroeville-PA-15146/11627895_zpid/","","","246000","246000","1724","90000","09/22/2023","","","","8193.64","sqft","30.02","4","2","","Melissa Merriman","No","No","","1169 Saint Vincent Dr","Monroeville","15146","PA","USA","40.420406","-79.75314"
"https://www.zillow.com/homedetails/1026-Grandview-Ave-McKnight-PA-15237/11483825_zpid/","","","249900","249400","1739","123400","09/21/2023","1440","sqft","173.54","6250.86","sqft","39.98","3","1","","Brianne Flint","No","No","","1026 Grandview Ave","Mcknight","15237","PA","USA","40.538727","-80.03175"
"https://www.zillow.com/homedetails/251-Hill-Rd-N-Oakdale-PA-15071/2056013865_zpid/","","","250000","","2299","","09/20/2023","1486","sqft","168.24","1.51","acres","165562.91","3","2","","Dante Egizio","No","No","","251 Hill Rd N","Oakdale","15071","PA","USA","",""
"https://www.zillow.com/homedetails/670-Fallen-Timber-Rd-Elizabeth-PA-15037/11286911_zpid/","","","250000","250000","1569","121300","09/15/2023","1444","sqft","173.13","1.39","acres","179856.12","3","2","","Devie Rollison","No","No","","670 Fallen Timber Rd","Elizabeth","15037","PA","USA","40.264675","-79.83358"
"https://www.zillow.com/homedetails/2847-McCully-Rd-Allison-Park-PA-15101/11646282_zpid/","","","249900","249900","2055","117500","09/11/2023","1248","sqft","200.24","0.45","acres","560942.76","3","2","","Benedict Serratore","No","No","","2847 McCully Rd","Allison Park","15101","PA","USA","40.581238","-79.946236"
"https://www.zillow.com/homedetails/156-Kane-Blvd-Bridgeville-PA-15017/11314640_zpid/","","","250000","249900","1900","122500","09/08/2023","1346","sqft","185.74","0.27","acres","919117.65","3","2","","Cindy Demel","No","No","","156 Kane Blvd","Bridgeville","15017","PA","USA","40.37572","-80.088974"
"https://www.zillow.com/homedetails/677-Blossom-Dr-Pittsburgh-PA-15236/11470602_zpid/","","","250000","249900","1681","122700","09/08/2023","934","sqft","267.67","0.27","acres","930752.05","3","2","","Chelsea Previs","No","No","","677 Blossom Dr","Pittsburgh","15236","PA","USA","40.34236","-80.00521"
"https://www.zillow.com/homedetails/4205-Highgrove-Rd-Pittsburgh-PA-15236/11429933_zpid/","","","245429","224700","1650","118900","09/06/2023","1330","sqft","184.53","6703.88","sqft","36.61","3","2","","Judy Smith","No","No","","4205 Highgrove Rd","Pittsburgh","15236","PA","USA","40.35476","-80.012276"
"https://www.zillow.com/homedetails/5093-Elmwood-Dr-Pittsburgh-PA-15227/11391155_zpid/","","","250000","250000","1650","127600","09/05/2023","1331","sqft","187.83","10497.96","sqft","23.81","3","3","","Susan Cancelliere","No","No","","5093 Elmwood Dr","Pittsburgh","15227","PA","USA","40.35852","-79.96052"
"https://www.zillow.com/homedetails/2056-Holiday-Park-Dr-Pittsburgh-PA-15239/11282349_zpid/","","","250000","249500","1649","122300","08/29/2023","","","","","","","3","2","","Annamarie Crelli","No","No","","2056 Holiday Park Dr","Pittsburgh","15239","PA","USA","40.476166","-79.70347"
"https://www.zillow.com/homedetails/842-Garlow-Blvd-Pittsburgh-PA-15239/11596960_zpid/","","","249900","249900","1649","92400","08/29/2023","1231","sqft","203.01","8084.74","sqft","30.91","3","2","","Angela Blasko","No","No","","842 Garlow Blvd","Pittsburgh","15239","PA","USA","40.492558","-79.77407"
"https://www.zillow.com/homedetails/3538-Faber-Ter-Pittsburgh-PA-15214/11271266_zpid/","","","250000","249900","1685","93300","08/28/2023","1800","sqft","138.89","7405.2","sqft","33.76","3","2","","Ariel Harat","No","No","","3538 Faber Ter","Pittsburgh","15214","PA","USA","40.48439","-79.99881"
"https://www.zillow.com/homedetails/169-Gordon-St-Pittsburgh-PA-15218/11381912_zpid/","","","248001","247900","1392","149300","08/28/2023","1200","sqft","206.67","6425.1","sqft","38.6","3","1","","Andrew Griffin","No","No","","169 Gordon St","Pittsburgh","15218","PA","USA","40.428375","-79.88144"
"https://www.zillow.com/homedetails/227-Cherrydell-Dr-Pittsburgh-PA-15220/11574084_zpid/","","","250000","250100","1875","128500","08/25/2023","1176","sqft","212.59","8311.25","sqft","30.08","3","2","","Carla Pierson","No","No","","227 Cherrydell Dr","Pittsburgh","15220","PA","USA","40.39874","-80.060455"
"https://www.zillow.com/homedetails/208-Martin-Ave-Pittsburgh-PA-15216/11655606_zpid/","","","246000","246100","1731","100000","08/25/2023","","","","3680.82","sqft","66.83","3","2","","Ashley Johnston","No","No","","208 Martin Ave","Pittsburgh","15216","PA","USA","40.389885","-80.044174"
"https://www.zillow.com/homedetails/217-Fairmont-St-Mc-Donald-PA-15057/11654694_zpid/","","","250000","250100","1795","80000","08/18/2023","1534","sqft","162.97","0.78","acres","321791.74","3","2","","Bonnie Hyslop","No","No","","217 Fairmont St","Mc Donald","15057","PA","USA","40.37545","-80.23223"
"https://www.zillow.com/homedetails/4438-Mulberry-Ct-Pittsburgh-PA-15227/11392584_zpid/","","","250000","250200","1357","119900","08/15/2023","1143","sqft","218.72","8999.5","sqft","27.78","2","2","","Christine Yarosz","No","No","","4438 Mulberry Ct","Pittsburgh","15227","PA","USA","40.363583","-79.99038"
"https://www.zillow.com/homedetails/118-Philomena-Dr-Coraopolis-PA-15108/11477469_zpid/","","","248000","247500","1650","128100","08/10/2023","1080","sqft","229.63","0.44","acres","564149.23","2","2","","Stefani Jazudek","No","No","","118 Philomena Dr","Coraopolis","15108","PA","USA","40.497543","-80.1718"
"https://www.zillow.com/homedetails/1651-Bellaire-Pl-Pittsburgh-PA-15226/11649325_zpid/","","","250000","249600","1599","75700","08/10/2023","1125","sqft","222.22","6699.53","sqft","37.32","3","2","","John Geisler","No","No","","1651 Bellaire Pl","Pittsburgh","15226","PA","USA","40.392773","-80.00092"
"https://www.zillow.com/homedetails/1145-Queensbury-St-Pittsburgh-PA-15205/11362614_zpid/","","","246000","246000","1757","85800","08/09/2023","1468","sqft","167.57","6965.24","sqft","35.32","3","2","","DJ Fairley","No","No","","1145 Queensbury St","Pittsburgh","15205","PA","USA","40.435894","-80.04637"
"https://www.zillow.com/homedetails/102-9th-St-Aspinwall-PA-15229/11441691_zpid/","","","250000","249900","1884","162200","08/08/2023","1372","sqft","182.22","8742","sqft","28.6","3","1.5","","","No","No","","102 9th St","Aspinwall","15229","PA","USA","40.525475","-80.0214"
"https://www.zillow.com/homedetails/8281-E-Van-Buren-Dr-Pittsburgh-PA-15237/11557612_zpid/","","","246500","246500","2100","159400","08/08/2023","1764","sqft","139.74","0.39","acres","637939.96","3","2","","Libby Krepps","No","No","","8281 E Van Buren Dr","Pittsburgh","15237","PA","USA","40.557125","-80.05064"
"https://www.zillow.com/homedetails/265-Burch-Dr-Coraopolis-PA-15108/11476987_zpid/","","","249900","249600","1170","188100","08/04/2023","","","","0.28","acres","907078.04","2","2","","Anthony Leone","No","No","","265 Burch Dr","Coraopolis","15108","PA","USA","40.48078","-80.166855"
"https://www.zillow.com/homedetails/427-Torwood-Ln-Pittsburgh-PA-15236/11507816_zpid/","","","246000","245600","1681","107100","08/04/2023","1010","sqft","243.56","9361.04","sqft","26.28","3","2","","Kelli Verosky","No","No","","427 Torwood Ln","Pittsburgh","15236","PA","USA","40.32758","-79.96793"
"https://www.zillow.com/homedetails/4039-Haldane-St-Pittsburgh-PA-15207/11540125_zpid/","","","250000","250000","1770","76000","08/04/2023","1275","sqft","196.08","2500.34","sqft","99.99","3","2","","Hope Harmotto","No","No","","4039 Haldane St","Pittsburgh","15207","PA","USA","40.42421","-79.94277"
"https://www.zillow.com/homedetails/30-Wentworth-Ave-Pittsburgh-PA-15229/11408101_zpid/","","","249000","248800","1700","80000","08/01/2023","1460","sqft","170.55","3484","sqft","71.47","3","1.5","","","No","No","","30 Wentworth Ave","Pittsburgh","15229","PA","USA","40.520824","-80.03035"
"https://www.zillow.com/homedetails/127-Old-Suffolk-Dr-Monroeville-PA-15146/11654285_zpid/","","","250000","249700","2245","163300","07/31/2023","","","","0.44","acres","572475.38","4","3","","Reed Pirain","No","No","","127 Old Suffolk Dr","Monroeville","15146","PA","USA","40.411423","-79.74904"
"https://www.zillow.com/homedetails/338-Twin-Oaks-Rd-Pittsburgh-PA-15243/11361552_zpid/","","","250000","249700","1662","123700","07/28/2023","","","","6046.13","sqft","41.35","3","2","","Pamela Simmons","No","No","","338 Twin Oaks Rd","Pittsburgh","15243","PA","USA","40.368004","-80.09157"
"https://www.zillow.com/homedetails/1025-Old-Gate-Rd-Pittsburgh-PA-15235/11417960_zpid/","","","250000","249700","1557","117600","07/28/2023","1936","sqft","129.13","7649.14","sqft","32.68","3","3","","Emily Askin","No","No","","1025 Old Gate Rd","Pittsburgh","15235","PA","USA","40.446728","-79.85597"
"https://www.zillow.com/homedetails/248-National-Dr-Pittsburgh-PA-15236/11506977_zpid/","","","250000","249700","1650","99700","07/28/2023","1161","sqft","215.33","6677.75","sqft","37.44","3","2","","Kitty Yimin","No","No","","248 National Dr","Pittsburgh","15236","PA","USA","40.33191","-79.9546"
"https://www.zillow.com/homedetails/202-White-Oak-Dr-White-Oak-PA-15131/11541469_zpid/","","","250000","249700","1500","100700","07/28/2023","1378","sqft","181.42","7405.2","sqft","33.76","3","2","","Devie Rollison","No","No","","202 White Oak Dr","White Oak","15131","PA","USA","40.336864","-79.81336"
"https://www.zillow.com/homedetails/211-Walliston-Ave-Pittsburgh-PA-15202/11404728_zpid/","","","249000","248700","1498","105500","07/27/2023","1250","sqft","199.2","4499.75","sqft","55.34","3","3","","Daniel Demers","No","No","","211 Walliston Ave","Pittsburgh","15202","PA","USA","40.513496","-80.10318"
"https://www.zillow.com/homedetails/2936-Clearview-Rd-Allison-Park-PA-15101/11593100_zpid/","","","250000","","1599","128200","07/27/2023","1078","sqft","231.91","1.35","acres","185735.51","3","1","","Jay Arnone","No","No","","2936 Clearview Rd","Allison Park","15101","PA","USA","40.5636","-79.94104"
"https://www.zillow.com/homedetails/1446-Romano-Dr-Bridgeville-PA-15017/11399290_zpid/","","","250000","288900","1895","127700","07/24/2023","1400","sqft","178.57","0.38","acres","657926.53","3","1.5","","","No","No","","1446 Romano Dr","Bridgeville","15017","PA","USA","40.356213","-80.09805"
"https://www.zillow.com/homedetails/438-Raspberry-Dr-Monroeville-PA-15146/11627042_zpid/","","","250000","249700","1650","125400","07/24/2023","1440","sqft","173.61","0.26","acres","961908.43","3","2","","Jason Dalbey","No","No","","438 Raspberry Dr","Monroeville","15146","PA","USA","40.45193","-79.759735"
"https://www.zillow.com/homedetails/120-Laurie-Dr-Pittsburgh-PA-15235/11534348_zpid/","","","250000","250500","1934","102400","07/21/2023","1664","sqft","150.24","6098.4","sqft","40.99","4","3","","Maria Lapiana","No","No","","120 Laurie Dr","Pittsburgh","15235","PA","USA","40.44944","-79.801094"
"https://www.zillow.com/homedetails/132-Donley-Dr-Monroeville-PA-15146/164537231_zpid/","","","250000","249700","1647","126900","07/21/2023","","","","10785.46","sqft","23.18","2","3","","Anthony Russo","No","No","","132 Donley Dr","Monroeville","15146","PA","USA","40.441563","-79.7404"
"https://www.zillow.com/homedetails/4-Charles-Dr-Carnegie-PA-15106/11252171_zpid/","","","250000","249300","2250","66600","07/20/2023","1812","sqft","137.97","0.34","acres","746268.66","4","3","","Angie Flowers","No","No","","4 Charles Dr","Carnegie","15106","PA","USA","40.392387","-80.08187"
"https://www.zillow.com/homedetails/5031-Ozark-Dr-Pittsburgh-PA-15239/11281686_zpid/","","","249900","250400","1746","116500","07/20/2023","","","","","","","3","2","","Dana Simpson","No","No","","5031 Ozark Dr","Pittsburgh","15239","PA","USA","40.486725","-79.70549"
"https://www.zillow.com/homedetails/558-Grove-Rd-Verona-PA-15147/11375313_zpid/","","","249900","250400","1479","65500","07/20/2023","","","","","","","3","2","","Kim Davis","No","No","","558 Grove Rd","Verona","15147","PA","USA","40.47466","-79.86981"
"https://www.zillow.com/homedetails/212-Verna-Dr-Pittsburgh-PA-15209/11372094_zpid/","","","249700","250300","1627","139000","07/14/2023","1050","sqft","237.81","7217.89","sqft","34.59","3","1","","Kristi Stebler","No","No","","212 Verna Dr","Pittsburgh","15209","PA","USA","40.50386","-79.96873"
"https://www.zillow.com/homedetails/1020-Grandview-Ave-Pittsburgh-PA-15237/11483829_zpid/","","","250000","250700","1695","124000","07/13/2023","878","sqft","284.74","6250.86","sqft","39.99","2","2","","Susie Holmes","No","No","","1020 Grandview Ave","Pittsburgh","15237","PA","USA","40.538517","-80.03161"
"https://www.zillow.com/homedetails/1301-Kansas-Ave-White-Oak-PA-15131/11500680_zpid/","","","250000","250700","2334","124000","07/13/2023","2426","sqft","103.05","9147.6","sqft","27.33","5","3","","CHRISTOPHER CARR","No","No","","1301 Kansas Ave","White Oak","15131","PA","USA","40.3527","-79.8193"
"https://www.zillow.com/homedetails/102-Loch-Shin-Dr-Coraopolis-PA-15108/11641265_zpid/","","","249000","249500","1481","117500","07/12/2023","","","","0.25","acres","996000","3","2","","Debra Bachman","No","No","","102 Loch Shin Dr","Coraopolis","15108","PA","USA","40.539474","-80.252174"
"https://www.zillow.com/homedetails/2299-Ridge-Rd-South-Park-PA-15129/11606466_zpid/","","","250000","295000","1864","235000","07/11/2023","","","","2.61","acres","95785.44","4","4","","","No","No","","2299 Ridge Rd","South Park","15129","PA","USA","40.301327","-79.98514"
"https://www.zillow.com/homedetails/695-Southcrest-Dr-Pittsburgh-PA-15226/11440336_zpid/","","","250000","250500","1650","126600","07/10/2023","1700","sqft","147.06","40","acres","6250","4","2","","Mary DeCort-Rhodes","No","No","","695 Southcrest Dr","Pittsburgh","15226","PA","USA","40.406612","-80.01133"
"https://www.zillow.com/homedetails/1809-Woodward-Ave-Pittsburgh-PA-15226/11446338_zpid/","","","246000","238000","1564","73000","07/10/2023","1890","sqft","130.16","3301.85","sqft","74.5","4","2","","Pamela Auld","No","No","","1809 Woodward Ave","Pittsburgh","15226","PA","USA","40.40572","-80.01667"
"https://www.zillow.com/homedetails/56-Robinhood-Rd-Pittsburgh-PA-15220/11573801_zpid/","","","250000","250500","1599","109700","07/10/2023","1165","sqft","214.59","6514","sqft","38.38","3","1","","","No","No","","56 Robinhood Rd","Pittsburgh","15220","PA","USA","40.40258","-80.05333"
"https://www.zillow.com/homedetails/1953-Warriors-Rd-Pittsburgh-PA-15205/11355880_zpid/","","","250000","250600","1773","119500","07/07/2023","1418","sqft","176.3","4791.6","sqft","52.17","3","2","","Kristin Devine","No","No","","1953 Warriors Rd","Pittsburgh","15205","PA","USA","40.42903","-80.04701"
"https://www.zillow.com/homedetails/22-Mineola-Ave-Pittsburgh-PA-15229/11441012_zpid/","","","245900","246700","1724","106500","07/07/2023","1829","sqft","134.45","4708.84","sqft","52.22","3","3","","Mackensie Kelly","No","No","","22 Mineola Ave","Pittsburgh","15229","PA","USA","40.521603","-80.038155"
"https://www.zillow.com/homedetails/109-5th-St-Pittsburgh-PA-15229/11484483_zpid/","","","247097","247900","1875","118700","07/07/2023","1224","sqft","201.88","7387.78","sqft","33.45","3","2","","Rachel Wisniewski","No","No","","109 5th St","Pittsburgh","15229","PA","USA","40.530983","-80.02126"
"https://www.zillow.com/homedetails/110-Joanne-St-Pittsburgh-PA-15215/11333994_zpid/","","","250000","320400","1681","125400","07/03/2023","1170","sqft","213.68","10196","sqft","24.52","3","2","","","No","No","","110 Joanne St","Pittsburgh","15215","PA","USA","40.49851","-79.91717"
"https://www.zillow.com/homedetails/566-Lucia-Dr-Pittsburgh-PA-15221/11455585_zpid/","","","246000","246600","1500","115800","07/03/2023","1346","sqft","182.76","7959","sqft","30.91","4","2","","","No","No","","566 Lucia Dr","Pittsburgh","15221","PA","USA","40.42538","-79.83611"
"https://www.zillow.com/homedetails/726-Cottonwood-Dr-Monroeville-PA-15146/11569578_zpid/","","","250000","250600","1417","131300","07/03/2023","1625","sqft","153.85","0.25","acres","1000000","3","2","","Lauren Klein","No","No","","726 Cottonwood Dr","Monroeville","15146","PA","USA","40.446003","-79.792656"
"https://www.zillow.com/homedetails/945-William-Penn-Ct-Pittsburgh-PA-15221/11418084_zpid/","","","250000","250700","1476","120900","06/30/2023","","","","0.53","acres","467639.36","4","2","","Deborah Kane","No","No","","945 William Penn Ct","Pittsburgh","15221","PA","USA","40.443752","-79.86231"
"https://www.zillow.com/homedetails/638-Margaret-St-Pittsburgh-PA-15210/11437326_zpid/","","","249000","243900","1550","85800","06/30/2023","1486","sqft","167.56","9801","sqft","25.41","4","2","","Robert Sonnenberg","No","No","","638 Margaret St","Pittsburgh","15210","PA","USA","40.408455","-79.9846"
"https://www.zillow.com/homedetails/566-Lucia-Rd-Pittsburgh-PA-15221/2059926380_zpid/","","","246000","","1294","","06/30/2023","2272","sqft","108.27","7958.41","sqft","30.91","4","5","","Uche Evangeline Onwugbenu","No","No","","566 Lucia Rd","Pittsburgh","15221","PA","USA","40.42538","-79.83611"
"https://www.zillow.com/homedetails/434-Long-Dr-Pittsburgh-PA-15241/11432647_zpid/","","","250000","250700","1700","108600","06/29/2023","1160","sqft","215.52","0.25","acres","999600.16","3","1","","Stacy Romanias","No","No","","434 Long Dr","Pittsburgh","15241","PA","USA","40.35227","-80.06056"
"https://www.zillow.com/homedetails/910-Rutgers-Dr-Allison-Park-PA-15101/11526697_zpid/","","","250000","250700","2134","139800","06/29/2023","1274","sqft","196.23","9639.83","sqft","25.93","4","3","","Brittany Brophy","No","No","","910 Rutgers Dr","Allison Park","15101","PA","USA","40.54336","-79.95628"
"https://www.zillow.com/homedetails/169-Baldwin-Rd-Carnegie-PA-15106/11656961_zpid/","","","249900","251500","1220","89700","06/29/2023","957","sqft","261.13","3","acres","83300","2","1","","","No","No","","169 Baldwin Rd","Carnegie","15106","PA","USA","40.420086","-80.13618"
"https://www.zillow.com/homedetails/151-Arla-Dr-Pittsburgh-PA-15220/11460363_zpid/","","","250000","250800","1235","119600","06/28/2023","","","","6534","sqft","38.26","2","1","","Kathleen Mathison","No","No","","151 Arla Dr","Pittsburgh","15220","PA","USA","40.40707","-80.05983"
"https://www.zillow.com/homedetails/517-4th-St-Oakmont-PA-15139/11447650_zpid/","","","250000","250800","1495","109400","06/27/2023","1488","sqft","168.01","2583.11","sqft","96.78","3","2","","Timothy Favo","No","No","","517 4th St","Oakmont","15139","PA","USA","40.51799","-79.840904"
"https://www.zillow.com/homedetails/2504-Atlas-St-Pittsburgh-PA-15235/11569215_zpid/","","","249900","244200","2670","168100","06/26/2023","2688","sqft","92.97","0.34","acres","725609.76","4","3","","Kelly Chess","No","No","","2504 Atlas St","Pittsburgh","15235","PA","USA","40.469593","-79.7867"
"https://www.zillow.com/homedetails/3902-Evergreen-Dr-Monroeville-PA-15146/11600570_zpid/","","","250000","250900","1699","109500","06/26/2023","1660","sqft","150.6","7549","sqft","33.12","3","2","","","No","No","","3902 Evergreen Dr","Monroeville","15146","PA","USA","40.446613","-79.77053"
"https://www.zillow.com/homedetails/2363-Rochester-Rd-Sewickley-PA-15143/11642852_zpid/","","","250000","251000","2100","168500","06/23/2023","1422","sqft","175.81","0.5","acres","500000","4","2.5","","","No","No","","2363 Rochester Rd","Sewickley","15143","PA","USA","40.583263","-80.08814"
"https://www.zillow.com/homedetails/416-Middle-St-Pittsburgh-PA-15227/11554162_zpid/","","","250000","251000","1434","52500","06/22/2023","1865","sqft","134.05","","","","3","2","","Kristy Kaslewicz","No","No","","416 Middle St","Pittsburgh","15227","PA","USA","40.397297","-79.97566"
"https://www.zillow.com/homedetails/2839-2841-Glendale-Ave-Pittsburgh-PA-15227/2059238839_zpid/","","","250000","","1400","","06/20/2023","1000","sqft","250","2500.34","sqft","99.99","4","2","","Long Pham","No","No","","2839-2841 Glendale Ave","Pittsburgh","15227","PA","USA","",""
"https://www.zillow.com/homedetails/1017-Holly-Lynne-Dr-Pittsburgh-PA-15236/11507939_zpid/","","","245250","246600","1700","133900","06/15/2023","1374","sqft","178.49","0.25","acres","977870.81","3","3","","Sara Augustine","No","No","","1017 Holly Lynne Dr","Pittsburgh","15236","PA","USA","40.33384","-79.99432"
"https://www.zillow.com/homedetails/Wd-1-Pr-Lower-Burrell-PA-15068/10634962_zpid/","","","249500","252400","1200","20210","06/13/2023","","","","9444","sqft","26.42","","","","","No","No","","Wd 1 Pr","Lower burrell","15068","PA","USA","40.528202","-79.756584"
"https://www.zillow.com/homedetails/517-Allenby-Ave-Pittsburgh-PA-15218/11343723_zpid/","","","249900","251300","2020","118000","06/13/2023","1682","sqft","148.57","3959.6","sqft","63.11","3","2","","Jim Belchick","No","No","","517 Allenby Ave","Pittsburgh","15218","PA","USA","40.431614","-79.890465"
"https://www.zillow.com/homedetails/702-Dewberry-Dr-Monroeville-PA-15146/11600137_zpid/","","","249900","244700","1700","130200","06/12/2023","","","","9401","sqft","26.58","3","2","","Ronald Schneider","No","No","","702 Dewberry Dr","Monroeville","15146","PA","USA","40.450195","-79.78009"
"https://www.zillow.com/homedetails/212-Chestershire-Dr-Oakdale-PA-15071/59848634_zpid/","","","249000","250500","1880","138000","06/12/2023","1950","sqft","127.69","0.29","acres","851636.31","3","1.5","","","No","No","","212 Chestershire Dr","Oakdale","15071","PA","USA","40.438313","-80.204315"
"https://www.zillow.com/homedetails/212-Chestershire-Dr-N-Oakdale-PA-15071/2057767807_zpid/","","","249000","","1588","","06/12/2023","1950","sqft","127.69","0.29","acres","851573.19","3","2","","Chad Leonberg","No","No","","212 Chestershire Dr N","Oakdale","15071","PA","USA","",""
"https://www.zillow.com/homedetails/103-Loch-Shin-Dr-Coraopolis-PA-15108/11641245_zpid/","","","250000","251600","1847","132900","06/09/2023","1568","sqft","159.44","9517.86","sqft","26.27","4","3","","Trudy Huynk","No","No","","103 Loch Shin Dr","Coraopolis","15108","PA","USA","40.53904","-80.2518"
"https://www.zillow.com/homedetails/169-169C-Baldwin-Rd-Carnegie-PA-15106/2057902081_zpid/","","","249900","","1984","","06/09/2023","","","","3","acres","83300","3","1","","Kimberly Lanphear","No","No","","169-169C Baldwin Rd","Carnegie","15106","PA","USA","",""
"https://www.zillow.com/homedetails/954-Ellen-Dr-Pittsburgh-PA-15227/11428664_zpid/","","","249900","251600","1650","140700","06/06/2023","","","","6534","sqft","38.25","3","2","","Radhakrishnan Pokhrel","No","No","","954 Ellen Dr","Pittsburgh","15227","PA","USA","40.3515","-79.96843"
"https://www.zillow.com/homedetails/50-Admiral-Dewey-Ave-Pittsburgh-PA-15205/11588471_zpid/","","","250000","251700","1400","15300","06/06/2023","1744","sqft","143.35","3950","sqft","63.29","3","1","","","No","No","","50 Admiral Dewey Ave","Pittsburgh","15205","PA","USA","40.444176","-80.069084"
"https://www.zillow.com/homedetails/121-Laurelwood-Dr-Pittsburgh-PA-15237/11559546_zpid/","","","250000","398700","2100","246800","06/05/2023","2650","sqft","94.34","0.39","acres","641040.73","4","2","","","No","No","","121 Laurelwood Dr","Pittsburgh","15237","PA","USA","40.551437","-80.00449"
"https://www.zillow.com/homedetails/313-Crescent-Garden-Dr-Pittsburgh-PA-15235/11532073_zpid/","","","250000","251900","1934","106500","06/02/2023","1620","sqft","154.32","8712","sqft","28.7","4","3","","Jane Doyle","No","No","","313 Crescent Garden Dr","Pittsburgh","15235","PA","USA","40.47309","-79.80628"
"https://www.zillow.com/homedetails/608-Hazelwood-Ave-Pittsburgh-PA-15207/11545552_zpid/","","","249900","251800","1650","100000","06/02/2023","1342","sqft","186.21","2831.4","sqft","88.26","3","2","","Paul Henry","No","No","","608 Hazelwood Ave","Pittsburgh","15207","PA","USA","40.418133","-79.93617"
"https://www.zillow.com/homedetails/1447-Woodbourne-Ave-Pittsburgh-PA-15226/11650279_zpid/","","","250000","252000","1414","79500","06/01/2023","","","","3598.06","sqft","69.48","3","1","","Julie Welter","No","No","","1447 Woodbourne Ave","Pittsburgh","15226","PA","USA","40.386276","-80.01264"
"https://www.zillow.com/homedetails/8316-E-Van-Buren-Dr-Pittsburgh-PA-15237/11557464_zpid/","","","250000","252100","1999","163600","05/31/2023","1554","sqft","160.88","0.61","acres","409029.45","3","2","","","No","No","","8316 E Van Buren Dr","Pittsburgh","15237","PA","USA","40.558548","-80.04967"
"https://www.zillow.com/homedetails/1051-Sarah-St-Bridgeville-PA-15017/11434650_zpid/","","","247900","250000","1825","147700","05/30/2023","1642","sqft","150.97","5501.63","sqft","45.06","3","2","","Lauren Coulter","No","No","","1051 Sarah St","Bridgeville","15017","PA","USA","40.35217","-80.10385"
"https://www.zillow.com/homedetails/427-Seminole-Ave-Pittsburgh-PA-15237/11617834_zpid/","","","250000","244600","1994","156500","05/30/2023","1776","sqft","140.77","0.31","acres","810372.77","5","3","","Heather DiGregory","No","No","","427 Seminole Ave","Pittsburgh","15237","PA","USA","40.570343","-80.04687"
"https://www.zillow.com/homedetails/Circle-Markvue-M-Pl-Irwin-PA-15642/294919030_zpid/","","","250000","253200","1376","22000","05/26/2023","","","","7943","sqft","31.47","","","","","No","No","","Circle Markvue M Pl","Irwin","15642","PA","USA","40.3496","-79.78295"
"https://www.zillow.com/homedetails/396-Holiday-Park-Dr-Pittsburgh-PA-15239/11261767_zpid/","","","247500","250100","2132","143600","05/23/2023","","","","0.3","acres","825000","5","4","","Mike Poulliott","No","No","","396 Holiday Park Dr","Pittsburgh","15239","PA","USA","40.472744","-79.718376"
"https://www.zillow.com/homedetails/2204-Sarah-St-S-Pittsburgh-PA-15203/2058728514_zpid/","","","250000","","1392","","05/22/2023","2458","sqft","101.71","","","","2","2","","Kelley Homitsky","No","No","","2204 Sarah St S","Pittsburgh","15203","PA","USA","",""
"https://www.zillow.com/homedetails/285-Patterson-Ave-Bridgeville-PA-15017/11399472_zpid/","","","250000","231700","1795","60100","05/19/2023","1386","sqft","180.38","0.28","acres","909090.91","3","2","","Taylor McVay","No","No","","285 Patterson Ave","Bridgeville","15017","PA","USA","40.361763","-80.11382"
"https://www.zillow.com/homedetails/2468-Driftwood-Dr-Bethel-Park-PA-15102/11470936_zpid/","","","250000","252900","1908","170300","05/19/2023","1584","sqft","157.83","0.29","acres","871687.59","3","2","","Maria Lane","No","No","","2468 Driftwood Dr","Bethel Park","15102","PA","USA","40.34339","-80.03192"
"https://www.zillow.com/homedetails/4301-Battle-Ridge-Rd-McDonald-PA-15057/59855247_zpid/","","","248000","251000","1778","145000","05/17/2023","1328","sqft","186.75","1.34","acres","185074.63","3","2","","Andrew Dellavecchia","No","No","","4301 Battle Ridge Rd","Mcdonald","15057","PA","USA","40.374557","-80.19372"
"https://www.zillow.com/homedetails/42-Hempstead-Ave-Pittsburgh-PA-15229/11406174_zpid/","","","250000","253100","1729","96600","05/16/2023","1092","sqft","228.94","2439.36","sqft","102.49","3","2","","Maria Werner","No","No","","42 Hempstead Ave","Pittsburgh","15229","PA","USA","40.51953","-80.03323"
"https://www.zillow.com/homedetails/632-Millers-Ln-Pittsburgh-PA-15239/11597512_zpid/","","","248300","251500","1694","99000","05/15/2023","1276","sqft","194.59","8999.5","sqft","27.59","3","2","","Loreen Abriola","No","No","","632 Millers Ln","Pittsburgh","15239","PA","USA","40.48483","-79.77702"
"https://www.zillow.com/homedetails/Marlene-Plan-New-Kensington-PA-15068/294903431_zpid/","","","250000","253400","1194","20900","05/15/2023","","","","0.57","acres","441140.73","","","","","No","No","","Marlene Plan","New Kensington","15068","PA","USA","40.528202","-79.756584"
"https://www.zillow.com/homedetails/741-Lechner-Ln-Pittsburgh-PA-15227/11302776_zpid/","","","250000","253400","1599","115500","05/12/2023","1901","sqft","131.51","8999.5","sqft","27.78","3","2","","Dean Palamides","No","No","","741 Lechner Ln","Pittsburgh","15227","PA","USA","40.383415","-79.95912"
"https://www.zillow.com/homedetails/38-Rushmore-Dr-Pittsburgh-PA-15235/11531843_zpid/","","","249900","253300","1660","116200","05/12/2023","1842","sqft","135.67","10585.08","sqft","23.61","3","3","","Eric Nichols","No","No","","38 Rushmore Dr","Pittsburgh","15235","PA","USA","40.47749","-79.81458"
"https://www.zillow.com/homedetails/182-N-Sprague-Ave-Pittsburgh-PA-15202/11369497_zpid/","","","250000","253500","3471","140900","05/10/2023","3068","sqft","81.49","7501.03","sqft","33.33","5","3","","Joseph Koehler","No","No","","182 N Sprague Ave","Pittsburgh","15202","PA","USA","40.50151","-80.05576"
"https://www.zillow.com/homedetails/305-Lamarido-St-Pittsburgh-PA-15226/11565818_zpid/","","","250000","253600","2166","127200","05/09/2023","1656","sqft","150.97","2400","sqft","104.17","3","3","","Christian Ivory","No","No","","305 Lamarido St","Pittsburgh","15226","PA","USA","40.40055","-80.01777"
"https://www.zillow.com/homedetails/119-Chalfonte-Ave-Pittsburgh-PA-15229/11406189_zpid/","","","250000","253700","1664","110100","05/08/2023","1220","sqft","204.92","3598.06","sqft","69.48","3","1","","Kimberly Elliott","No","No","","119 Chalfonte Ave","Pittsburgh","15229","PA","USA","40.52094","-80.03472"
"https://www.zillow.com/homedetails/Falcon-Manor-Plan-New-Kensington-PA-15068/294916026_zpid/","","","249900","253500","1194","25640","05/01/2023","","","","6214","sqft","40.22","","","","","No","No","","Falcon Manor Plan","New Kensington","15068","PA","USA","40.528202","-79.756584"
"https://www.zillow.com/homedetails/4724-Valleyfield-Dr-Allison-Park-PA-15101/11277430_zpid/","","","249000","253900","1849","136800","04/28/2023","1100","sqft","226.36","10389.06","sqft","23.97","3","2","","Dale Polanosky","No","No","","4724 Valleyfield Dr","Allison Park","15101","PA","USA","40.599663","-79.91241"
"https://www.zillow.com/homedetails/700-McNary-St-Sturgeon-PA-15082/59854838_zpid/","","","250000","239800","1807","116200","04/28/2023","1110","sqft","225.23","0.36","acres","685871.06","3","2","","Jeanne Bendik","No","No","","700 McNary St","Sturgeon","15082","PA","USA","40.37876","-80.21497"
"https://www.zillow.com/homedetails/222-Oakview-Ave-Pittsburgh-PA-15218/11381636_zpid/","","","248000","252600","1326","163900","04/26/2023","1650","sqft","150.3","4499.75","sqft","55.11","3","1","","Tracy Wiley","No","No","","222 Oakview Ave","Pittsburgh","15218","PA","USA","40.429028","-79.87999"
"https://www.zillow.com/homedetails/830-Cook-School-Rd-Bridgeville-PA-15017/11399123_zpid/","","","247000","251800","1929","156400","04/24/2023","1260","sqft","196.03","0.46","acres","533707.87","3","3","","Sal Kainazarov","No","No","","830 Cook School Rd","Bridgeville","15017","PA","USA","40.360817","-80.09958"
"https://www.zillow.com/homedetails/108-Stevens-Dr-Pittsburgh-PA-15237/11370385_zpid/","","","246900","252000","1857","134400","04/21/2023","1838","sqft","134.33","0.35","acres","699235.34","3","2","","Samuel Passalinqua","No","No","","108 Stevens Dr","Pittsburgh","15237","PA","USA","40.5089","-80.00258"
"https://www.zillow.com/homedetails/133-Orchard-Dr-Pleasant-Hills-PA-15236/11467767_zpid/","","","250000","255100","1694","100800","04/21/2023","1163","sqft","214.96","0.25","acres","1000000","3","2","","Dan Haeck","No","No","","133 Orchard Dr","Pleasant Hills","15236","PA","USA","40.341743","-79.95917"
"https://www.zillow.com/homedetails/1019-Homer-Ave-Pittsburgh-PA-15237/11484023_zpid/","","","245200","250300","1708","136700","04/20/2023","1144","sqft","214.34","8202.35","sqft","29.89","3","2","","Joe Paolazzi","No","No","","1019 Homer Ave","Pittsburgh","15237","PA","USA","40.53797","-80.033134"
"https://www.zillow.com/homedetails/1534-Theresa-Ave-South-Park-PA-15129/11607330_zpid/","","","250000","255200","1650","122700","04/20/2023","1296","sqft","192.9","6490.44","sqft","38.52","3","2","","Brianne Hall","No","No","","1534 Theresa Ave","South Park","15129","PA","USA","40.301456","-80.01869"
"https://www.zillow.com/homedetails/12-Jane-St-Coraopolis-PA-15108/11322396_zpid/","","","249900","255200","1185","136100","04/14/2023","1392","sqft","179.53","0.43","acres","585108.87","3","2","","Tammy Shiel","No","No","","12 Jane St","Coraopolis","15108","PA","USA","40.48372","-80.10531"
"https://www.zillow.com/homedetails/1722-Jancey-St-Pittsburgh-PA-15206/11278329_zpid/","","","249000","254400","1350","77800","04/13/2023","1254","sqft","198.56","2299.97","sqft","108.26","2","1","","Sean Kelly","No","No","","1722 Jancey St","Pittsburgh","15206","PA","USA","40.48524","-79.92706"
"https://www.zillow.com/homedetails/461-Jenne-Dr-Pittsburgh-PA-15236/11430719_zpid/","","","250000","255900","1849","138100","04/07/2023","1325","sqft","188.68","","","","3","3","","Jackie Horvath","No","No","","461 Jenne Dr","Pittsburgh","15236","PA","USA","40.346603","-79.999565"
"https://www.zillow.com/homedetails/1819-Wrights-Way-Pittsburgh-PA-15203/11290613_zpid/","","","250000","256000","1934","111000","04/06/2023","2342","sqft","106.75","2014","sqft","124.13","3","2","","","No","No","","1819 Wrights Way","Pittsburgh","15203","PA","USA","40.429283","-79.979614"
"https://www.zillow.com/homedetails/114-Bell-Park-Dr-Pittsburgh-PA-15229/11369866_zpid/","","","250000","256200","1849","140400","04/04/2023","1233","sqft","202.76","9583.2","sqft","26.09","3","2","","Lindsay Grice","No","No","","114 Bell Park Dr","Pittsburgh","15229","PA","USA","40.50805","-80.03514"
"https://www.zillow.com/homedetails/266-Red-Oak-Dr-Pittsburgh-PA-15239/11261394_zpid/","","","250000","","1614","170500","03/31/2023","2343","sqft","106.7","8001.97","sqft","31.24","4","2","","Michael Kusenko","No","No","","266 Red Oak Dr","Pittsburgh","15239","PA","USA","40.483177","-79.73008"
"https://www.zillow.com/homedetails/5811-Horseshoe-Dr-Bethel-Park-PA-15102/11578970_zpid/","","","250000","256500","1629","144400","03/31/2023","","","","0.27","acres","933881.21","3","1","","Elizabeth Bires","No","No","","5811 Horseshoe Dr","Bethel Park","15102","PA","USA","40.309322","-80.02769"
"https://www.zillow.com/homedetails/100-Locust-St-Bellevue-PA-15202/11367553_zpid/","","","250000","256600","1741","99000","03/30/2023","2165","sqft","115.47","9801","sqft","25.51","6","2","","Joseph Koehler","No","No","","100 Locust St","Bellevue","15202","PA","USA","40.50952","-80.09544"
"https://www.zillow.com/homedetails/1628-Belasco-Ave-Pittsburgh-PA-15216/11445349_zpid/","","","250000","256600","1545","70300","03/30/2023","1410","sqft","177.3","0.28","acres","892857.14","3","2","","Amanda Naccarelli","No","No","","1628 Belasco Ave","Pittsburgh","15216","PA","USA","40.409203","-80.027565"
"https://www.zillow.com/homedetails/1960-Straubs-Ln-Pittsburgh-PA-15212/11512125_zpid/","","","250000","256700","1650","33100","03/28/2023","1360","sqft","183.82","2199.78","sqft","113.65","3","2","","Joseph Pegher","No","No","","1960 Straubs Ln","Pittsburgh","15212","PA","USA","40.467884","-79.981224"
"https://www.zillow.com/homedetails/712-North-Ave-Bellevue-PA-15202/11369427_zpid/","","","248000","255200","1849","151700","03/22/2023","1419","sqft","174.77","5823.97","sqft","42.58","3","2","","Sandy Pursglove","No","No","","712 North Ave","Bellevue","15202","PA","USA","40.503056","-80.059906"
"https://www.zillow.com/homedetails/1003-Westchester-Rd-South-Park-PA-15129/11606702_zpid/","","","250000","257200","2500","172700","03/22/2023","1924","sqft","129.94","8000","sqft","31.25","4","2.5","","","No","No","","1003 Westchester Rd","South Park","15129","PA","USA","40.30154","-80.01352"
"https://www.zillow.com/homedetails/6334-Forward-Ave-Pittsburgh-PA-15217/11635530_zpid/","","","247000","","2429","148000","03/22/2023","2190","sqft","112.79","4500","sqft","54.89","5","3","","","No","No","","6334 Forward Ave","Pittsburgh","15217","PA","USA","40.428593","-79.92011"
"https://www.zillow.com/homedetails/1-Wynoka-St-Pittsburgh-PA-15210/11437457_zpid/","","","247000","254200","1756","89000","03/21/2023","2369","sqft","104.26","8298.18","sqft","29.77","4","2","","Linda Backo","No","No","","1 Wynoka St","Pittsburgh","15210","PA","USA","40.405994","-79.99094"
"https://www.zillow.com/homedetails/212-Orchard-Park-Dr-Bethel-Park-PA-15102/11471050_zpid/","","","250000","257300","1645","150900","03/20/2023","1125","sqft","222.22","2805.26","sqft","89.12","3","2","","Matthew Gillespie","No","No","","212 Orchard Park Dr","Bethel Park","15102","PA","USA","40.34405","-80.02398"
"https://www.zillow.com/homedetails/1415-Anderson-Rd-Pittsburgh-PA-15209/11410287_zpid/","","","250000","257700","1999","185200","03/17/2023","1575","sqft","158.73","9491.72","sqft","26.34","3","2","","Matthew Warner","No","No","","1415 Anderson Rd","Pittsburgh","15209","PA","USA","40.515522","-79.98003"
"https://www.zillow.com/homedetails/3986-Hazelwood-Dr-Monroeville-PA-15146/11600945_zpid/","","","247000","254800","1699","89300","03/15/2023","1300","sqft","190","8973.36","sqft","27.53","3","2","","Jaclyn Hobbs","No","No","","3986 Hazelwood Dr","Monroeville","15146","PA","USA","40.433956","-79.775345"
"https://www.zillow.com/homedetails/466-Coolidge-Ave-Pittsburgh-PA-15228/11310997_zpid/","","","245700","253600","1409","131400","03/13/2023","1260","sqft","195","4125.13","sqft","59.56","2","2","","Cory Czemerda","No","No","","466 Coolidge Ave","Pittsburgh","15228","PA","USA","40.383804","-80.04716"
"https://www.zillow.com/homedetails/1452-Prospect-Rd-Pittsburgh-PA-15227/11390676_zpid/","","","250000","258100","1632","128300","03/13/2023","1323","sqft","188.96","7039.3","sqft","35.51","3","3","","Shyam Nepal","No","No","","1452 Prospect Rd","Pittsburgh","15227","PA","USA","40.363007","-79.96575"
"https://www.zillow.com/homedetails/127-Buehner-Dr-Pittsburgh-PA-15237/11483960_zpid/","","","250000","258100","1882","153300","03/13/2023","","","","0.49","acres","510204.08","3","3","","Brandi Harris","No","No","","127 Buehner Dr","Pittsburgh","15237","PA","USA","40.538612","-80.01972"
"https://www.zillow.com/homedetails/308-Russell-St-Pittsburgh-PA-15209/11328746_zpid/","","","250000","258400","2100","131300","03/10/2023","1650","sqft","151.52","6534","sqft","38.26","3","2","","Nancy Rossi","No","No","","308 Russell St","Pittsburgh","15209","PA","USA","40.50065","-79.98376"
"https://www.zillow.com/homedetails/504-Shumaker-Dr-Monroeville-PA-15146/11626779_zpid/","","","249000","257300","1691","121500","03/10/2023","1569","sqft","158.7","0.38","acres","661003.45","4","2","","Morgan McIlrath","No","No","","504 Shumaker Dr","Monroeville","15146","PA","USA","40.456535","-79.76282"
"https://www.zillow.com/homedetails/1654-Methyl-St-Pittsburgh-PA-15216/11445700_zpid/","","","250000","","1331","50000","03/03/2023","1714","sqft","145.86","2500.34","sqft","99.99","3","2","","Bill Dapper","No","No","","1654 Methyl St","Pittsburgh","15216","PA","USA","40.408943","-80.02584"
"https://www.zillow.com/homedetails/1335-Great-Oak-Dr-Pittsburgh-PA-15220/11460555_zpid/","","","249900","258900","1966","143900","03/03/2023","1690","sqft","147.87","0.28","acres","907737.01","3","3","","Nancy Morgan","No","No","","1335 Great Oak Dr","Pittsburgh","15220","PA","USA","40.405884","-80.05998"
"https://www.zillow.com/homedetails/207-Virginia-Ave-Glenshaw-PA-15116/11486640_zpid/","","","250000","259000","2234","142700","03/03/2023","","","","0.3","acres","833611.2","3","3","","Stephanie Kerchner","No","No","","207 Virginia Ave","Glenshaw","15116","PA","USA","40.530724","-79.96556"
"https://www.zillow.com/homedetails/909-Deely-St-Pittsburgh-PA-15217/11544840_zpid/","","","245212","254100","1800","86200","03/03/2023","1302","sqft","188.33","2252.05","sqft","108.88","3","2","","David Kerr","No","No","","909 Deely St","Pittsburgh","15217","PA","USA","40.423466","-79.93313"
"https://www.zillow.com/homedetails/71-Stonedale-Rd-Sewickley-PA-15143/164458308_zpid/","","","250000","","2242","200000","03/01/2023","","","","5","acres","50000","","","","","No","No","","71 Stonedale Rd","Sewickley","15143","PA","USA","40.55322","-80.13362"
"https://www.zillow.com/homedetails/5435-Dresden-Way-Pittsburgh-PA-15201/11272848_zpid/","","","250000","305300","1579","66700","02/24/2023","1485","sqft","168.35","1999","sqft","125.06","3","1","","","No","No","","5435 Dresden Way","Pittsburgh","15201","PA","USA","40.48329","-79.94995"
"https://www.zillow.com/homedetails/129-Peppertree-Dr-New-Kensington-PA-15068/11596500_zpid/","","","250000","259800","1595","125500","02/23/2023","1471","sqft","169.95","8712","sqft","28.7","3","2","","Michelle Grasinger","No","No","","129 Peppertree Dr","New Kensington","15068","PA","USA","40.524467","-79.771576"
"https://www.zillow.com/homedetails/526-Millers-Ln-Pittsburgh-PA-15239/11597670_zpid/","","","247000","256700","1849","125600","02/23/2023","","","","2.83","acres","87279.15","3","3","","Kris Baker","No","No","","526 Millers Ln","Pittsburgh","15239","PA","USA","40.481853","-79.7719"
"https://www.zillow.com/homedetails/125-Kelvington-Dr-Monroeville-PA-15146/11630226_zpid/","","","250000","259800","1719","147400","02/23/2023","1870","sqft","133.69","7800","sqft","32.05","3","1.5","","","No","No","","125 Kelvington Dr","Monroeville","15146","PA","USA","40.40044","-79.756065"
"https://www.zillow.com/homedetails/5100-5th-Ave-APT-515-Pittsburgh-PA-15232/11528335_zpid/","","","249000","194800","1200","176800","02/21/2023","850","sqft","292.94","1430","sqft","174.13","1","1","","","No","No","Apt 515","5100 5th Ave APT 515","Pittsburgh","15232","PA","USA","40.447353","-79.93918"
"https://www.zillow.com/homedetails/323-Old-Clairton-Rd-Clairton-PA-15025/11578069_zpid/","","","250000","263200","1501","118600","12/16/2022","1066","sqft","234.52","2.45","acres","102040.82","3","2","","Lori Bost","No","No","","323 Old Clairton Rd","Clairton","15025","PA","USA","40.311684","-79.94966"
"https://www.zillow.com/homedetails/66-N-Emily-St-Pittsburgh-PA-15205/11583224_zpid/","","","249900","271700","935","126800","02/17/2023","2700","sqft","92.56","9748.73","sqft","25.63","4","3","","Mark Abbott II","No","No","","66 N Emily St","Pittsburgh","15205","PA","USA","40.433105","-80.070145"
"https://www.zillow.com/homedetails/5475-Glen-Hill-Dr-Bethel-Park-PA-15102/52593652_zpid/","","","250000","260400","1858","185700","02/17/2023","1836","sqft","136.17","0.25","acres","997252.75","3","2","","","No","No","","5475 Glen Hill Dr","Bethel Park","15102","PA","USA","40.305527","-80.04163"
"https://www.zillow.com/homedetails/4943-Highland-Ave-Bethel-Park-PA-15102/11471773_zpid/","","","250000","459000","2809","189400","02/15/2023","3136","sqft","79.72","0.59","acres","422083.4","4","3","","","No","No","","4943 Highland Ave","Bethel Park","15102","PA","USA","40.34201","-80.034035"
"https://www.zillow.com/homedetails/116-Merrie-Woode-Dr-Pittsburgh-PA-15235/11494483_zpid/","","","249000","259200","1669","207800","02/10/2023","","","","1.4","acres","177857.14","3","2","","Danette Westervelt","No","No","","116 Merrie Woode Dr","Pittsburgh","15235","PA","USA","40.434467","-79.82591"
"https://www.zillow.com/homedetails/1309-Fidelity-Dr-Pittsburgh-PA-15236/11428211_zpid/","","","249900","260000","1650","96100","02/07/2023","1312","sqft","190.47","7688.34","sqft","32.5","3","2","","Daniel Demers","No","No","","1309 Fidelity Dr","Pittsburgh","15236","PA","USA","40.34898","-79.9599"
"https://www.zillow.com/homedetails/2701-Wildwood-Rd-Allison-Park-PA-15101/11258951_zpid/","","","250000","261000","1500","177800","02/03/2023","1568","sqft","159.44","7.85","acres","31840.24","2","1","","Nicole Haas","No","No","","2701 Wildwood Rd","Allison Park","15101","PA","USA","40.59421","-79.95234"
"https://www.zillow.com/homedetails/2643-E-Elfinwild-Rd-Allison-Park-PA-15101/11561276_zpid/","","","250000","261200","1999","128700","01/31/2023","","","","0.5","acres","497116.72","4","2","","Kelly Cheponis","No","No","","2643 E Elfinwild Rd","Allison Park","15101","PA","USA","40.55766","-79.936775"
"https://www.zillow.com/homedetails/3189-Bel-Air-Dr-Pittsburgh-PA-15227/11306320_zpid/","","","249900","261200","1681","174100","01/27/2023","","","","9000","sqft","27.77","3","2","","Jackie Horvath","No","No","","3189 Bel Air Dr","Pittsburgh","15227","PA","USA","40.375923","-79.98913"
"https://www.zillow.com/homedetails/Mount-Ples-Fox-Est-Irwin-PA-15642/294916120_zpid/","","","250000","254600","1376","16090","01/24/2023","","","","9100","sqft","27.47","","","","","No","No","","Mount Ples Fox Est","Irwin","15642","PA","USA","40.3496","-79.78295"
"https://www.zillow.com/homedetails/504-Northview-Dr-Glenshaw-PA-15116/11442984_zpid/","","","250000","261700","2070","141800","01/20/2023","1518","sqft","164.69","0.26","acres","978090.77","3","2","","Cameron Logan","No","No","","504 Northview Dr","Glenshaw","15116","PA","USA","40.528587","-79.976036"
"https://www.zillow.com/homedetails/2310-Wells-Dr-Bethel-Park-PA-15102/11431896_zpid/","","","250000","261800","1732","183700","01/19/2023","1416","sqft","176.55","0.25","acres","1000000","2","2","","Amy Salera","No","No","","2310 Wells Dr","Bethel Park","15102","PA","USA","40.35136","-80.0329"
"https://www.zillow.com/homedetails/2024-Sarah-St-Pittsburgh-PA-15203/2081950949_zpid/","","","250000","345000","2894","","01/17/2023","","","","","","","6","3","","","No","No","","2024 Sarah St","Pittsburgh","15203","PA","USA","40.42742","-79.976746"
"https://www.zillow.com/homedetails/221-Lenore-Dr-Mc-Kees-Rocks-PA-15136/11263733_zpid/","","","247600","259600","1893","104200","01/12/2023","1046","sqft","236.71","10454.4","sqft","23.68","2","3","","Jason Menni","No","No","","221 Lenore Dr","Mc Kees Rocks","15136","PA","USA","40.481785","-80.08753"
"https://www.zillow.com/homedetails/4774-Cypress-St-Pittsburgh-PA-15224/11524757_zpid/","","","250000","262100","3128","103000","01/12/2023","2100","sqft","119.05","1999.4","sqft","125.04","3","2","","Billy Burleson","No","No","","4774 Cypress St","Pittsburgh","15224","PA","USA","40.45949","-79.94871"
"https://www.zillow.com/homedetails/130-Maryland-Dr-Carnegie-PA-15106/11582431_zpid/","","","250000","262100","1898","141000","01/12/2023","1783","sqft","140.21","0.31","acres","797702.62","3","4","","Carla Pierson","No","No","","130 Maryland Dr","Carnegie","15106","PA","USA","40.405663","-80.06808"
"https://www.zillow.com/homedetails/3-Stanford-Ave-Pittsburgh-PA-15229/11405862_zpid/","","","249900","262300","1846","65700","01/06/2023","1704","sqft","146.65","5998.21","sqft","41.66","3","2","","Dave Bryant","No","No","","3 Stanford Ave","Pittsburgh","15229","PA","USA","40.51918","-80.044464"
"https://www.zillow.com/homedetails/2203-Middle-Rd-Glenshaw-PA-15116/11527009_zpid/","","","250000","262400","2205","140600","01/06/2023","1370","sqft","182.48","0.46","acres","539956.8","3","3","","Elizabeth Kofmehl","No","No","","2203 Middle Rd","Glenshaw","15116","PA","USA","40.55003","-79.93544"
"https://www.zillow.com/homedetails/35-Magill-Dr-Cheswick-PA-15024/11319256_zpid/","","","249900","262400","1670","118000","01/05/2023","1377","sqft","181.48","0.31","acres","816933.64","3","2","","Tammy Calvert","No","No","","35 Magill Dr","Cheswick","15024","PA","USA","40.619495","-79.85871"
"https://www.zillow.com/homedetails/2852-W-Munroe-St-Bethel-Park-PA-15102/11548096_zpid/","","","250000","279500","1780","1000","01/05/2023","1215","sqft","205.76","0.51","acres","490196.08","3","2","","Morgan Bardzil","No","No","","2852 W Munroe St","Bethel Park","15102","PA","USA","40.320698","-80.03779"
"https://www.zillow.com/homedetails/35-396-W-Starz-Rd-Gibsonia-PA-15044/2060778868_zpid/","","","249900","","1366","","01/05/2023","","","","","","","","","","","No","No","","35-396 W Starz Rd","Gibsonia","15044","PA","USA","",""
"https://www.zillow.com/homedetails/21-Beltzhoover-Ave-Pittsburgh-PA-15210/11474909_zpid/","","","250000","262600","1849","38300","01/03/2023","2142","sqft","116.71","2178","sqft","114.78","4","2","","Lori Maffeo","No","No","","21 Beltzhoover Ave","Pittsburgh","15210","PA","USA","40.425137","-79.99723"
"https://www.zillow.com/homedetails/819-N-Beatty-St-Pittsburgh-PA-15206/11622459_zpid/","","","246000","285900","1550","57900","01/03/2023","1232","sqft","199.68","3327.98","sqft","73.92","3","1","","Bonnie Loya","No","No","","819 N Beatty St","Pittsburgh","15206","PA","USA","40.4705","-79.92143"
"https://www.zillow.com/homedetails/7819-Union-Ave-Pittsburgh-PA-15218/11344828_zpid/","","","250000","262700","1558","95300","12/30/2022","","","","4138.2","sqft","60.41","4","2","","Maureen States","No","No","","7819 Union Ave","Pittsburgh","15218","PA","USA","40.424908","-79.88412"
"https://www.zillow.com/homedetails/245-Oaklyn-Rd-Bethel-Park-PA-15102/11510180_zpid/","","","250000","263000","1934","134100","12/22/2022","1520","sqft","164.47","8224.13","sqft","30.4","3","2","","Carla Pierson","No","No","","245 Oaklyn Rd","Bethel Park","15102","PA","USA","40.326538","-80.05201"
"https://www.zillow.com/homedetails/6520-Quaker-Dr-Pittsburgh-PA-15236/11546827_zpid/","","","246195","259000","2937","125000","12/22/2022","4000","sqft","61.55","9000","sqft","27.36","4","2.5","","","No","No","","6520 Quaker Dr","Pittsburgh","15236","PA","USA","40.32201","-79.98982"
"https://www.zillow.com/homedetails/121-Woods-Pl-Sewickley-PA-15143/2060749113_zpid/","","","249000","","1550","","12/22/2022","","","","","","","","","","","No","No","","121 Woods Pl","Sewickley","15143","PA","USA","",""
"https://www.zillow.com/homedetails/109-Hilglor-Dr-Pittsburgh-PA-15209/11372114_zpid/","","","249000","262000","1944","154700","12/20/2022","1080","sqft","230.56","9452.52","sqft","26.34","3","2","","Debra Donahue","No","No","","109 Hilglor Dr","Pittsburgh","15209","PA","USA","40.502724","-79.98009"
"https://www.zillow.com/homedetails/171-Parkedge-Rd-Pittsburgh-PA-15220/11469024_zpid/","","","249000","262000","1898","141500","12/19/2022","1456","sqft","171.02","0.65","acres","380326.87","3","2","","Michael Wheeler","No","No","","171 Parkedge Rd","Pittsburgh","15220","PA","USA","40.41434","-80.05795"
"https://www.zillow.com/homedetails/400-Susanna-Ct-Pittsburgh-PA-15207/11545432_zpid/","","","246000","258900","1650","148200","12/19/2022","1987","sqft","123.8","5919.8","sqft","41.56","4","2","","Leesa Belt-Haglund","No","No","","400 Susanna Ct","Pittsburgh","15207","PA","USA","40.41792","-79.94081"
"https://www.zillow.com/homedetails/2603-College-Park-Rd-Allison-Park-PA-15101/11486384_zpid/","","","250000","263400","2240","138300","12/09/2022","","","","0.28","acres","908760.45","3","3","","Mary Kay Abdulovic","No","No","","2603 College Park Rd","Allison Park","15101","PA","USA","40.539036","-79.95723"
"https://www.zillow.com/homedetails/226-Hillendale-Rd-Pittsburgh-PA-15237/11482109_zpid/","","","248000","261300","1849","130300","12/07/2022","1309","sqft","189.46","0.45","acres","552954.29","3","3","","Hope Feldman","No","No","","226 Hillendale Rd","Pittsburgh","15237","PA","USA","40.534077","-80.045235"
"https://www.zillow.com/homedetails/820-McCandless-Ave-Pittsburgh-PA-15201/11612934_zpid/","","","250000","263500","1723","43600","12/06/2022","1520","sqft","164.47","1306.8","sqft","191.31","2","2","","Doreen Walters","No","No","","820 McCandless Ave","Pittsburgh","15201","PA","USA","40.478867","-79.94996"
"https://www.zillow.com/homedetails/2637-Webster-Ave-Pittsburgh-PA-15219/11260359_zpid/","","","248500","283000","2425","77000","12/05/2022","","","","5571.32","sqft","44.6","3","3","","Gloria Besley","No","No","","2637 Webster Ave","Pittsburgh","15219","PA","USA","40.450882","-79.97007"
"https://www.zillow.com/homedetails/1631-Moynelle-Dr-Pittsburgh-PA-15243/11361098_zpid/","","","250000","263500","1888","114500","12/05/2022","1256","sqft","199.04","","","","3","2","","Magen Bedillion","No","No","","1631 Moynelle Dr","Pittsburgh","15243","PA","USA","40.36605","-80.07705"
"https://www.zillow.com/homedetails/240-Crescent-Pines-Dr-Verona-PA-15147/11491117_zpid/","","","250000","263600","1558","79800","12/02/2022","1539","sqft","162.44","0.42","acres","595238.1","4","3","","CHRISTOPHER CARR","No","No","","240 Crescent Pines Dr","Verona","15147","PA","USA","40.483227","-79.83256"
"https://www.zillow.com/homedetails/104-National-Dr-Pittsburgh-PA-15236/11506915_zpid/","","","249900","263500","2134","128200","12/02/2022","1901","sqft","131.46","8542.12","sqft","29.26","4","4","","Sandra Rodeheaver","No","No","","104 National Dr","Pittsburgh","15236","PA","USA","40.331287","-79.958824"
"https://www.zillow.com/homedetails/209-Owendale-Ave-Pittsburgh-PA-15227/11304307_zpid/","","","246000","259400","1599","101300","12/01/2022","1732","sqft","142.03","0.39","acres","634674.92","3","2","","Carla Pierson","No","No","","209 Owendale Ave","Pittsburgh","15227","PA","USA","40.380104","-79.982346"
"https://www.zillow.com/homedetails/45-Eichelberger-Dr-Coraopolis-PA-15108/11365828_zpid/","","","250000","263600","1749","155200","12/01/2022","1350","sqft","185.19","10075.43","sqft","24.81","3","2","","Jane Sheerer","No","No","","45 Eichelberger Dr","Coraopolis","15108","PA","USA","40.47853","-80.12643"
"https://www.zillow.com/homedetails/104-Cara-Lin-Dr-Pittsburgh-PA-15221/11418870_zpid/","","","250000","263700","2995","316800","11/29/2022","","","","0.27","acres","925925.93","4","4","","Michael Kelly","No","No","","104 Cara Lin Dr","Pittsburgh","15221","PA","USA","40.435005","-79.85075"
"https://www.zillow.com/homedetails/3227-Orleans-St-Pittsburgh-PA-15214/11609727_zpid/","","","246000","259500","1749","140200","11/28/2022","1800","sqft","136.67","3920","sqft","62.76","3","2","","","No","No","","3227 Orleans St","Pittsburgh","15214","PA","USA","40.4794","-80.010445"
"https://www.zillow.com/homedetails/1608-3rd-St-Natrona-Heights-PA-15065/11320086_zpid/","","","248000","261700","1198","146100","11/21/2022","","","","9147.6","sqft","27.11","3","2","","Joseph Albaugh","No","No","","1608 3rd St","Natrona Heights","15065","PA","USA","40.624786","-79.73204"
"https://www.zillow.com/homedetails/327-Wilcox-St-Carnegie-PA-15106/11255265_zpid/","","","246000","259600","2100","94500","11/18/2022","1712","sqft","143.69","8751.2","sqft","28.11","3","2","","Cindy Rebeck","No","No","","327 Wilcox St","Carnegie","15106","PA","USA","40.412354","-80.08864"
"https://www.zillow.com/homedetails/537-Middle-St-Pittsburgh-PA-15227/11554025_zpid/","","","249900","263700","1999","112600","11/18/2022","1365","sqft","183.08","0.48","acres","517927.46","3","3","","Joy Lamars","No","No","","537 Middle St","Pittsburgh","15227","PA","USA","40.400448","-79.97577"
"https://www.zillow.com/homedetails/137-Lily-Dr-Glenshaw-PA-15116/11560728_zpid/","","","250000","263800","2169","204800","11/18/2022","","","","10454.4","sqft","23.91","3","3","","Rachael Schafer","No","No","","137 Lily Dr","Glenshaw","15116","PA","USA","40.550026","-79.97754"
"https://www.zillow.com/homedetails/2548-Hunting-Ridge-Trl-Bridgeville-PA-15017/59856622_zpid/","","","250000","263800","1898","139800","11/18/2022","1428","sqft","175.07","8742.49","sqft","28.6","4","2","","Zackary Rusch","No","No","","2548 Hunting Ridge Trl","Bridgeville","15017","PA","USA","40.32688","-80.12135"
"https://www.zillow.com/homedetails/4618-Clubvue-Dr-Pittsburgh-PA-15236/11429256_zpid/","","","250000","263800","1426","147800","11/17/2022","1500","sqft","166.67","10798.52","sqft","23.15","2","2","","Eli LaBelle","No","No","","4618 Clubvue Dr","Pittsburgh","15236","PA","USA","40.355526","-79.98289"
"https://www.zillow.com/homedetails/1215-Oklahoma-Ave-Pittsburgh-PA-15216/11655906_zpid/","","","246200","259800","1849","138600","11/17/2022","","","","4234.03","sqft","58.15","3","3","","Sandra Rodeheaver","No","No","","1215 Oklahoma Ave","Pittsburgh","15216","PA","USA","40.390316","-80.03687"
"https://www.zillow.com/homedetails/8350-Remington-Dr-Pittsburgh-PA-15237/11590833_zpid/","","","250000","263900","1994","157700","11/15/2022","1485","sqft","168.35","0.33","acres","757575.76","3","1","","Michelle Petty","No","No","","8350 Remington Dr","Pittsburgh","15237","PA","USA","40.56169","-80.01308"
"https://www.zillow.com/homedetails/106-Joseph-St-Pittsburgh-PA-15227/59835639_zpid/","","","248000","261800","1478","68800","11/15/2022","2450","sqft","101.22","8611.81","sqft","28.8","6","2","","Kimberly Smozski","No","No","","106 Joseph St","Pittsburgh","15227","PA","USA","40.39013","-79.96583"
"https://www.zillow.com/homedetails/320-Old-Abers-Creek-Rd-Pittsburgh-PA-15239/11282999_zpid/","","","247000","260800","1500","100000","11/11/2022","1166","sqft","211.84","1.84","acres","134239.13","3","1","","Pat Grasinger","No","No","","320 Old Abers Creek Rd","Pittsburgh","15239","PA","USA","40.4703","-79.70798"
"https://www.zillow.com/homedetails/1903-Shaler-Dr-Glenshaw-PA-15116/11443066_zpid/","","","249900","263900","1969","137300","11/10/2022","966","sqft","258.7","8328.67","sqft","30","2","2","","Alisha Schweiger","No","No","","1903 Shaler Dr","Glenshaw","15116","PA","USA","40.529236","-79.96742"
"https://www.zillow.com/homedetails/111-Crestview-Dr-Coraopolis-PA-15108/11517476_zpid/","","","250000","318300","1849","144500","11/10/2022","1629","sqft","153.47","1.9","acres","131578.95","3","2","","Laurie Kelly","No","No","","111 Crestview Dr","Coraopolis","15108","PA","USA","40.519028","-80.19775"
"https://www.zillow.com/homedetails/220-Boyce-Park-Dr-Pittsburgh-PA-15239/11651186_zpid/","","","250000","264000","1914","124500","11/08/2022","","","","9583.2","sqft","26.09","3","3","","Sam Pace","No","No","","220 Boyce Park Dr","Pittsburgh","15239","PA","USA","40.478844","-79.74631"
"https://www.zillow.com/homedetails/1218-Edgewood-Pittsburgh-PA-15226/2062152726_zpid/","","","250000","","1414","","11/08/2022","","","","","","","","","","","No","No","","1218 Edgewood","Pittsburgh","15226","PA","USA","",""
"https://www.zillow.com/homedetails/209-Margery-Dr-Pittsburgh-PA-15238/11375043_zpid/","","","250000","268000","1198","120400","11/04/2022","1050","sqft","238.1","7868","sqft","31.77","2","1","","","No","No","","209 Margery Dr","Pittsburgh","15238","PA","USA","40.489994","-79.88178"
"https://www.zillow.com/homedetails/1751-Gill-Hall-Rd-Finleyville-PA-15332/11267164_zpid/","","","247000","260400","1500","133000","11/03/2022","","","","0.88","acres","280681.82","3","3","","","No","No","","1751 Gill Hall Rd","Finleyville","15332","PA","USA","40.276855","-79.94905"
"https://www.zillow.com/homedetails/117-Windvale-Dr-Pittsburgh-PA-15236/11430401_zpid/","","","250000","264100","1681","126500","11/03/2022","1178","sqft","212.22","9000","sqft","27.78","3","2","","","No","No","","117 Windvale Dr","Pittsburgh","15236","PA","USA","40.349625","-79.97645"
"https://www.zillow.com/homedetails/247-Maryland-Dr-Glenshaw-PA-15116/11486474_zpid/","","","249000","263000","1997","163700","11/03/2022","","","","2134.44","sqft","116.66","3","2","","Elizabeth Kofmehl","No","No","","247 Maryland Dr","Glenshaw","15116","PA","USA","40.533882","-79.96493"
"https://www.zillow.com/homedetails/5137-Woodworth-St-Pittsburgh-PA-15224/11525123_zpid/","","","250000","264100","1500","73000","11/02/2022","1720","sqft","145.35","3332.34","sqft","75.02","2","2","","Meg Alarcon","No","No","","5137 Woodworth St","Pittsburgh","15224","PA","USA","40.456463","-79.94395"
"https://www.zillow.com/homedetails/2706-Larkins-Way-Pittsburgh-PA-15203/11292206_zpid/","","","250000","264100","1828","130100","11/01/2022","1906","sqft","131.16","1306.8","sqft","191.31","3","2","","Diana McKay","No","No","","2706 Larkins Way","Pittsburgh","15203","PA","USA","40.425568","-79.96748"
"https://www.zillow.com/homedetails/296-W-Prospect-Ave-Pittsburgh-PA-15205/116179369_zpid/","","","250000","264100","1372","64900","10/31/2022","","","","2.02","acres","123701.14","3","1","","Maureen States","No","No","","296 W Prospect Ave","Pittsburgh","15205","PA","USA","40.44694","-80.07864"
"https://www.zillow.com/homedetails/93-Sierra-Dr-Pittsburgh-PA-15239/11282322_zpid/","","","247000","260900","1975","125300","10/26/2022","","","","","","","4","3","","Vicki Rutherford","No","No","","93 Sierra Dr","Pittsburgh","15239","PA","USA","40.475178","-79.70495"
"https://www.zillow.com/homedetails/2730-Pioneer-Ave-Pittsburgh-PA-15226/11566623_zpid/","","","247777","261800","1999","78500","10/26/2022","1484","sqft","166.97","4904.86","sqft","50.52","3","3","","Joe Yost","No","No","","2730 Pioneer Ave","Pittsburgh","15226","PA","USA","40.394478","-80.02617"
"https://www.zillow.com/homedetails/315-Ewings-Mill-Rd-Coraopolis-PA-15108/11477186_zpid/","","","247000","260900","1581","148100","10/21/2022","","","","0.31","acres","788228.57","4","2","","Brian Carothers","No","No","","315 Ewings Mill Rd","Coraopolis","15108","PA","USA","40.486115","-80.16927"
"https://www.zillow.com/homedetails/3800-Chester-St-Homestead-PA-15120/11295691_zpid/","","","249000","264100","1558","99900","10/20/2022","1615","sqft","154.18","4308.08","sqft","57.8","4","3","","Lori Dzuka","No","No","","3800 Chester St","Homestead","15120","PA","USA","40.382988","-79.909134"
"https://www.zillow.com/homedetails/3521-Thornwood-Dr-Bethel-Park-PA-15102/11548962_zpid/","","","246250","260100","1677","201300","10/20/2022","1426","sqft","172.69","0.34","acres","724904.33","3","1","","Heather Linz","No","No","","3521 Thornwood Dr","Bethel Park","15102","PA","USA","40.31777","-80.05801"
"https://www.zillow.com/homedetails/311-Arbor-Ln-Pittsburgh-PA-15236/11507823_zpid/","","","250000","264000","1681","125100","10/17/2022","","","","0.27","acres","943040.36","3","2","","Kula Kharel","No","No","","311 Arbor Ln","Pittsburgh","15236","PA","USA","40.328686","-79.96784"
"https://www.zillow.com/homedetails/3925-Dowling-Ave-Pittsburgh-PA-15221/11455064_zpid/","","","250000","264000","1900","112300","10/14/2022","1560","sqft","160.26","10375.99","sqft","24.09","3","3","","Silviya Novak","No","No","","3925 Dowling Ave","Pittsburgh","15221","PA","USA","40.42789","-79.84402"
"https://www.zillow.com/homedetails/120-Parkedge-Rd-Pittsburgh-PA-15220/11468911_zpid/","","","249900","263900","1856","128700","10/14/2022","1080","sqft","231.39","7932.28","sqft","31.5","3","2","","Colleen Lehman","No","No","","120 Parkedge Rd","Pittsburgh","15220","PA","USA","40.41755","-80.05513"
"https://www.zillow.com/homedetails/361-Meade-Dr-Coraopolis-PA-15108/11611982_zpid/","","","248000","261900","1683","114900","10/14/2022","","","","10179.97","sqft","24.36","3","2","","Gina Cuccaro","No","No","","361 Meade Dr","Coraopolis","15108","PA","USA","40.535797","-80.24814"
"https://www.zillow.com/homedetails/2637-Bellingham-Ave-Pittsburgh-PA-15216/11453509_zpid/","","","245262","264500","1552","61800","09/30/2022","1692","sqft","144.95","5780.41","sqft","42.43","3","3","","Heather Kaczorowski","No","No","","2637 Bellingham Ave","Pittsburgh","15216","PA","USA","40.405113","-80.03705"
"https://www.zillow.com/homedetails/1904-Hampstead-Dr-Pittsburgh-PA-15235/11454167_zpid/","","","247300","261700","1980","145500","09/30/2022","","","","0.5","acres","494600","4","2","","Karen Sherer","No","No","","1904 Hampstead Dr","Pittsburgh","15235","PA","USA","40.439285","-79.84094"
"https://www.zillow.com/homedetails/1718-Larkins-Way-Pittsburgh-PA-15203/11290989_zpid/","","","250000","264500","1800","75000","09/29/2022","2000","sqft","125","1306.8","sqft","191.31","3","2","","Rich Sunseri","No","No","","1718 Larkins Way","Pittsburgh","15203","PA","USA","40.427326","-79.98147"
"https://www.zillow.com/homedetails/3627-Crestview-Dr-Gibsonia-PA-15044/11329476_zpid/","","","248000","262300","1999","125800","09/26/2022","1161","sqft","213.61","1.43","acres","173184.36","3","2","","Nancy Ware","No","No","","3627 Crestview Dr","Gibsonia","15044","PA","USA","40.62709","-79.98045"
"https://www.zillow.com/homedetails/176-Orchard-Ave-Emsworth-PA-15202/11405174_zpid/","","","250000","264400","1678","141300","09/26/2022","1306","sqft","191.42","5980.79","sqft","41.8","3","2","","Rachel Wisniewski","No","No","","176 Orchard Ave","Emsworth","15202","PA","USA","40.51202","-80.09786"
"https://www.zillow.com/homedetails/1338-Kirsopp-Ave-Pittsburgh-PA-15220/11452736_zpid/","","","250000","264400","1817","112000","09/26/2022","","","","0.47","acres","531914.89","3","3","","Catiana DiCicco","No","No","","1338 Kirsopp Ave","Pittsburgh","15220","PA","USA","40.413445","-80.04106"
"https://www.zillow.com/homedetails/302-Jacks-Run-Rd-Pittsburgh-PA-15202/11369825_zpid/","","","249900","264200","1849","122800","09/23/2022","1076","sqft","232.25","8712","sqft","28.68","3","2","","Rachel Fryer","No","No","","302 Jacks Run Rd","Pittsburgh","15202","PA","USA","40.507595","-80.03739"
"https://www.zillow.com/homedetails/6523-Ventura-Dr-Pittsburgh-PA-15236/11546915_zpid/","","","250000","264300","1969","127200","09/23/2022","1386","sqft","180.38","9448.16","sqft","26.46","3","3","","Dan Haeck","No","No","","6523 Ventura Dr","Pittsburgh","15236","PA","USA","40.319916","-79.99151"
"https://www.zillow.com/homedetails/527-Shumaker-Dr-Monroeville-PA-15146/11626815_zpid/","","","250000","264300","1681","158700","09/22/2022","1750","sqft","142.86","0.4","acres","620655.41","3","2","","Will Smith","No","No","","527 Shumaker Dr","Monroeville","15146","PA","USA","40.45795","-79.76076"
"https://www.zillow.com/homedetails/48-Arlor-Dr-Pittsburgh-PA-15214/11270668_zpid/","","","245900","260000","1834","123400","09/21/2022","1371","sqft","179.36","6599.34","sqft","37.26","3","2","","David Onufer","No","No","","48 Arlor Dr","Pittsburgh","15214","PA","USA","40.488438","-80.002846"
"https://www.zillow.com/homedetails/908-Greenhill-Rd-Pittsburgh-PA-15209/11371077_zpid/","","","249000","263200","1968","127800","09/21/2022","1232","sqft","202.11","7832.09","sqft","31.79","3","2","","Kristen Elk","No","No","","908 Greenhill Rd","Pittsburgh","15209","PA","USA","40.50401","-79.98487"
"https://www.zillow.com/homedetails/7830-Elm-St-Pittsburgh-PA-15237/11558281_zpid/","","","246000","260000","2297","140200","09/20/2022","1674","sqft","146.95","5066.03","sqft","48.56","3","3","","Frankie Jo Kunselman","No","No","","7830 Elm St","Pittsburgh","15237","PA","USA","40.551178","-80.043434"
"https://www.zillow.com/homedetails/2908-Knowlson-Ave-Pittsburgh-PA-15226/11652720_zpid/","","","247500","261600","1500","82700","09/20/2022","","","","4560","sqft","54.28","3","2","","Roseann Vamos","No","No","","2908 Knowlson Ave","Pittsburgh","15226","PA","USA","40.393627","-80.02811"
"https://www.zillow.com/homedetails/101-S-Oak-Hill-Rd-Pittsburgh-PA-15238/11375097_zpid/","","","250000","264200","1550","169900","09/19/2022","","","","0.37","acres","671862.4","2","2","","John Marzullo","No","No","","101 S Oak Hill Rd","Pittsburgh","15238","PA","USA","40.489044","-79.87748"
"https://www.zillow.com/homedetails/101-Fayetteville-Rd-Oakdale-PA-15071/59849247_zpid/","","","249000","263200","1849","141500","09/19/2022","1358","sqft","183.36","0.39","acres","638461.54","3","2","","CHRISTOPHER CARR","No","No","","101 Fayetteville Rd","Oakdale","15071","PA","USA","40.438744","-80.21379"
"https://www.zillow.com/homedetails/901-Norwich-Ave-Pittsburgh-PA-15226/11653343_zpid/","","","250000","264100","1595","72200","09/16/2022","1176","sqft","212.59","3598.06","sqft","69.48","3","2","","Nouha Aboud","No","No","","901 Norwich Ave","Pittsburgh","15226","PA","USA","40.39008","-80.02261"
"https://www.zillow.com/homedetails/9065-Oak-St-Pittsburgh-PA-15239/11261293_zpid/","","","250000","264100","1610","102100","09/14/2022","1680","sqft","148.81","8555.18","sqft","29.22","4","2","","Michael Ricciuti","No","No","","9065 Oak St","Pittsburgh","15239","PA","USA","40.500076","-79.72493"
"https://www.zillow.com/homedetails/5106-Colewood-Dr-Pittsburgh-PA-15236/11469315_zpid/","","","250000","264100","1749","170600","09/14/2022","","","","5998.21","sqft","41.68","3","3","","Nichole Merrell","No","No","","5106 Colewood Dr","Pittsburgh","15236","PA","USA","40.34466","-79.991356"
"https://www.zillow.com/homedetails/526-Agnew-Rd-Pittsburgh-PA-15227/11554444_zpid/","","","250000","264100","2400","122600","09/14/2022","","","","0.3","acres","844186.05","4","3","","Alice Vaday","No","No","","526 Agnew Rd","Pittsburgh","15227","PA","USA","40.396275","-79.97516"
"https://www.zillow.com/homedetails/4658-Rosina-Way-Pittsburgh-PA-15224/11515185_zpid/","","","249000","263000","1898","89700","09/13/2022","1609","sqft","154.75","1440","sqft","172.92","2","3","","Lisa Solomon","No","No","","4658 Rosina Way","Pittsburgh","15224","PA","USA","40.46451","-79.9514"
"https://www.zillow.com/homedetails/1523-Greencrest-Dr-Pittsburgh-PA-15226/11649232_zpid/","","","250000","264100","1625","101500","09/13/2022","1512","sqft","165.34","6777.94","sqft","36.88","3","2","","Heather Kaczorowski","No","No","","1523 Greencrest Dr","Pittsburgh","15226","PA","USA","40.392765","-80.00528"
"https://www.zillow.com/homedetails/1290-Bethel-Green-Dr-Bethel-Park-PA-15102/11579093_zpid/","","","247000","260800","1800","144400","09/09/2022","1568","sqft","157.53","0.31","acres","802469.14","3","2","","Michael Bello","No","No","","1290 Bethel Green Dr","Bethel Park","15102","PA","USA","40.307285","-80.02782"
"https://www.zillow.com/homedetails/578-Bairdford-Rd-Gibsonia-PA-15044/11330266_zpid/","","","247500","261200","2100","147100","09/08/2022","1590","sqft","155.66","1.04","acres","238899.61","4","2","","Gary Pish","No","No","","578 Bairdford Rd","Gibsonia","15044","PA","USA","40.632458","-79.86897"
"https://www.zillow.com/homedetails/361-Dale-Rd-Bethel-Park-PA-15102/11509092_zpid/","","","247000","260800","1495","126200","09/08/2022","1092","sqft","226.19","0.37","acres","667567.57","2","2","","Angie Flowers","No","No","","361 Dale Rd","Bethel Park","15102","PA","USA","40.331238","-80.04841"
"https://www.zillow.com/homedetails/256-Lytton-Rd-Coraopolis-PA-15108/11553426_zpid/","","","250000","263900","2364","168500","09/08/2022","","","","10628.64","sqft","23.52","4","3","","Bill Holden","No","No","","256 Lytton Rd","Coraopolis","15108","PA","USA","40.52855","-80.20843"
"https://www.zillow.com/homedetails/1100-Fallen-Timber-Rd-Elizabeth-PA-15037/11310687_zpid/","","","250000","263800","2169","137800","09/02/2022","","","","0.48","acres","518564.61","4","3","","Devie Rollison","No","No","","1100 Fallen Timber Rd","Elizabeth","15037","PA","USA","40.25533","-79.82225"
"https://www.zillow.com/homedetails/349-Delano-Dr-Pittsburgh-PA-15236/11506786_zpid/","","","250000","251200","1500","100000","09/02/2022","1570","sqft","159.24","7230.96","sqft","34.57","3","3","","Doreen Walters","No","No","","349 Delano Dr","Pittsburgh","15236","PA","USA","40.334873","-79.952736"
"https://www.zillow.com/homedetails/1643-Hillsdale-Ave-Pittsburgh-PA-15216/11571254_zpid/","","","250000","263800","1670","112400","09/02/2022","2236","sqft","111.81","3262.64","sqft","76.62","5","1","","Lisa Watson","No","No","","1643 Hillsdale Ave","Pittsburgh","15216","PA","USA","40.396854","-80.03976"
"https://www.zillow.com/homedetails/238-Ophelia-St-Pittsburgh-PA-15213/11413190_zpid/","","","249000","262700","3288","106000","08/31/2022","2062","sqft","120.76","2000","sqft","124.5","3","3","","","No","No","","238 Ophelia St","Pittsburgh","15213","PA","USA","40.44283","-79.95517"
"https://www.zillow.com/homedetails/3252-Comanche-Rd-Pittsburgh-PA-15241/11509690_zpid/","","","250000","807400","5093","218000","","2948","sqft","84.8","0.74","acres","337108.95","4","4","","","No","No","","3252 Comanche Rd","Pittsburgh","15241","PA","USA","40.335697","-80.06018"
"https://www.zillow.com/homedetails/132-Promenade-St-Pittsburgh-PA-15205/11583451_zpid/","","","250000","","1360","20600","08/31/2022","","","","4281.95","sqft","58.38","3","2","","Kelly Cheponis","No","No","","132 Promenade St","Pittsburgh","15205","PA","USA","40.426872","-80.07877"
"https://www.zillow.com/homedetails/4329-E-Barlind-Dr-Pittsburgh-PA-15227/11355623_zpid/","","","250000","263800","1900","130800","08/30/2022","1305","sqft","191.57","9186.8","sqft","27.21","3","3","","Maria Werner","No","No","","4329 E Barlind Dr","Pittsburgh","15227","PA","USA","40.36696","-79.98676"
"https://www.zillow.com/homedetails/131-Sycamore-Dr-Penn-Hills-PA-15235/11491566_zpid/","","","250000","263800","2807","115900","08/30/2022","1944","sqft","128.6","6385.9","sqft","39.15","4","4","","Taylor Thomas","No","No","","131 Sycamore Dr","Penn Hills","15235","PA","USA","40.47714","-79.82724"
"https://www.zillow.com/homedetails/2605-Mount-Royal-Blvd-Glenshaw-PA-15116/11485891_zpid/","","","248000","261600","1999","119900","08/29/2022","1366","sqft","181.55","0.25","acres","984126.98","3","2","","Nancy Ware","No","No","","2605 Mount Royal Blvd","Glenshaw","15116","PA","USA","40.539734","-79.97268"
"https://www.zillow.com/homedetails/619-Grant-Ave-Carnegie-PA-15106/11253224_zpid/","","","250000","263700","2429","134300","08/26/2022","1944","sqft","128.6","9369.76","sqft","26.68","4","3","","Judi Sahayda","No","No","","619 Grant Ave","Carnegie","15106","PA","USA","40.39231","-80.09695"
"https://www.zillow.com/homedetails/433-Leavitt-St-Pittsburgh-PA-15226/11440367_zpid/","","","250000","263700","1695","101000","08/26/2022","1008","sqft","248.02","0.34","acres","735294.12","3","2","","Paul Kerila","No","No","","433 Leavitt St","Pittsburgh","15226","PA","USA","40.408398","-80.00777"
"https://www.zillow.com/homedetails/3601-Falmouth-Dr-South-Park-PA-15129/11251877_zpid/","","","247000","260500","1700","151500","08/25/2022","1374","sqft","179.77","9540","sqft","25.89","3","1.5","","","No","No","","3601 Falmouth Dr","South Park","15129","PA","USA","40.279503","-79.98552"
"https://www.zillow.com/homedetails/207-Baintree-Rd-Coraopolis-PA-15108/11553254_zpid/","","","250000","263600","2100","169300","08/23/2022","1500","sqft","166.67","0.38","acres","664893.62","3","3","","Dione Cahillane","No","No","","207 Baintree Rd","Coraopolis","15108","PA","USA","40.51593","-80.20076"
"https://www.zillow.com/homedetails/502-Braddock-Rd-Pittsburgh-PA-15221/11419436_zpid/","","","249900","263500","1350","103000","08/22/2022","1786","sqft","139.92","9835.85","sqft","25.41","3","3","","Amy Bair","No","No","","502 Braddock Rd","Pittsburgh","15221","PA","USA","40.42699","-79.857475"
"https://www.zillow.com/homedetails/33-E-Orchard-Ave-Pittsburgh-PA-15202/11326671_zpid/","","","247000","260400","2025","85800","08/18/2022","1350","sqft","182.96","3393.32","sqft","72.79","4","3","","Prashanth Nandyala","No","No","","33 E Orchard Ave","Pittsburgh","15202","PA","USA","40.49725","-80.04838"
"https://www.zillow.com/homedetails/728-Artvue-Dr-Pittsburgh-PA-15243/11398494_zpid/","","","245500","258800","1599","122400","08/18/2022","","","","8450.64","sqft","29.05","3","2","","Michael Hanley IV","No","No","","728 Artvue Dr","Pittsburgh","15243","PA","USA","40.364223","-80.07451"
"https://www.zillow.com/homedetails/1541-Missouri-Ave-Bridgeville-PA-15017/11433745_zpid/","","","250000","263500","1882","117500","08/15/2022","1232","sqft","202.92","0.29","acres","860881.54","3","2","","Jennifer Jezowicz","No","No","","1541 Missouri Ave","Bridgeville","15017","PA","USA","40.35356","-80.09147"
"https://www.zillow.com/homedetails/165-Almond-Way-Pittsburgh-PA-15201/11512662_zpid/","","","250000","263500","1465","17000","08/15/2022","","","","1875","sqft","133.33","2","1","","Pamela D'Alessandro","No","No","","165 Almond Way","Pittsburgh","15201","PA","USA","40.470036","-79.96275"
"https://www.zillow.com/homedetails/5922-Douglas-St-Pittsburgh-PA-15217/11635108_zpid/","","","250000","263500","2028","109200","08/15/2022","1482","sqft","168.69","1698.84","sqft","147.16","3","1","","Anthony Dasta","No","No","","5922 Douglas St","Pittsburgh","15217","PA","USA","40.43323","-79.918976"
"https://www.zillow.com/homedetails/7-Kennedy-Ln-Mc-Kees-Rocks-PA-15136/11263745_zpid/","","","250000","263400","1564","161000","08/11/2022","1332","sqft","187.69","9199.87","sqft","27.17","3","2","","Dora Rudick","No","No","","7 Kennedy Ln","Mc Kees Rocks","15136","PA","USA","40.479836","-80.089806"
"https://www.zillow.com/homedetails/3829-Logan-Ferry-Rd-Pittsburgh-PA-15239/11283713_zpid/","","","245500","258700","1800","109300","08/11/2022","1298","sqft","189.14","9544","sqft","25.72","3","2","","Pamela Stamper","No","No","","3829 Logan Ferry Rd","Pittsburgh","15239","PA","USA","40.452206","-79.70631"
"https://www.zillow.com/homedetails/349-Rockhill-Rd-Pittsburgh-PA-15243/11361584_zpid/","","","250000","263400","1825","160200","08/11/2022","1566","sqft","159.64","6359.76","sqft","39.31","3","2","","Bob Stienstraw","No","No","","349 Rockhill Rd","Pittsburgh","15243","PA","USA","40.367874","-80.0886"
"https://www.zillow.com/homedetails/3829-Logans-Ferry-Rd-Pittsburgh-PA-15239/2062537707_zpid/","","","245500","285200","1941","","08/11/2022","","","","","","","2","2","","","No","No","","3829 Logans Ferry Rd","Pittsburgh","15239","PA","USA","",""
"https://www.zillow.com/homedetails/1151-Cedar-Blvd-Pittsburgh-PA-15228/11359750_zpid/","","","249000","262300","1699","152200","08/10/2022","","","","8772.98","sqft","28.38","3","1","","Vera Purcell","No","No","","1151 Cedar Blvd","Pittsburgh","15228","PA","USA","40.369457","-80.060135"
"https://www.zillow.com/homedetails/414-Winterset-Dr-Pittsburgh-PA-15209/11330511_zpid/","","","250000","263400","1662","115100","08/08/2022","1372","sqft","182.22","0.75","acres","335075.73","3","2","","Marlene Lotzmann","No","No","","414 Winterset Dr","Pittsburgh","15209","PA","USA","40.501","-79.96059"
"https://www.zillow.com/homedetails/228-Hazel-Rd-Pittsburgh-PA-15235/11533300_zpid/","","","245750","258900","1800","97000","08/08/2022","1521","sqft","161.57","0.97","acres","253507.32","4","3","","Tim Johns","No","No","","228 Hazel Rd","Pittsburgh","15235","PA","USA","40.459354","-79.81267"
"https://www.zillow.com/homedetails/112-Jamison-Ln-Monroeville-PA-15146/11570060_zpid/","","","250000","252300","1650","104300","08/08/2022","1311","sqft","190.69","10000","sqft","25","3","2","","","No","No","","112 Jamison Ln","Monroeville","15146","PA","USA","40.429443","-79.78532"
"https://www.zillow.com/homedetails/928-Fredericka-Dr-Pittsburgh-PA-15236/11508087_zpid/","","","250000","263300","1700","155500","08/05/2022","1438","sqft","173.85","9138.89","sqft","27.36","3","2","","Rick Sikora","No","No","","928 Fredericka Dr","Pittsburgh","15236","PA","USA","40.333317","-79.998955"
"https://www.zillow.com/homedetails/613-Surfside-Dr-Pittsburgh-PA-15239/11262246_zpid/","","","247500","","1950","183500","08/02/2022","1728","sqft","143.23","8446.28","sqft","29.3","4","3","","Kelli Verosky","No","No","","613 Surfside Dr","Pittsburgh","15239","PA","USA","40.465996","-79.71663"
"https://www.zillow.com/homedetails/2937-Greenfield-Rd-Glenshaw-PA-15116/11523663_zpid/","","","250000","263200","1997","151500","08/01/2022","1305","sqft","191.57","9100","sqft","27.47","3","1.5","","","No","No","","2937 Greenfield Rd","Glenshaw","15116","PA","USA","40.547543","-79.98361"
"https://www.zillow.com/homedetails/222-Rosebriar-Dr-Glenshaw-PA-15116/11526382_zpid/","","","250000","263200","2370","131200","08/01/2022","1678","sqft","148.99","0.31","acres","807493.54","3","3","","Cherie Altsman","No","No","","222 Rosebriar Dr","Glenshaw","15116","PA","USA","40.547916","-79.96628"
"https://www.zillow.com/homedetails/7395-Steubenville-Pike-Oakdale-PA-15071/59849923_zpid/","","","250000","263200","2175","137100","08/01/2022","2524","sqft","99.05","0.6","acres","416666.67","4","2","","","No","No","","7395 Steubenville Pike","Oakdale","15071","PA","USA","40.441055","-80.194336"
"https://www.zillow.com/homedetails/141-Killarney-Rd-Wexford-PA-15090/59852699_zpid/","","","250000","321700","1900","163100","08/01/2022","","","","0.49","acres","510204.08","3","2","","Brent Gephart","No","No","","141 Killarney Rd","Wexford","15090","PA","USA","40.62337","-80.06119"
"https://www.zillow.com/homedetails/236-Larue-Dr-Coraopolis-PA-15108/11553526_zpid/","","","248000","261100","1784","174700","07/29/2022","","","","0.33","acres","751515.15","3","2","","Sandra Toulouse","No","No","","236 Larue Dr","Coraopolis","15108","PA","USA","40.521423","-80.20009"
"https://www.zillow.com/homedetails/1440-Balsam-Dr-Allison-Park-PA-15101/11561554_zpid/","","","249900","257800","1999","124300","07/29/2022","1200","sqft","208.25","9099.68","sqft","27.46","3","2","","Chelsea Bahorich","No","No","","1440 Balsam Dr","Allison Park","15101","PA","USA","40.55206","-79.94553"
"https://www.zillow.com/homedetails/116-Wessex-Hills-Dr-Coraopolis-PA-15108/11584323_zpid/","","","250000","263200","2025","154000","07/29/2022","1514","sqft","165.13","1089","sqft","229.57","4","3","","Shannon Dears","No","No","","116 Wessex Hills Dr","Coraopolis","15108","PA","USA","40.529434","-80.21886"
"https://www.zillow.com/homedetails/1223-Mississippi-Ave-Pittsburgh-PA-15216/11655283_zpid/","","","249000","262100","1591","97700","07/29/2022","","","","3484.8","sqft","71.45","3","1","","Melissa Shipley","No","No","","1223 Mississippi Ave","Pittsburgh","15216","PA","USA","40.39202","-80.03325"
"https://www.zillow.com/homedetails/228-Elm-St-Swissvale-PA-15218/11381700_zpid/","","","250000","263100","1543","142400","07/28/2022","1560","sqft","160.26","4099","sqft","60.99","4","2","","Paul Murray","No","No","","228 Elm St","Swissvale","15218","PA","USA","40.43051","-79.88132"
"https://www.zillow.com/homedetails/48-Perryview-Ave-Pittsburgh-PA-15214/59836704_zpid/","","","250000","263100","2385","113800","07/27/2022","1821","sqft","137.29","7592.51","sqft","32.93","4","3","","Kevin Obendorfer","No","No","","48 Perryview Ave","Pittsburgh","15214","PA","USA","40.494877","-80.02335"
"https://www.zillow.com/homedetails/20-Marquette-Rd-Pittsburgh-PA-15229/11440863_zpid/","","","250000","263100","1841","172900","07/26/2022","1668","sqft","149.88","5000.69","sqft","49.99","3","2","","","No","No","","20 Marquette Rd","Pittsburgh","15229","PA","USA","40.524307","-80.03872"
"https://www.zillow.com/homedetails/61-Marwood-Dr-Pittsburgh-PA-15241/11510348_zpid/","","","250000","263100","2602","226800","07/26/2022","2200","sqft","113.64","0.42","acres","600000","4","3","","","No","No","","61 Marwood Dr","Pittsburgh","15241","PA","USA","40.329975","-80.0698"
"https://www.zillow.com/homedetails/6206-Heberton-Dr-Verona-PA-15147/11491079_zpid/","","","250000","263100","1498","65000","07/25/2022","","","","10650.42","sqft","23.47","3","3","","Pamela Stamper","No","No","","6206 Heberton Dr","Verona","15147","PA","USA","40.485992","-79.81845"
"https://www.zillow.com/homedetails/39-Woodland-Dr-Coraopolis-PA-15108/11321395_zpid/","","","250000","263000","1849","122800","07/21/2022","1690","sqft","147.93","0.46","acres","539374.33","4","3","","Shanna Funwela","No","No","","39 Woodland Dr","Coraopolis","15108","PA","USA","40.48077","-80.11404"
"https://www.zillow.com/homedetails/1004-Emery-Dr-Pittsburgh-PA-15227/11642251_zpid/","","","247500","260300","1599","122900","07/20/2022","1232","sqft","200.89","8398","sqft","29.47","3","2","","","No","No","","1004 Emery Dr","Pittsburgh","15227","PA","USA","40.392296","-79.96596"
"https://www.zillow.com/homedetails/1530-Bellaire-Pl-Pittsburgh-PA-15226/11649184_zpid/","","","249999","263000","1966","93100","07/20/2022","1900","sqft","131.58","5227.2","sqft","47.83","3","3","","Robert Dini","No","No","","1530 Bellaire Pl","Pittsburgh","15226","PA","USA","40.393238","-80.00468"
"https://www.zillow.com/homedetails/211-Jill-Dr-Pittsburgh-PA-15236/11428374_zpid/","","","250000","263000","2065","116200","07/19/2022","1425","sqft","175.44","8999.5","sqft","27.78","3","3","","Kula Kharel","No","No","","211 Jill Dr","Pittsburgh","15236","PA","USA","40.354435","-79.97561"
"https://www.zillow.com/homedetails/125-3rd-Ave-Pittsburgh-PA-15229/11441356_zpid/","","","247500","260300","1980","143300","07/19/2022","1475","sqft","167.8","6250","sqft","39.6","3","1.5","","","No","No","","125 3rd Ave","Pittsburgh","15229","PA","USA","40.530533","-80.024635"
"https://www.zillow.com/homedetails/220-Chestershire-Dr-Oakdale-PA-15071/59848623_zpid/","","","250000","263000","1464","139400","07/19/2022","1664","sqft","150.24","9147.6","sqft","27.33","3","1","","Stephanie Ramer","No","No","","220 Chestershire Dr","Oakdale","15071","PA","USA","40.438194","-80.20351"
"https://www.zillow.com/homedetails/200-Oakwood-St-Pittsburgh-PA-15209/11330678_zpid/","","","247500","260300","1751","149400","07/18/2022","1408","sqft","175.78","7248.38","sqft","34.15","3","2","","Eli LaBelle","No","No","","200 Oakwood St","Pittsburgh","15209","PA","USA","40.49853","-79.96485"
"https://www.zillow.com/homedetails/207-Calmwood-Dr-Glenshaw-PA-15116/11560215_zpid/","","","250000","262800","1994","135100","07/13/2022","","","","9256.5","sqft","27.01","3","2","","Georgie Smigel","No","No","","207 Calmwood Dr","Glenshaw","15116","PA","USA","40.551537","-79.98386"
"https://www.zillow.com/homedetails/125-Wade-St-Pittsburgh-PA-15211/11516512_zpid/","","","250000","304900","2051","81500","07/12/2022","1848","sqft","135.28","2500.34","sqft","99.99","4","3","","Garrett Freund","No","No","","125 Wade St","Pittsburgh","15211","PA","USA","40.42415","-80.01213"
"https://www.zillow.com/homedetails/4723-Coal-Rd-West-Mifflin-PA-15122/72262731_zpid/","","","250000","262800","2909","176100","07/12/2022","2064","sqft","121.12","8019.4","sqft","31.17","4","4","","","No","No","","4723 Coal Rd","West Mifflin","15122","PA","USA","40.382854","-79.88977"
"https://www.zillow.com/homedetails/1895-Beechford-Ave-Coraopolis-PA-15108/11438203_zpid/","","","250000","262700","1597","73800","07/08/2022","","","","5478","sqft","45.64","4","3","","Brian Carothers","No","No","","1895 Beechford Ave","Coraopolis","15108","PA","USA","40.503906","-80.15631"
"https://www.zillow.com/homedetails/169-Sheldon-Ave-Pittsburgh-PA-15220/11460109_zpid/","","","250000","262700","1749","122000","07/08/2022","1196","sqft","209.03","7043.65","sqft","35.49","3","2","","Julie Welter","No","No","","169 Sheldon Ave","Pittsburgh","15220","PA","USA","40.413696","-80.056786"
"https://www.zillow.com/homedetails/618-Arbor-Ln-Pittsburgh-PA-15236/11507604_zpid/","","","250000","262700","1650","116000","07/08/2022","","","","","","","3","2","","Shelley Killinger","No","No","","618 Arbor Ln","Pittsburgh","15236","PA","USA","40.332523","-79.9706"
"https://www.zillow.com/homedetails/225-Elfinwild-Ln-Glenshaw-PA-15116/11525623_zpid/","","","247000","259600","1999","121200","07/08/2022","1363","sqft","181.22","10149.48","sqft","24.34","3","2","","Cristina McGinn","No","No","","225 Elfinwild Ln","Glenshaw","15116","PA","USA","40.54909","-79.97801"
"https://www.zillow.com/homedetails/442-N-School-St-Pittsburgh-PA-15202/11368769_zpid/","","","250000","262700","2500","161500","07/05/2022","1782","sqft","140.29","4678.34","sqft","53.44","3","3","","Jennifer Cloherty","No","No","","442 N School St","Pittsburgh","15202","PA","USA","40.502224","-80.06629"
"https://www.zillow.com/homedetails/510-Clifton-Ave-Glenshaw-PA-15116/11444008_zpid/","","","250000","262600","1594","117900","07/01/2022","1014","sqft","246.55","0.41","acres","615915.25","3","1","","Kaedi Knepshield","No","No","","510 Clifton Ave","Glenshaw","15116","PA","USA","40.522358","-79.95161"
"https://www.zillow.com/homedetails/420-Carnegie-Dr-Pittsburgh-PA-15243/11312656_zpid/","","","250000","262600","1762","156100","06/30/2022","1322","sqft","189.11","7562.02","sqft","33.06","2","2","","Ruth Weigers","No","No","","420 Carnegie Dr","Pittsburgh","15243","PA","USA","40.382557","-80.05603"
"https://www.zillow.com/homedetails/16-Ellen-Dr-Mc-Kees-Rocks-PA-15136/11365995_zpid/","","","250000","262600","1564","157300","06/30/2022","1248","sqft","200.32","0.5","acres","500000","3","2","","Heather Greenwald","No","No","","16 Ellen Dr","Mc Kees Rocks","15136","PA","USA","40.47326","-80.12999"
"https://www.zillow.com/homedetails/1419-Benton-Ave-Pittsburgh-PA-15212/11269339_zpid/","","","250000","262500","1749","106200","06/29/2022","1912","sqft","130.75","3750.52","sqft","66.66","3","2","","Jessica Baker","No","No","","1419 Benton Ave","Pittsburgh","15212","PA","USA","40.48414","-80.03783"
"https://www.zillow.com/homedetails/22-Monastery-St-Pittsburgh-PA-15203/11315247_zpid/","","","250000","262500","1755","107300","06/27/2022","1571","sqft","159.13","1054.15","sqft","237.16","2","2","","Jim Belchick","No","No","","22 Monastery St","Pittsburgh","15203","PA","USA","40.42324","-79.98527"
"https://www.zillow.com/homedetails/129-Merwood-Dr-Pittsburgh-PA-15214/11327390_zpid/","","","247500","259800","1628","127600","06/24/2022","1296","sqft","190.97","7156.91","sqft","34.58","4","1","","Alecia DiMatteo","No","No","","129 Merwood Dr","Pittsburgh","15214","PA","USA","40.499187","-80.02529"
"https://www.zillow.com/homedetails/212-Rolling-Dr-Pittsburgh-PA-15229/11439614_zpid/","","","250000","262500","1959","137100","06/24/2022","1445","sqft","173.01","7623","sqft","32.8","3","2","","Heather Pavlik","No","No","","212 Rolling Dr","Pittsburgh","15229","PA","USA","40.527466","-80.057"
"https://www.zillow.com/homedetails/9321-Venango-Dr-Pittsburgh-PA-15237/11617616_zpid/","","","250000","262500","1743","125300","06/24/2022","","","","0.67","acres","371415.84","2","2","","Jill Bayne","No","No","","9321 Venango Dr","Pittsburgh","15237","PA","USA","40.576797","-80.03683"
"https://www.zillow.com/homedetails/232-Delaware-Dr-Glenshaw-PA-15116/11486484_zpid/","","","250000","262400","1650","105100","06/23/2022","1391","sqft","179.73","7326.79","sqft","34.12","3","1","","Marianne Hall","No","No","","232 Delaware Dr","Glenshaw","15116","PA","USA","40.534145","-79.963"
"https://www.zillow.com/homedetails/107-Spruce-Valley-Dr-Pittsburgh-PA-15229/11406835_zpid/","","","249900","262300","1832","134600","06/22/2022","","","","6969.6","sqft","35.86","3","2","","Michael Denham","No","No","","107 Spruce Valley Dr","Pittsburgh","15229","PA","USA","40.511635","-80.04472"
"https://www.zillow.com/homedetails/654-Judith-Dr-Pittsburgh-PA-15236/11470307_zpid/","","","247000","259300","1650","103400","06/21/2022","924","sqft","267.32","7801.6","sqft","31.66","3","2","","Anthony Farinelli","No","No","","654 Judith Dr","Pittsburgh","15236","PA","USA","40.343937","-80.00448"
"https://www.zillow.com/homedetails/1512-Harding-Ave-South-Park-PA-15129/11607483_zpid/","","","250000","262300","1599","174900","06/15/2022","1311","sqft","190.69","5000.69","sqft","49.99","3","2","","Amanda Todora","No","No","","1512 Harding Ave","South Park","15129","PA","USA","40.297028","-80.02309"
"https://www.zillow.com/homedetails/5101-Azalea-Dr-Pittsburgh-PA-15236/11393674_zpid/","","","247000","259100","1700","119100","06/13/2022","1259","sqft","196.19","8847.04","sqft","27.92","3","2","","Carol McCarthy","No","No","","5101 Azalea Dr","Pittsburgh","15236","PA","USA","40.36244","-80.00477"
"https://www.zillow.com/homedetails/1169-Tranter-Ave-Pittsburgh-PA-15220/11460694_zpid/","","","247000","259100","1857","145000","06/10/2022","1232","sqft","200.49","0.26","acres","964090.55","3","2","","Mary Ellen Donato","No","No","","1169 Tranter Ave","Pittsburgh","15220","PA","USA","40.40643","-80.050415"
"https://www.zillow.com/homedetails/731-Kewanna-Ave-Pittsburgh-PA-15234/11396796_zpid/","","","249900","262100","1529","135900","06/09/2022","1382","sqft","180.82","4800.31","sqft","52.06","2","1","","Meghan Scichilone","No","No","","731 Kewanna Ave","Pittsburgh","15234","PA","USA","40.363346","-80.03659"
"https://www.zillow.com/homedetails/231-W-Prospect-Ave-Pittsburgh-PA-15205/11587940_zpid/","","","250000","262200","1780","103500","06/09/2022","1998","sqft","125.13","7840.8","sqft","31.88","4","3","","Christian Wilhelm","No","No","","231 W Prospect Ave","Pittsburgh","15205","PA","USA","40.447105","-80.07492"
"https://www.zillow.com/homedetails/3947-Boulevard-Dr-Pittsburgh-PA-15217/11539845_zpid/","","","250000","262200","1694","97000","06/08/2022","","","","4920","sqft","50.81","3","2","","Brian Carothers","No","No","","3947 Boulevard Dr","Pittsburgh","15217","PA","USA","40.427357","-79.93476"
"https://www.zillow.com/homedetails/6365-Monitor-St-Pittsburgh-PA-15217/11636526_zpid/","","","250000","262200","1800","162700","06/08/2022","1328","sqft","188.25","3733","sqft","66.97","3","1","","","No","No","","6365 Monitor St","Pittsburgh","15217","PA","USA","40.425415","-79.92133"
"https://www.zillow.com/homedetails/Greenridge-Pl-Irwin-PA-15642/294917997_zpid/","","","249900","258500","1376","30880","06/08/2022","","","","9063","sqft","27.57","","","","","No","No","","Greenridge Pl","Irwin","15642","PA","USA","40.3496","-79.78295"
"https://www.zillow.com/homedetails/711-E-9th-Ave-Homestead-PA-15120/11292356_zpid/","","","246000","257900","1297","43900","06/06/2022","","","","3301.85","sqft","74.5","5","2","","Georgie Smigel","No","No","","711 E 9th Ave","Homestead","15120","PA","USA","40.40861","-79.90049"
"https://www.zillow.com/homedetails/5022-Parkvue-Dr-Pittsburgh-PA-15236/11429690_zpid/","","","250000","262100","1698","145600","06/03/2022","1519","sqft","164.58","9274","sqft","26.96","4","2","","","No","No","","5022 Parkvue Dr","Pittsburgh","15236","PA","USA","40.349216","-79.98502"
"https://www.zillow.com/homedetails/5247-Caste-Dr-Pittsburgh-PA-15236/11393420_zpid/","","","249000","261000","1694","134100","06/02/2022","1403","sqft","177.48","7949.7","sqft","31.32","3","2","","Linda Lee Foltz","No","No","","5247 Caste Dr","Pittsburgh","15236","PA","USA","40.364964","-80.00415"
"https://www.zillow.com/homedetails/5953-Saltsburg-Rd-Verona-PA-15147/11491179_zpid/","","","250000","262100","1619","80300","06/02/2022","","","","0.48","acres","519966.72","3","3","","Kevin Shaner","No","No","","5953 Saltsburg Rd","Verona","15147","PA","USA","40.483936","-79.82224"
"https://www.zillow.com/homedetails/2914-Albine-Dr-Glenshaw-PA-15116/11523852_zpid/","","","250000","262000","1991","153700","05/31/2022","1288","sqft","194.1","4887.43","sqft","51.15","4","2","","Michelle Mattioli","No","No","","2914 Albine Dr","Glenshaw","15116","PA","USA","40.54509","-79.98433"
"https://www.zillow.com/homedetails/125-Rose-Ave-West-View-PA-15229/11439668_zpid/","","","250000","262000","1889","137800","05/27/2022","","","","5501.63","sqft","45.44","2","2","","Kelly Cheponis","No","No","","125 Rose Ave","West View","15229","PA","USA","40.52584","-80.051765"
"https://www.zillow.com/homedetails/3240-Waltham-Ave-Pittsburgh-PA-15216/11656809_zpid/","","","249900","261900","1658","113700","05/27/2022","1370","sqft","182.41","3301.85","sqft","75.68","3","1","","Rachel Wisniewski","No","No","","3240 Waltham Ave","Pittsburgh","15216","PA","USA","40.385498","-80.03604"
"https://www.zillow.com/homedetails/687-Fruithurst-Dr-Pittsburgh-PA-15228/11309374_zpid/","","","250000","355800","1795","162700","05/26/2022","1313","sqft","190.4","8775","sqft","28.49","3","2","","","No","No","","687 Fruithurst Dr","Pittsburgh","15228","PA","USA","40.38242","-80.02824"
"https://www.zillow.com/homedetails/171-Grove-Ave-Pittsburgh-PA-15229/11408555_zpid/","","","250000","262000","1798","128400","05/26/2022","1553","sqft","160.98","0.37","acres","677323.22","3","2","","Amanda Sudatz","No","No","","171 Grove Ave","Pittsburgh","15229","PA","USA","40.51578","-80.01838"
"https://www.zillow.com/homedetails/2512-Creekedge-Dr-Pittsburgh-PA-15235/11417786_zpid/","","","250000","262000","1895","130100","05/26/2022","","","","9748.73","sqft","25.64","3","3","","Gina Giampietro","No","No","","2512 Creekedge Dr","Pittsburgh","15235","PA","USA","40.448284","-79.8497"
