Property URL,MLS ID,Number of days on Zillow,Property price (USD),Zestimate (USD),Rent zestimate (USD per month),Tax assessed value (USD),Sold date (MM/DD/YYYY),Living area,Living area unit,Price per living area unit (USD),Lot/land area,Lot/land area unit,Price per lot/land area unit (USD),Bedrooms,Bathrooms,Broker name,Broker agent,Is owner occupied,Property owned by Zillow,Property unit number,Street address,City,Zip,State,Country,Latitude,Longitude
"https://www.zillow.com/homedetails/223-Emerson-Ave-Pittsburgh-PA-15215/11335367_zpid/","","","547000","496500","2989","297200","10/12/2023","","","","3920.4","sqft","139.53","4","2","","Elizabeth Kofmehl","No","No","","223 Emerson Ave","Pittsburgh","15215","PA","USA","40.491936","-79.89992"
"https://www.zillow.com/homedetails/5846-Bartlett-St-Pittsburgh-PA-15217/2056819054_zpid/","","","865000","","1597","","08/31/2023","","","","10798.52","sqft","80.1","6","6","","Sherri Mayer","No","No","","5846 Bartlett St","Pittsburgh","15217","PA","USA","",""
"https://www.zillow.com/homedetails/709-Maryland-Ave-Pittsburgh-PA-15232/11625292_zpid/","","","526000","517800","3096","310000","08/25/2023","","","","6599.34","sqft","79.7","5","3","","Jay Phoebe","No","No","","709 Maryland Ave","Pittsburgh","15232","PA","USA","40.453884","-79.92909"
"https://www.zillow.com/homedetails/2207-Aurora-Dr-Pittsburgh-PA-15237/2057567247_zpid/","","","825000","","1984","","08/21/2023","","","","0.92","acres","896739.13","12","12","","Georgie Smigel","No","No","","2207 Aurora Dr","Pittsburgh","15237","PA","USA","40.56599","-80.08045"
"https://www.zillow.com/homedetails/Us-Route-30-Irwin-PA-15642/304142423_zpid/","","","3000000","838400","5032","210430","08/15/2023","","","","4","acres","750000","","","","","No","No","","Us Route 30","Irwin","15642","PA","USA","40.3496","-79.78295"
"https://www.zillow.com/homedetails/416-Bailey-Ave-Pittsburgh-PA-15211/11474391_zpid/","","","510000","561800","3077","197700","08/03/2023","5349","sqft","95.34","5698","sqft","89.51","8","4","","","No","No","","416 Bailey Ave","Pittsburgh","15211","PA","USA","40.426456","-79.99896"
"https://www.zillow.com/homedetails/330-46th-St-Pittsburgh-PA-15201/2064138079_zpid/","","","4000000","","1828","","08/03/2023","","","","0.47","acres","8497981.73","10","13","","Ryan Shedlock","No","No","","330 46th St","Pittsburgh","15201","PA","USA","",""
"https://www.zillow.com/homedetails/416-418-Bailey-Ave-Pittsburgh-PA-15211/2057208438_zpid/","","","510000","509900","3077","","08/02/2023","","","","7840.8","sqft","65.04","6","6","","Reed Pirain","No","No","","416-418 Bailey Ave","Pittsburgh","15211","PA","USA","",""
"https://www.zillow.com/homedetails/5915-Alder-St-Pittsburgh-PA-15232/59835583_zpid/","","","590000","591100","3539","247500","07/21/2023","","","","3598.06","sqft","163.98","4","3","","Jay Phoebe","No","No","","5915 Alder St","Pittsburgh","15232","PA","USA","40.456764","-79.92842"
"https://www.zillow.com/homedetails/5530-Stanton-Ave-Pittsburgh-PA-15206/2059035892_zpid/","","","627500","","1470","","07/18/2023","","","","5445","sqft","115.24","6","6","","Colleen Anthony","No","No","","5530 Stanton Ave","Pittsburgh","15206","PA","USA","40.471653","-79.92743"
"https://www.zillow.com/homedetails/5929-5931-Nicholson-St-Pittsburgh-PA-15217/2057444785_zpid/","","","550000","","1878","","07/11/2023","","","","8755.56","sqft","62.82","6","2","","Ruth Dambrosio","No","No","","5929-5931 Nicholson St","Pittsburgh","15217","PA","USA","",""
"https://www.zillow.com/homedetails/5239-Wickliff-St-Pittsburgh-PA-15201/11612935_zpid/","","","645000","647600","3874","113400","06/23/2023","","","","1306.8","sqft","493.57","5","5","","Ronald Huber","No","No","","5239 Wickliff St","Pittsburgh","15201","PA","USA","40.478836","-79.949905"
"https://www.zillow.com/homedetails/220-Coltart-Ave-Pittsburgh-PA-15213/11412791_zpid/","","","675000","680600","4136","259500","06/09/2023","","","","3049.2","sqft","221.37","8","5","","Charlene Haislip","No","No","","220 Coltart Ave","Pittsburgh","15213","PA","USA","40.43787","-79.95914"
"https://www.zillow.com/homedetails/5715-Howe-St-Pittsburgh-PA-15232/11628697_zpid/","","","615000","730400","4411","376000","06/01/2023","","","","3946.54","sqft","155.83","6","5","","Jay Phoebe","No","No","","5715 Howe St","Pittsburgh","15232","PA","USA","40.45153","-79.93004"
"https://www.zillow.com/homedetails/831-Western-Ave-Pittsburgh-PA-15233/11640276_zpid/","","","530000","534500","3226","182800","05/30/2023","2312","sqft","229.24","3438","sqft","154.16","3","3","","","No","No","","831 Western Ave","Pittsburgh","15233","PA","USA","40.451946","-80.01527"
"https://www.zillow.com/homedetails/621-Lincoln-Ave-Pittsburgh-PA-15206/2059008520_zpid/","","","725000","","1364","","05/08/2023","","","","7540.24","sqft","96.15","11","6","","Rachel Gordon","No","No","","621 Lincoln Ave","Pittsburgh","15206","PA","USA","",""
"https://www.zillow.com/homedetails/1707-Locust-St-Pittsburgh-PA-15219/11273181_zpid/","","","517500","525700","3173","47000","05/04/2023","2032","sqft","254.68","1109","sqft","466.64","4","2","","","No","No","","1707 Locust St","Pittsburgh","15219","PA","USA","40.43681","-79.98237"
"https://www.zillow.com/homedetails/381-Fisk-St-Pittsburgh-PA-15201/11513975_zpid/","","","576000","570700","3438","179200","05/03/2023","","","","3145.03","sqft","183.15","3","2","","Caryn Rosenthal","No","No","","381 Fisk St","Pittsburgh","15201","PA","USA","40.46595","-79.95688"
"https://www.zillow.com/homedetails/1707-1709-Locust-St-Pittsburgh-PA-15219/2062785928_zpid/","","","517500","","1800","","05/03/2023","","","","2265.12","sqft","228.46","7","3","","Heather Kaczorowski","No","No","","1707-1709 Locust St","Pittsburgh","15219","PA","USA","",""
"https://www.zillow.com/homedetails/342-Spahr-St-Pittsburgh-PA-15232/11625065_zpid/","","","562000","563200","3383","255600","04/28/2023","","","","8738.14","sqft","64.32","4","4","","Jeffrey Stanley","No","No","","342 Spahr St","Pittsburgh","15232","PA","USA","40.456192","-79.928024"
"https://www.zillow.com/homedetails/631-College-St-Pittsburgh-PA-15232/2055758329_zpid/","","","688000","","1550","","04/28/2023","","","","3998.81","sqft","172.05","7","6","","Eric Knolle","No","No","","631 College St","Pittsburgh","15232","PA","USA","",""
"https://www.zillow.com/homedetails/720-Ivy-St-Pittsburgh-PA-15232/11628753_zpid/","","","520000","531300","3213","310400","04/13/2023","","","","2500.34","sqft","207.97","3","2","","Joe Yost","No","No","","720 Ivy St","Pittsburgh","15232","PA","USA","40.452194","-79.932755"
"https://www.zillow.com/homedetails/5541-Ellsworth-Ave-Pittsburgh-PA-15232/11525429_zpid/","","","668000","699200","4191","406300","04/03/2023","","","","3706.96","sqft","180.2","5","5","","Libby Sosinski","No","No","","5541 Ellsworth Ave","Pittsburgh","15232","PA","USA","40.454407","-79.93373"
"https://www.zillow.com/homedetails/2709-2711-Sarah-St-Pittsburgh-PA-15203/11291749_zpid/","","","950000","925000","5544","414600","03/27/2023","","","","5231.56","sqft","181.59","10","8","","Jay Phoebe","No","No","","2709-2711 Sarah St","Pittsburgh","15203","PA","USA","40.426197","-79.966934"
"https://www.zillow.com/homedetails/3510-3516-Butler-St-Pittsburgh-PA-15201/2061508184_zpid/","","","1900000","","1999","","03/10/2023","","","","0.3","acres","6333333.33","","","","Edward Bartosiewicz","No","No","","3510-3516 Butler St","Pittsburgh","15201","PA","USA","",""
"https://www.zillow.com/homedetails/815-Library-Ave-Carnegie-PA-15106/121886710_zpid/","","","699000","","935","144100","03/01/2023","","","","0.4","acres","1747500","","","","Ben Bonham","No","No","","815 Library Ave","Carnegie","15106","PA","USA","40.401844","-80.084984"
"https://www.zillow.com/homedetails/443-445-S-Atlantic-Ave-Pittsburgh-PA-15224/11524907_zpid/","","","531000","550800","3338","251200","02/28/2023","3809","sqft","139.41","5369","sqft","98.9","4","3","","","No","No","","443-445 S Atlantic Ave","Pittsburgh","15224","PA","USA","40.45856","-79.93909"
"https://www.zillow.com/homedetails/443-443-S-Atlantic-Ave-445-Pittsburgh-PA-15224/2060389393_zpid/","","","531000","","1799","","02/28/2023","","","","5370.95","sqft","98.87","4","3","","Matthew Vogel","No","No","# 445","443-443 S Atlantic Ave #445","Pittsburgh","15224","PA","USA","",""
"https://www.zillow.com/homedetails/2009-Wendover-St-Pittsburgh-PA-15217/11631712_zpid/","","","605000","630200","3819","360000","02/17/2023","","","","4957.13","sqft","122.05","7","5","","William Jacoby","No","No","","2009 Wendover St","Pittsburgh","15217","PA","USA","40.433502","-79.9288"
"https://www.zillow.com/homedetails/2326-Sarah-St-Pittsburgh-PA-15203/11291471_zpid/","","","585000","556700","3333","319300","02/03/2023","2534","sqft","230.86","2400","sqft","243.75","4","2","","","No","No","","2326 Sarah St","Pittsburgh","15203","PA","USA","40.4271","-79.97206"
"https://www.zillow.com/homedetails/Route-31-Route-PA-15089/304140102_zpid/","","","2390000","567100","3614","132650","12/28/2022","","","","1.2","acres","1991666.67","","","","","No","No","","Route 31","Route","15089","PA","USA","40.22705","-79.799545"
"https://www.zillow.com/homedetails/1611-Miriam-St-Pittsburgh-PA-15218/2060911052_zpid/","","","550000","","1500","","12/20/2022","","","","7453.12","sqft","73.79","10","6","","Bob Cenk","No","No","","1611 Miriam St","Pittsburgh","15218","PA","USA","",""
"https://www.zillow.com/homedetails/1584-W-Railroad-St-Carnegie-PA-15106/2079944865_zpid/","","","875000","922800","5624","","11/30/2022","","","","0.27","acres","3255208.33","10","10","","Barbara Baker","No","No","","1584 W Railroad St","Carnegie","15106","PA","USA","40.394188","-80.08806"
"https://www.zillow.com/homedetails/11-Oakland-Sq-Pittsburgh-PA-15213/11413012_zpid/","","","540000","527100","3128","132400","11/15/2022","","","","3044.84","sqft","177.35","6","5","","Santino Merante","No","No","","11 Oakland Sq","Pittsburgh","15213","PA","USA","40.43682","-79.95182"
"https://www.zillow.com/homedetails/3718-Dawson-St-Pittsburgh-PA-15213/11413056_zpid/","","","530000","","1716","110000","11/15/2022","","","","2639.74","sqft","200.78","6","4","","Santino Merante","No","No","","3718 Dawson St","Pittsburgh","15213","PA","USA","40.437714","-79.95187"
"https://www.zillow.com/homedetails/Galbraith-Pl-New-Kensington-PA-15068/304138316_zpid/","","","675000","655100","4037","149460","11/10/2022","","","","0.36","acres","1861892.1","","","","","No","No","","Galbraith Pl","New Kensington","15068","PA","USA","40.528202","-79.756584"
"https://www.zillow.com/homedetails/238-S-Aiken-Ave-Pittsburgh-PA-15206/11524410_zpid/","","","560000","601500","3589","244200","11/07/2022","","","","","","","6","3","","Molly Finley","No","No","","238 S Aiken Ave","Pittsburgh","15206","PA","USA","40.462234","-79.93789"
"https://www.zillow.com/homedetails/5824-Bartlett-St-Pittsburgh-PA-15217/11631515_zpid/","","","682000","","1195","195000","10/14/2022","","","","8102.16","sqft","84.18","7","5","","Thomas Cahill","No","No","","5824 Bartlett St","Pittsburgh","15217","PA","USA","40.435844","-79.92177"
"https://www.zillow.com/homedetails/318-318-S-Main-St-320-Pittsburgh-PA-15220/2061935366_zpid/","","","662500","","1398","","10/12/2022","","","","3114.54","sqft","212.71","8","4","","Justin Riapos","No","No","# 320","318-318 S Main St #320","Pittsburgh","15220","PA","USA","",""
"https://www.zillow.com/homedetails/1121-Wightman-St-Pittsburgh-PA-15217/11629402_zpid/","","","800000","805800","4832","265000","09/30/2022","","","","9883.76","sqft","80.94","6","4","","Marco Petersen","No","No","","1121 Wightman St","Pittsburgh","15217","PA","USA","40.447147","-79.928986"
"https://www.zillow.com/homedetails/6116-Stanton-Ave-Pittsburgh-PA-15206/11623060_zpid/","","","647000","","4455","237200","09/19/2022","1070","sqft","604.67","6098","sqft","106.1","3","8","","","No","No","","6116 Stanton Ave","Pittsburgh","15206","PA","USA","40.4686","-79.91811"
"https://www.zillow.com/homedetails/6116-6122-Stanton-Ave-Pittsburgh-PA-15206/2062397235_zpid/","","","647000","","1966","","09/16/2022","","","","5998.21","sqft","107.87","12","8","","Justin Cummings","No","No","","6116-6122 Stanton Ave","Pittsburgh","15206","PA","USA","",""
"https://www.zillow.com/homedetails/9-13-Telescope-St-Pittsburgh-PA-15203/11307784_zpid/","","","532000","454800","2793","130000","09/13/2022","","","","7623","sqft","69.79","8","4","","John Geisler","No","No","","9-13 Telescope St","Pittsburgh","15203","PA","USA","40.422604","-79.967094"
"https://www.zillow.com/homedetails/105-Shady-Dr-W-Pittsburgh-PA-15228/11310956_zpid/","","","660000","696500","4220","240000","09/02/2022","","","","5998.21","sqft","110.03","8","4","","Reed Pirain","No","No","","105 Shady Dr W","Pittsburgh","15228","PA","USA","40.38308","-80.04743"
"https://www.zillow.com/homedetails/5952-Phillips-Ave-Pittsburgh-PA-15217/2102796690_zpid/","","","1075000","1133900","6872","","08/31/2022","","","","10576.37","sqft","101.64","12","6","","Anthony Dasta","No","No","","5952 Phillips Ave","Pittsburgh","15217","PA","USA","40.432114","-79.91853"
"https://www.zillow.com/homedetails/616-618-Worth-St-Pittsburgh-PA-15217/11287940_zpid/","","","640000","675200","4091","529000","08/30/2022","","","","5706.36","sqft","112.16","2","1","","Ann Greathouse","No","No","","616-618 Worth St","Pittsburgh","15217","PA","USA","40.446392","-79.91293"
"https://www.zillow.com/homedetails/952-N-Negley-Ave-Pittsburgh-PA-15206/2098865293_zpid/","","","1000000","","1099","","08/30/2022","","","","0.33","acres","3032140.69","6","7","","John Chutz","No","No","","952 N Negley Ave","Pittsburgh","15206","PA","USA","40.473896","-79.92485"
"https://www.zillow.com/homedetails/700-Ivy-St-Pittsburgh-PA-15232/2068379811_zpid/","","","930000","","1427","","08/18/2022","","","","3880","sqft","239.69","7","6","","Ryan Shedlock","No","No","","700 Ivy St","Pittsburgh","15232","PA","USA","",""
"https://www.zillow.com/homedetails/367-S-Graham-St-Pittsburgh-PA-15232/2063002864_zpid/","","","640000","","1871","","07/27/2022","","","","5601.82","sqft","114.25","4","4","","Meg Smith","No","No","","367 S Graham St","Pittsburgh","15232","PA","USA","",""
"https://www.zillow.com/homedetails/6655-Northumberland-St-Pittsburgh-PA-15217/11288392_zpid/","","","530000","557700","3375","155000","07/25/2022","","","","4791.6","sqft","110.61","6","2","","Robert Strohm","No","No","","6655 Northumberland St","Pittsburgh","15217","PA","USA","40.44325","-79.913055"
"https://www.zillow.com/homedetails/1535-1537-Lowrie-St-Pittsburgh-PA-15212/2071240147_zpid/","","","615000","","1271","","07/25/2022","","","","","","","8","4","","Jeffrey Stanley","No","No","","1535-1537 Lowrie St","Pittsburgh","15212","PA","USA","",""
"https://www.zillow.com/homedetails/628-College-St-Pittsburgh-PA-15232/11624768_zpid/","","","530000","557300","3372","172500","07/15/2022","","","","3358.48","sqft","157.81","6","3","","Lois Harkness","No","No","","628 College St","Pittsburgh","15232","PA","USA","40.45611","-79.92898"
"https://www.zillow.com/homedetails/4612-Filmore-St-Pittsburgh-PA-15213/11529677_zpid/","","","800000","841100","5091","184600","07/14/2022","4419","sqft","181.04","3250","sqft","246.15","6","2","","","No","No","","4612 Filmore St","Pittsburgh","15213","PA","USA","40.445156","-79.94824"
"https://www.zillow.com/homedetails/169-41st-St-Pittsburgh-PA-15201/11512608_zpid/","","","545000","556600","3317","99300","07/01/2022","2200","sqft","247.73","6551","sqft","83.19","","","","","No","No","","169 41st St","Pittsburgh","15201","PA","USA","40.47045","-79.962"
"https://www.zillow.com/homedetails/7423-7429-Penn-Ave-Pittsburgh-PA-15208/2065731564_zpid/","","","860000","902200","5466","","06/30/2022","","","","4356","sqft","197.43","8","4","","Charlene Haislip","No","No","","7423-7429 Penn Ave","Pittsburgh","15208","PA","USA","",""
"https://www.zillow.com/homedetails/1500-1508-Lincoln-Way-McKeesport-PA-15131/2067375801_zpid/","","","775000","","1128","","06/24/2022","","","","0.34","acres","2290189.13","9","10","","Craig Baum","No","No","","1500-1508 Lincoln Way","McKeesport","15131","PA","USA","",""
"https://www.zillow.com/homedetails/289-40th-St-Pittsburgh-PA-15201/11513850_zpid/","","","525000","639800","3877","224000","06/14/2022","","","","4734.97","sqft","110.88","3","3","","Denis Tague","No","No","","289 40th St","Pittsburgh","15201","PA","USA","40.466908","-79.95958"
"https://www.zillow.com/homedetails/403-S-Atlantic-Ave-Pittsburgh-PA-15224/11524900_zpid/","","","507000","531600","3220","238500","06/06/2022","","","","5227.2","sqft","96.99","6","3","","Robert Dini","No","No","","403 S Atlantic Ave","Pittsburgh","15224","PA","USA","40.459415","-79.938965"
"https://www.zillow.com/homedetails/245-Frederick-Ave-Sewickley-PA-15143/11518395_zpid/","","","841500","882200","5343","525000","06/03/2022","1494","sqft","563.25","0.38","acres","2198245.28","2","1","","","No","No","","245 Frederick Ave","Sewickley","15143","PA","USA","40.54018","-80.18608"
"https://www.zillow.com/homedetails/3242-Richardson-Ave-Pittsburgh-PA-15212/11604238_zpid/","","","585000","613100","3714","38200","05/26/2022","1836","sqft","318.63","5520","sqft","105.98","3","2","","","No","No","","3242 Richardson Ave","Pittsburgh","15212","PA","USA","40.47512","-80.0363"
"https://www.zillow.com/homedetails/3201-Camp-St-Pittsburgh-PA-15219/2111348082_zpid/","","","942500","987800","5984","","05/24/2022","","","","","","","20","10","","Kassie Cable","No","No","","3201 Camp St","Pittsburgh","15219","PA","USA","40.451794","-79.95912"
"https://www.zillow.com/homedetails/5206-Butler-Pittsburgh-PA-15206/2097824503_zpid/","","","895000","938000","5683","","05/20/2022","2500","sqft","358","","","","4","2","","","No","No","","5206 Butler","Pittsburgh","15206","PA","USA","40.480515","-79.95405"
"https://www.zillow.com/homedetails/5501-Howe-St-Pittsburgh-PA-15232/11528709_zpid/","","","725000","759900","4603","300000","05/16/2022","4020","sqft","180.35","6665","sqft","108.78","8","4","","","No","No","","5501 Howe St","Pittsburgh","15232","PA","USA","40.450573","-79.93334"
"https://www.zillow.com/homedetails/1204-1204-Arch-St-1206-Pittsburgh-PA-15212/2068798218_zpid/","","","860000","","1995","","05/06/2022","","","","1880","sqft","457.45","","","","Sharon Scheidemantle","No","No","# 1206","1204-1204 Arch St #1206","Pittsburgh","15212","PA","USA","",""
"https://www.zillow.com/homedetails/5536-Baywood-St-Pittsburgh-PA-15206/11622373_zpid/","","","620000","649900","3937","103000","05/04/2022","","","","5828.33","sqft","106.38","3","4","","Aaron Garland","No","No","","5536 Baywood St","Pittsburgh","15206","PA","USA","40.470768","-79.92781"
"https://www.zillow.com/homedetails/257-Oakland-Ave-Pittsburgh-PA-15213/11412611_zpid/","","","725000","760100","4605","64400","04/28/2022","3270","sqft","221.71","3750","sqft","193.33","2","","","","No","No","","257 Oakland Ave","Pittsburgh","15213","PA","USA","40.44047","-79.95511"
"https://www.zillow.com/homedetails/3201-3203-Kennett-Sq-Pittsburgh-PA-15213/2066399306_zpid/","","","575000","","1366","","04/22/2022","","","","3049.2","sqft","188.57","10","6","","Charlene Haislip","No","No","","3201-3203 Kennett Sq","Pittsburgh","15213","PA","USA","",""
"https://www.zillow.com/homedetails/206-208-Bailey-Ave-Pittsburgh-PA-15211/11516385_zpid/","","","665000","695500","4230","446100","04/04/2022","1904","sqft","349.26","3971","sqft","167.46","","","","","No","No","","206-208 Bailey Ave","Pittsburgh","15211","PA","USA","40.426746","-80.00286"
"https://www.zillow.com/homedetails/3505-Seven-Butler-St-Pittsburgh-PA-15201/2059236907_zpid/","","","1510000","","1679","","03/25/2022","","","","1999.4","sqft","755.23","3","3","","Jay Phoebe","No","No","","3505 Seven Butler St","Pittsburgh","15201","PA","USA","",""
"https://www.zillow.com/homedetails/3801-Butler-St-Pittsburgh-PA-15201/2059236908_zpid/","","","1100000","","1999","","03/25/2022","","","","4177.4","sqft","263.32","1","2","","Jay Phoebe","No","No","","3801 Butler St","Pittsburgh","15201","PA","USA","40.46709","-79.96444"
"https://www.zillow.com/homedetails/622-Copeland-St-Pittsburgh-PA-15232/59835442_zpid/","","","530000","575900","3422","307700","03/11/2022","","","","2500.34","sqft","211.97","4","3","","Stacie Williams","No","No","","622 Copeland St","Pittsburgh","15232","PA","USA","40.452328","-79.935745"
"https://www.zillow.com/homedetails/1100-Oneil-Blvd-McKeesport-PA-15132/2109801160_zpid/","","","785000","539100","3926","","03/01/2022","","","","0.63","acres","1246031.75","1","1","","Robert Dini","No","No","","1100 Oneil Blvd","McKeesport","15132","PA","USA","40.345943","-79.8362"
"https://www.zillow.com/homedetails/747-749-Montclair-St-Pittsburgh-PA-15217/11639850_zpid/","","","1300000","303100","1927","86000","02/24/2022","1944","sqft","668.72","4500","sqft","288.89","4","2","","","No","No","","747-749 Montclair St","Pittsburgh","15217","PA","USA","40.421043","-79.93156"
"https://www.zillow.com/homedetails/1601-Lincoln-Way-White-Oak-PA-15131/87988225_zpid/","","","589000","658800","4355","623500","02/18/2022","","","","0.38","acres","1566160.42","","","","","No","No","","1601 Lincoln Way","White Oak","15131","PA","USA","40.34804","-79.81672"
"https://www.zillow.com/homedetails/401-Franklin-Ave-Carnegie-PA-15106/2066497067_zpid/","","","515000","190800","1450","","02/04/2022","","","","6405","sqft","80.41","7","7","","Robert Dini","No","No","","401 Franklin Ave","Carnegie","15106","PA","USA","40.401745","-80.081116"
"https://www.zillow.com/homedetails/137-Grandview-Ave-Pittsburgh-PA-15211/2071911795_zpid/","","","1200000","","1605","","01/31/2022","","","","5767.34","sqft","208.07","6","5","","Lauren Shepherd","No","No","","137 Grandview Ave","Pittsburgh","15211","PA","USA","",""
"https://www.zillow.com/homedetails/2322-E-Carson-St-Pittsburgh-PA-15203/119344654_zpid/","","","640331","637500","3960","505200","01/27/2022","","","","5662","sqft","113.09","2","","","","No","No","","2322 E Carson St","Pittsburgh","15203","PA","USA","40.428047","-79.97197"
"https://www.zillow.com/homedetails/1-Pennridge-Ct-Pittsburgh-PA-15235/2068445974_zpid/","","","1000000","512000","4048","","01/26/2022","","","","1","acres","1000000","10","10","","Lisa Starling","No","No","","1 Pennridge Ct","Pittsburgh","15235","PA","USA","40.460087","-79.81069"
"https://www.zillow.com/homedetails/401-Denniston-St-Pittsburgh-PA-15206/11625742_zpid/","","","570016","590200","3552","270000","01/25/2022","","","","3105.83","sqft","183.53","6","2","","Rebekah Siegel","No","No","","401 Denniston St","Pittsburgh","15206","PA","USA","40.454586","-79.919785"
"https://www.zillow.com/homedetails/3609-Parkview-Ave-Pittsburgh-PA-15213/11413020_zpid/","","","830486","688900","4152","348300","01/21/2022","","","","1755.47","sqft","473.09","","","","Corey Diethorn","No","No","","3609 Parkview Ave","Pittsburgh","15213","PA","USA","40.43638","-79.951965"
"https://www.zillow.com/homedetails/5508-5510-Kentucky-Ave-Pittsburgh-PA-15232/2069391412_zpid/","","","858000","","1494","","01/12/2022","","","","","","","9","10","","Roslyn Neiman","No","No","","5508-5510 Kentucky Ave","Pittsburgh","15232","PA","USA","",""
"https://www.zillow.com/homedetails/5731-5733-Phillips-Ave-Pittsburgh-PA-15217/11634985_zpid/","","","775000","861700","5150","288000","01/10/2022","6100","sqft","127.05","5341","sqft","145.1","8","4","","","No","No","","5731-5733 Phillips Ave","Pittsburgh","15217","PA","USA","40.432392","-79.923874"
"https://www.zillow.com/homedetails/1213-15-Shady-Ave-Pittsburgh-PA-15232/2069947189_zpid/","","","638000","","1594","","12/15/2021","","","","7875","sqft","81.02","8","4","","Michael Kelly","No","No","","1213-15 Shady Ave","Pittsburgh","15232","PA","USA","",""
"https://www.zillow.com/homedetails/631-S-Negley-Ave-Pittsburgh-PA-15232/11625371_zpid/","","","662500","725200","4392","396800","12/13/2021","","","","3449.95","sqft","192.03","6","3","","Alexander Cleary","No","No","","631 S Negley Ave","Pittsburgh","15232","PA","USA","40.453926","-79.93176"
"https://www.zillow.com/homedetails/5214-Dresden-Way-Pittsburgh-PA-15201/11612509_zpid/","","","642500","","1333","65600","12/03/2021","","","","1838.23","sqft","349.52","6","3","","Michael DiFiore","No","No","","5214 Dresden Way","Pittsburgh","15201","PA","USA","40.480515","-79.95359"
"https://www.zillow.com/homedetails/1611-Denniston-St-Pittsburgh-PA-15217/11631239_zpid/","","","838667","798900","4846","175000","11/24/2021","2717","sqft","308.67","4830","sqft","173.64","6","2","","","No","No","","1611 Denniston St","Pittsburgh","15217","PA","USA","40.440044","-79.917656"
"https://www.zillow.com/homedetails/2578-2580-Beechwood-Blvd-Pittsburgh-PA-15217/11636037_zpid/","","","540000","631800","3793","295000","11/22/2021","3292","sqft","164.03","6996","sqft","77.19","6","4","","","No","No","","2578-2580 Beechwood Blvd","Pittsburgh","15217","PA","USA","40.428123","-79.91644"
"https://www.zillow.com/homedetails/2578-Beechwood-Blvd-Pittsburgh-PA-15217/2071117678_zpid/","","","540000","599500","3616","","11/19/2021","","","","6995.74","sqft","77.19","6","4","","Eli LaBelle","No","No","","2578 Beechwood Blvd","Pittsburgh","15217","PA","USA","40.428146","-79.91643"
"https://www.zillow.com/homedetails/5620-Rippey-St-Pittsburgh-PA-15206/2080350245_zpid/","","","1625000","","1098","","11/12/2021","","","","","","","","","","Jay Robinson","No","No","","5620 Rippey St","Pittsburgh","15206","PA","USA","40.466053","-79.92809"
"https://www.zillow.com/homedetails/5861-5863-Northumberland-St-Pittsburgh-PA-15217/11630778_zpid/","","","604555","886400","5367","424500","11/10/2021","7168","sqft","84.34","8418","sqft","71.82","12","4","","","No","No","","5861-5863 Northumberland St","Pittsburgh","15217","PA","USA","40.441994","-79.920944"
"https://www.zillow.com/homedetails/5863-Northumberland-St-Pittsburgh-PA-15217/2068631464_zpid/","","","604555","","1661","","11/05/2021","","","","8420.15","sqft","71.8","9","8","","Denise Serbin","No","No","","5863 Northumberland St","Pittsburgh","15217","PA","USA","",""
"https://www.zillow.com/homedetails/20-River-Rd-22-Pittsburgh-PA-15238/2069918368_zpid/","","","860000","694400","3583","","11/01/2021","","","","","","","","","","","No","No","# 22","20 River Rd #22","Pittsburgh","15238","PA","USA","40.504185","-79.85082"
"https://www.zillow.com/homedetails/20-20-River-Rd-22-Pittsburgh-PA-15238/2069919810_zpid/","","","860000","","1078","","11/01/2021","","","","0.78","acres","1102564.1","18","10","","Dawn Bierker","No","No","# 22","20-20 River Rd #22","Pittsburgh","15238","PA","USA","",""
"https://www.zillow.com/homedetails/5960-Wellesley-Ave-Pittsburgh-PA-15206/2076957748_zpid/","","","1200000","1140900","6254","","10/26/2021","","","","","","","","","","Janice DeCarlo","No","No","","5960 Wellesley Ave","Pittsburgh","15206","PA","USA","40.472443","-79.92016"
"https://www.zillow.com/homedetails/742-N-Negley-Ave-Pittsburgh-PA-15206/2076986060_zpid/","","","900000","852200","4196","","10/26/2021","","","","7500","sqft","120","","","","Janice DeCarlo","No","No","","742 N Negley Ave","Pittsburgh","15206","PA","USA","40.470837","-79.926186"
"https://www.zillow.com/homedetails/236-S-Negley-Ave-Pittsburgh-PA-15206/2076986316_zpid/","","","887500","851600","4818","","10/26/2021","","","","6897","sqft","128.68","","","","Janice DeCarlo","No","No","","236 S Negley Ave","Pittsburgh","15206","PA","USA","40.46106","-79.93252"
"https://www.zillow.com/homedetails/230-S-Negley-Ave-Pittsburgh-PA-15206/2076986414_zpid/","","","887500","851600","4818","","10/26/2021","","","","6897","sqft","128.68","1","1","","Janice DeCarlo","No","No","","230 S Negley Ave","Pittsburgh","15206","PA","USA","40.461197","-79.932434"
"https://www.zillow.com/homedetails/5704-5704-Six-Callowhill-St-Pittsburgh-PA-15206/2069558029_zpid/","","","747500","","1864","","10/21/2021","","","","5170","sqft","144.58","4","4","","Linda Wiethorn","No","No","","5704-5704 Six Callowhill St","Pittsburgh","15206","PA","USA","",""
"https://www.zillow.com/homedetails/224-S-Pacific-Ave-Pittsburgh-PA-15224/11520959_zpid/","","","961000","1025100","6172","336200","10/14/2021","6315","sqft","152.18","6240","sqft","154.01","7","6","","","No","No","","224 S Pacific Ave","Pittsburgh","15224","PA","USA","40.463154","-79.940575"
"https://www.zillow.com/homedetails/5801-Saltsburg-Rd-Verona-PA-15147/2100233302_zpid/","","","1535000","703300","4242","","10/07/2021","","","","1.04","acres","1480945.49","","","","Patrick Conley","No","No","","5801 Saltsburg Rd","Verona","15147","PA","USA","40.482777","-79.82628"
"https://www.zillow.com/homedetails/224-226-S-Pacific-Ave-Pittsburgh-PA-15224/2069610137_zpid/","","","961000","","1724","","10/06/2021","","","","6098.4","sqft","157.58","7","6","","Gary Dempsey","No","No","","224-226 S Pacific Ave","Pittsburgh","15224","PA","USA","40.463154","-79.940575"
"https://www.zillow.com/homedetails/256-S-Evaline-St-Pittsburgh-PA-15224/11520842_zpid/","","","515000","594800","3581","191700","09/30/2021","","","","8751.2","sqft","58.85","5","4","","Jeffrey Hrapla","No","No","","256 S Evaline St","Pittsburgh","15224","PA","USA","40.462555","-79.941864"
"https://www.zillow.com/homedetails/247-S-Saint-Clair-St-Pittsburgh-PA-15206/11624325_zpid/","","","530000","","3530","230400","09/28/2021","","","","4517.17","sqft","117.33","5","3","","Darlene Gibson","No","No","","247 S Saint Clair St","Pittsburgh","15206","PA","USA","40.46034","-79.93003"
"https://www.zillow.com/homedetails/209-Van-Braam-St-Pittsburgh-PA-15219/2098149785_zpid/","","","690000","","1450","","09/27/2021","","","","3480.44","sqft","198.25","12","6","","Sarah Cohen","No","No","","209 Van Braam St","Pittsburgh","15219","PA","USA","40.437218","-79.98255"
"https://www.zillow.com/homedetails/174-174-176-175-177-179-41st-And-Almond-Way-Pittsburgh-PA-15201/2076557711_zpid/","","","712000","","1679","","09/24/2021","","","","5250","sqft","135.62","","","","Bob Cortez","No","No","","174-174 176 175 177 179 41st And Almond Way","Pittsburgh","15201","PA","USA","",""
"https://www.zillow.com/homedetails/301-S-Fairmount-St-Pittsburgh-PA-15232/11524520_zpid/","","","538500","634400","3812","233200","09/10/2021","","","","4199.18","sqft","128.24","7","4","","Monice Ming Tong","No","No","","301 S Fairmount St","Pittsburgh","15232","PA","USA","40.461094","-79.93395"
"https://www.zillow.com/homedetails/5644-48-Stanton-Ave-Pittsburgh-PA-15206/2070962927_zpid/","","","775000","","1528","","09/08/2021","","","","9934.8","sqft","78.01","","","","Kathleen DeMartino","No","No","","5644-48 Stanton Ave","Pittsburgh","15206","PA","USA","",""
"https://www.zillow.com/homedetails/3039-W-Liberty-Ave-Pittsburgh-PA-15216/2070262638_zpid/","","","511945","558800","3332","","08/30/2021","","","","","","","8","8","","Robert Dini","No","No","","3039 W Liberty Ave","Pittsburgh","15216","PA","USA","40.392223","-80.03745"
"https://www.zillow.com/homedetails/6525-Dalzell-Pl-Pittsburgh-PA-15217/11289331_zpid/","","","560000","660800","3986","330300","08/27/2021","","","","5070.38","sqft","110.45","7","3","","Tong Guo","No","No","","6525 Dalzell Pl","Pittsburgh","15217","PA","USA","40.44188","-79.91594"
"https://www.zillow.com/homedetails/1522-Denniston-St-Pittsburgh-PA-15217/11630847_zpid/","","","779000","878500","5325","350000","08/18/2021","","","","7500","sqft","103.87","5","5","","Smadar Blumenthal","No","No","","1522 Denniston St","Pittsburgh","15217","PA","USA","40.4413","-79.918686"
"https://www.zillow.com/homedetails/3417-Dawson-St-Pittsburgh-PA-15213/2088502190_zpid/","","","650000","754000","4447","","08/06/2021","","","","5854.46","sqft","111.03","8","5","","Maria DePasquale","No","No","","3417 Dawson St","Pittsburgh","15213","PA","USA","40.435093","-79.95333"
"https://www.zillow.com/homedetails/353-S-Graham-St-Pittsburgh-PA-15232/11524547_zpid/","","","505000","590600","3516","218500","08/04/2021","","","","5600","sqft","90.18","5","3","","Brian Castelucci","No","No","","353 S Graham St","Pittsburgh","15232","PA","USA","40.46021","-79.93623"
"https://www.zillow.com/homedetails/5423-Kentucky-Ave-Pittsburgh-PA-15232/11529401_zpid/","","","775000","857600","5140","388400","08/02/2021","","","","2400.16","sqft","322.9","5","5","","Sharon Rosa","No","No","","5423 Kentucky Ave","Pittsburgh","15232","PA","USA","40.449566","-79.93381"
"https://www.zillow.com/homedetails/78-78-162nd-S-17-Pittsburgh-PA-15203/2075649779_zpid/","","","520000","","1461","","07/29/2021","","","","2761.7","sqft","188.29","9","5","","Libby Sosinski","No","No","# 17","78-78 162nd S #17","Pittsburgh","15203","PA","USA","",""
"https://www.zillow.com/homedetails/436-S-Aiken-Ave-Pittsburgh-PA-15232/11524916_zpid/","","","555000","647700","3861","250300","07/28/2021","","","","5492.92","sqft","101.04","6","3","","Monice Ming Tong","No","No","","436 S Aiken Ave","Pittsburgh","15232","PA","USA","40.458523","-79.938515"
"https://www.zillow.com/homedetails/5543-5545-Beacon-St-Pittsburgh-PA-15217/11631709_zpid/","","","505000","593100","3564","309800","07/16/2021","","","","","","","6","4","","Cheryl Gerson","No","No","","5543-5545 Beacon St","Pittsburgh","15217","PA","USA","40.434227","-79.92885"
"https://www.zillow.com/homedetails/108-Crofton-Dr-Pittsburgh-PA-15238/11412096_zpid/","","","599000","674800","4101","450000","07/06/2021","2402","sqft","249.38","9138","sqft","65.55","4","3","","","No","No","","108 Crofton Dr","Pittsburgh","15238","PA","USA","40.515987","-79.8685"
"https://www.zillow.com/homedetails/1138-Illinois-Ave-Pittsburgh-PA-15216/2076740789_zpid/","","","725000","500000","3230","","06/17/2021","","","","3828.92","sqft","189.35","","","","Karen Marshall","No","No","","1138 Illinois Ave","Pittsburgh","15216","PA","USA","40.391834","-80.03065"
"https://www.zillow.com/homedetails/232-232-N-Main-St-234-Pittsburgh-PA-15215/2075179178_zpid/","","","700000","","1050","","06/16/2021","","","","7210","sqft","97.09","19","9","","Robert Strohm","No","No","# 234","232-232 N Main St #234","Pittsburgh","15215","PA","USA","",""
"https://www.zillow.com/homedetails/140-Academy-Ave-Pittsburgh-PA-15228/2072280360_zpid/","","","745000","","1762","","06/14/2021","","","","7200","sqft","103.47","6","6","","Brad Templeton","No","No","","140 Academy Ave","Pittsburgh","15228","PA","USA","",""
"https://www.zillow.com/homedetails/10th-Street-Extension-Hwy-Irwin-PA-15642/304137499_zpid/","","","610000","622500","3835","67520","06/10/2021","1434","sqft","425.38","0.49","acres","1239867.48","","","","","No","No","","10th Street Extension Hwy","Irwin","15642","PA","USA","40.3496","-79.78295"
"https://www.zillow.com/homedetails/436-Wildwood-Ave-Verona-PA-15147/2076756165_zpid/","","","540000","527200","3102","","05/27/2021","","","","0.29","acres","1862068.97","9","8","","Marc Schein","No","No","","436 Wildwood Ave","Verona","15147","PA","USA","40.503483","-79.841705"
"https://www.zillow.com/homedetails/385-44th-St-Pittsburgh-PA-15201/11513587_zpid/","","","575000","664500","3919","281700","05/20/2021","","","","","","","7","3","","Phillip Anthony","No","No","","385 44th St","Pittsburgh","15201","PA","USA","40.468525","-79.955345"
"https://www.zillow.com/homedetails/319-N-Beatty-St-Pittsburgh-PA-15206/2075430613_zpid/","","","840000","","1749","","05/19/2021","","","","0.25","acres","3355378.27","3","1","","Michael DiFiore","No","No","","319 N Beatty St","Pittsburgh","15206","PA","USA","40.464893","-79.92557"
"https://www.zillow.com/homedetails/1216-Macon-Ave-Pittsburgh-PA-15218/11343928_zpid/","","","805000","863900","5262","327700","05/07/2021","","","","5998.21","sqft","134.21","7","6","","Anthony Dasta","No","No","","1216 Macon Ave","Pittsburgh","15218","PA","USA","40.429672","-79.89593"
"https://www.zillow.com/homedetails/6811-McPherson-Blvd-Pittsburgh-PA-15208/11286454_zpid/","","","580000","629900","3843","95100","04/14/2021","","","","6298.78","sqft","92.08","7","3","","Anthony Dasta","No","No","","6811 McPherson Blvd","Pittsburgh","15208","PA","USA","40.45496","-79.907585"
"https://www.zillow.com/homedetails/5972-Alder-St-Pittsburgh-PA-15232/11624898_zpid/","","","546300","581000","3584","215000","04/01/2021","","","","2700","sqft","202.33","4","3","","Brian Sergi-Curfman","No","No","","5972 Alder St","Pittsburgh","15232","PA","USA","40.45696","-79.9262"
"https://www.zillow.com/homedetails/309-309-311-311-5-Semple-St-Pittsburgh-PA-15213/2076557810_zpid/","","","510000","","1867","","02/25/2021","","","","2332","sqft","218.7","6","3","","Ryan Shedlock","No","No","","309-309 311 311.5 Semple St","Pittsburgh","15213","PA","USA","",""
"https://www.zillow.com/homedetails/309-311-311-5-Semple-St-Pittsburgh-PA-15213/2076772289_zpid/","","","510000","578000","3631","","02/25/2021","","","","2330","sqft","218.88","","","","","No","No","","309-311-311.5 Semple St","Pittsburgh","15213","PA","USA","",""
"https://www.zillow.com/homedetails/309-311-Semple-St-Pittsburgh-PA-15213/164336619_zpid/","","","510000","616300","3708","118800","02/23/2021","3762","sqft","135.57","1030","sqft","495.15","6","3","","","No","No","","309-311 Semple St","Pittsburgh","15213","PA","USA","40.438686","-79.95668"
"https://www.zillow.com/homedetails/5518-Howe-St-Pittsburgh-PA-15232/11628762_zpid/","","","565000","675300","4101","351200","02/04/2021","","","","3751","sqft","150.63","3","3","","Thomas Cahill","No","No","","5518 Howe St","Pittsburgh","15232","PA","USA","40.45037","-79.932365"
"https://www.zillow.com/homedetails/372-Washington-Ave-Bridgeville-PA-15017/2079452150_zpid/","","","734500","","2892","","01/26/2021","","","","","","","","","","Jennifer Crouse","No","No","","372 Washington Ave","Bridgeville","15017","PA","USA","40.360645","-80.11154"
"https://www.zillow.com/homedetails/Route-9801-Adams-Rd-New-Kensington-PA-15068/304138869_zpid/","","","537500","644900","4024","99730","01/15/2021","3509","sqft","153.18","1.1","acres","488636.36","","","","","No","No","","Route 9801 & Adams Rd","New Kensington","15068","PA","USA","40.528202","-79.756584"
"https://www.zillow.com/homedetails/643-Summerlea-St-Pittsburgh-PA-15232/2077448439_zpid/","","","625000","719700","4367","","12/31/2020","","","","4840","sqft","129.13","8","6","","Margaret Lampenfield","No","No","","643 Summerlea St","Pittsburgh","15232","PA","USA","40.453903","-79.93068"
"https://www.zillow.com/homedetails/637-Summerlea-St-Pittsburgh-PA-15232/2077448483_zpid/","","","525000","622100","3780","","12/31/2020","","","","4840","sqft","108.47","4","5","","Margaret Lampenfield","No","No","","637 Summerlea St","Pittsburgh","15232","PA","USA","40.4541","-79.9308"
"https://www.zillow.com/homedetails/1328-1300-Pocono-St-Pittsburgh-PA-15218/2077828585_zpid/","","","555989","634700","3387","","12/31/2020","","","","","","","5","4","","Dana Bufalo","No","No","","1328-1300 Pocono St","Pittsburgh","15218","PA","USA","",""
"https://www.zillow.com/homedetails/641-Summerlea-St-Pittsburgh-PA-15232/2079519687_zpid/","","","525000","622100","3780","","12/31/2020","","","","4840","sqft","108.47","4","5","","Margaret Lampenfield","No","No","","641 Summerlea St","Pittsburgh","15232","PA","USA","40.454002","-79.93074"
"https://www.zillow.com/homedetails/905-Beech-Ave-Pittsburgh-PA-15233/11611747_zpid/","","","650000","773800","4778","487100","12/30/2020","","","","3297.49","sqft","197.12","5","5","","Nicholas Fix","No","No","","905 Beech Ave","Pittsburgh","15233","PA","USA","40.452553","-80.01698"
"https://www.zillow.com/homedetails/5522-Black-St-Pittsburgh-PA-15206/249412096_zpid/","","","516750","624900","3809","260300","12/29/2020","","","","2280","sqft","226.64","7","4","","Phillip Anthony","No","No","","5522 Black St","Pittsburgh","15206","PA","USA","40.4691","-79.929276"
"https://www.zillow.com/homedetails/5728-Solway-St-Pittsburgh-PA-15217/11630664_zpid/","","","570000","774000","4674","498800","12/18/2020","3518","sqft","162.02","4920","sqft","115.85","6","3","","","No","No","","5728 Solway St","Pittsburgh","15217","PA","USA","40.44268","-79.92472"
"https://www.zillow.com/homedetails/343-S-Aiken-Ave-Pittsburgh-PA-15232/11524446_zpid/","","","539000","679700","4023","471600","12/08/2020","4207","sqft","128.12","7501","sqft","71.86","","3","","","No","No","","343 S Aiken Ave","Pittsburgh","15232","PA","USA","40.460537","-79.9375"
"https://www.zillow.com/homedetails/1341-Beechwood-Blvd-Pittsburgh-PA-15217/11629994_zpid/","","","1200000","1349300","8275","1050000","11/30/2020","","","","7178.18","sqft","167.17","7","6","","Roslyn Neiman","No","No","","1341 Beechwood Blvd","Pittsburgh","15217","PA","USA","40.44507","-79.91759"
"https://www.zillow.com/homedetails/5255-Ellsworth-Ave-Pittsburgh-PA-15232/11528562_zpid/","","","632500","815200","4970","553400","11/27/2020","3436","sqft","184.08","4366","sqft","144.87","6","2","","","No","No","","5255 Ellsworth Ave","Pittsburgh","15232","PA","USA","40.4526","-79.93787"
"https://www.zillow.com/homedetails/6915-6917-Meade-St-Pittsburgh-PA-15208/11287183_zpid/","","","596175","606100","3627","243500","11/23/2020","1938","sqft","307.62","6750","sqft","88.32","4","2","","","No","No","","6915-6917 Meade St","Pittsburgh","15208","PA","USA","40.45238","-79.906845"
"https://www.zillow.com/homedetails/930-Punta-Gorda-Ave-East-Mc-Keesport-PA-15035/306750865_zpid/","","","820000","668900","4780","717500","11/20/2020","","","","0.27","acres","2997076.02","1","1","","Will Smith","No","No","","930 Punta Gorda Ave","East Mc Keesport","15035","PA","USA","40.383907","-79.80897"
"https://www.zillow.com/homedetails/5253-5253-5255-Ellsworth-Ave-Pittsburgh-PA-15232/2076152891_zpid/","","","632500","","2123","","11/16/2020","","","","4364.71","sqft","144.91","6","2","","Joseph Pegher","No","No","","5253 5253/5255 Ellsworth Ave","Pittsburgh","15232","PA","USA","40.45256","-79.93726"
"https://www.zillow.com/homedetails/20-Thomas-St-Pittsburgh-PA-15205/2079119322_zpid/","","","1200000","","3771","","11/12/2020","","","","7122","sqft","168.49","","","","","No","No","","20 Thomas St","Pittsburgh","15205","PA","USA","40.438824","-80.06826"
"https://www.zillow.com/homedetails/203-Grandview-Ave-Pittsburgh-PA-15211/11515453_zpid/","","","715000","719500","4479","625600","11/09/2020","","","","1504","sqft","475.4","4","5","","Phillip Anthony","No","No","","203 Grandview Ave","Pittsburgh","15211","PA","USA","40.432205","-80.00836"
"https://www.zillow.com/homedetails/290-292-Lemoyne-Ave-Pittsburgh-PA-15228/2077814226_zpid/","","","630000","717400","4014","","11/06/2020","","","","6700","sqft","94.03","8","4","","Kimberly Lanphear","No","No","","290-292 Lemoyne Ave","Pittsburgh","15228","PA","USA","",""
"https://www.zillow.com/homedetails/1203-1207-Kelton-Pittsburgh-PA-15216/2077245220_zpid/","","","570000","797400","4668","","11/04/2020","12000","sqft","47.5","","","","9","6","","","No","No","","1203-1207 Kelton","Pittsburgh","15216","PA","USA","40.390583","-80.03565"
"https://www.zillow.com/homedetails/4107-Siebert-St-Pittsburgh-PA-15201/2096280619_zpid/","","","1071591","","1695","","10/30/2020","","","","7501.03","sqft","142.86","10","5","","Jay Robinson","No","No","","4107 Siebert St","Pittsburgh","15201","PA","USA","40.46655","-79.9556"